Time, AccX(m/s^2), AccY(m/s^2), AccZ(m/s^2), GyrX(rad/s), GyrY(rad/s), GyrZ(rad/s), Roll(deg), Pitch(deg), Yaw(deg), Heading, X(m), Y(m), Z(m),         Vx(m/s), Vy(m/s), Vz(m/s), AccXraw(m/s^2), AccYraw(m/s^2), AccZraw(m/s^2), RollAcc(deg/s^2), PitchAcc(deg/s^2), Latitude, Longitude,             GPShspeed(m/s), GPSalt(m), MagX(uT), MagY(ut), MagZ(uT)
0,-0.004462,-0.001448,5.876511,0.000571,0.000544,-0.000979,-0.014057,-0.043275,94.15103,4.148447,1E-05,-0.000133,-0.059002,6.5E-05,-0.000888,-0.393349,-0.007436,-0.002413,9.794184,-0.014118,-0.0435,29.702198,-95.838145,0.067,0,-0.02193,0.299495,-0.279715
0.1,-0.001938,-0.007413,8.228192,-0.002484,-0.001289,-0.001132,-0.041601,-0.029495,94.170913,4.209298,4.5E-05,-0.000313,-0.122064,0.000253,-0.001493,-0.55153,-0.000255,-0.011389,9.79598,-0.051618,-0.013493,29.702198,-95.838145,0.067,26.4,-0.02193,0.298205,-0.293045
0.2,-0.003082,-0.005131,9.170301,0.000418,0.001307,-0.000368,-0.03696,-0.018115,94.750964,5.858894,6.6E-05,-0.000552,-0.186813,0.000225,-0.002095,-0.6155,-0.003846,-0.00361,9.798373,-0.032059,-0.019259,29.702198,-95.838145,0.067,26.4,-0.03053,0.296485,-0.299495
0.3,-0.001027,-0.008168,9.547144,-0.000651,0.00314,0.000243,-0.045685,-0.001109,95.006874,4.897878,9.8E-05,-0.000779,-0.252306,0.000291,-0.002211,-0.641785,0.000343,-0.010193,9.798373,-0.049019,-0.006163,29.702198,-95.838145,0.067,26.4,-0.02537,0.296485,-0.295195
0.4,-0.001282,-0.007228,9.697882,0.002709,0.001613,0.001617,-0.037781,0.001511,95.112692,4.942756,0.000141,-0.001015,-0.318166,0.000383,-0.002306,-0.652997,-0.001452,-0.006602,9.798373,-0.042706,-0.007574,29.702198,-95.838145,0.067,26.4,-0.02537,0.293045,-0.299065
0.5,-0.00282,-0.006494,9.758177,0.000876,-0.0019,-0.000216,-0.037452,-0.012818,95.23951,5.291694,0.000188,-0.00132,-0.384243,0.00044,-0.002803,-0.658179,-0.003846,-0.006004,9.798373,-0.038128,-0.016558,29.702198,-95.838145,0.067,26.4,-0.02752,0.296055,-0.295195
0.6,-0.003794,-0.001891,9.780858,-0.000956,-0.000525,0.000395,-0.031558,-0.01915,95.471905,5.797124,0.00019,-0.001711,-0.450498,0.000159,-0.00354,-0.661093,-0.004444,0.001177,9.79598,-0.011078,-0.022227,29.702198,-95.838145,0.067,26.4,-0.02967,0.290895,-0.293475
0.7,-0.003107,-0.003282,9.791367,-0.002789,-0.000525,-0.001743,-0.036748,-0.021486,95.449529,4.879531,0.00017,-0.00217,-0.516887,-7.5E-05,-0.004243,-0.662957,-0.002649,-0.004208,9.798373,-0.019203,-0.018181,29.702198,-95.838145,0.067,26.4,-0.02494,0.291325,-0.297345
0.8,-0.001037,-0.004556,9.793776,0.000113,0.000849,-0.000368,-0.031699,-0.013451,95.450762,5.233648,0.000155,-0.002645,-0.583426,-0.000129,-0.004583,-0.664579,0.000343,-0.005405,9.795381,-0.026652,-0.006065,29.702198,-95.838145,0.067,26.4,-0.02666,0.291325,-0.293905
0.9,0.002664,-0.005066,9.792226,0.002098,-0.000678,0.001312,-0.021702,-0.006469,95.508051,5.473135,0.00016,-0.003079,-0.65015,-9E-06,-0.004415,-0.666357,0.005131,-0.005405,9.791192,-0.029639,0.015586,29.702198,-95.838146,0.05,0,-0.02795,0.293475,-0.293905
1,-0.003037,-0.003474,9.791965,-0.001567,-0.001289,0.002381,-0.026502,-0.014102,95.444689,4.81147,0.000151,-0.003603,-0.717057,-6.2E-05,-0.004967,-0.66816,-0.006838,-0.002413,9.791791,-0.020328,-0.017771,29.702198,-95.838146,0.05,26.6,-0.02537,0.299065,-0.290035
1.1,-0.00424,-0.001401,9.790783,0.001487,-0.000983,-0.000826,-0.013878,-0.020376,95.32041,4.681825,0.000141,-0.004216,-0.784161,-8.7E-05,-0.005745,-0.670082,-0.005042,-2E-05,9.789996,-0.008201,-0.024814,29.702198,-95.838146,0.05,26.6,-0.02408,0.292185,-0.293905
1.2,0.003537,-0.00524,9.795337,0.00332,-0.000373,0.004213,-0.003078,-0.010077,95.52001,6.500944,0.0002,-0.004757,-0.851389,0.000365,-0.005519,-0.671548,0.008721,-0.007799,9.798373,-0.03065,0.020686,29.702198,-95.838146,0.05,26.6,-0.03354,0.296915,-0.299925
1.3,-0.002329,-0.00498,9.797159,-0.001109,0.001765,-0.000368,-0.013833,-0.001718,95.78171,6.681894,0.00028,-0.005344,-0.918737,0.000651,-0.005754,-0.672832,-0.006239,-0.004807,9.798373,-0.029125,-0.01362,29.702198,-95.838146,0.05,26.6,-0.0344,0.292185,-0.293045
1.4,0.000711,-0.004876,9.793938,0.003014,-0.001442,0.001922,-0.004057,-0.005159,95.728651,4.496086,0.000407,-0.005916,-0.986261,0.001069,-0.005729,-0.674438,0.002737,-0.004807,9.791791,-0.028526,0.004157,29.702198,-95.838146,0.05,26.6,-0.02322,0.296485,-0.293905
1.5,-0.005614,-0.005194,9.795163,-0.001262,-0.000983,-0.000979,-0.016055,-0.014126,95.782462,6.046437,0.000563,-0.006605,-1.053927,0.001394,-0.006503,-0.675922,-0.00983,-0.005405,9.79598,-0.03038,-0.032836,29.702198,-95.838146,0.05,26.6,-0.03182,0.297775,-0.294765
1.6,0.004064,-0.00568,9.793499,-0.001109,0.001155,-0.002354,-0.025499,0.000523,95.878523,6.188579,0.000716,-0.007191,-1.121767,0.001482,-0.006077,-0.677572,0.010516,-0.006004,9.792389,-0.033228,0.023778,29.702198,-95.838146,0.05,26.6,-0.03182,0.296485,-0.288315
1.7,0.001832,-0.005874,9.796423,0.000723,0.001002,-0.000521,-0.024943,0.008947,95.747572,4.240935,0.000883,-0.007746,-1.189728,0.001609,-0.005726,-0.67893,0.000343,-0.006004,9.798373,-0.034356,0.010713,29.702198,-95.838146,0.05,26.6,-0.02193,0.296055,-0.293045
1.8,-0.002652,-0.01026,9.796516,0.000265,-0.001136,0.002075,-0.031687,0.000748,95.669228,5.118954,0.00112,-0.008349,-1.257823,0.002116,-0.005929,-0.680278,-0.005641,-0.013185,9.796578,-0.060009,-0.015509,29.702199,-95.838146,0.09,0,-0.02623,0.291325,-0.291755
1.9,-0.005163,-0.009861,9.79763,-0.001415,-0.001136,-0.000521,-0.044717,-0.008759,95.506651,4.309522,0.001374,-0.009039,-1.326036,0.0024,-0.006571,-0.681514,-0.006838,-0.009594,9.798373,-0.057664,-0.030194,29.702199,-95.838146,0.09,26.5,-0.02236,0.294335,-0.287885
2,-0.005809,-0.007547,9.795922,-0.002636,0.000849,0.002839,-0.058797,-0.008021,95.35808,4.361946,0.001587,-0.009806,-1.394399,0.002218,-0.00731,-0.682922,-0.006239,-0.006004,9.794783,-0.044139,-0.033975,29.702199,-95.838146,0.09,26.5,-0.02236,0.290895,-0.290035
2.1,-0.006067,-0.005903,9.79093,-0.002636,0.001765,-0.00159,-0.068722,-0.003463,95.216455,4.526728,0.00173,-0.010645,-1.462977,0.001696,-0.008026,-0.684829,-0.006239,-0.004807,9.787602,-0.034542,-0.035504,29.702199,-95.838146,0.09,26.5,-0.02365,0.296485,-0.295625
2.2,-0.005452,-0.004886,9.792524,-0.001415,0.00314,-0.000368,-0.070005,0.007348,95.003294,3.525963,0.0018,-0.011519,-1.531722,0.001028,-0.008505,-0.686577,-0.005042,-0.004208,9.793586,-0.028589,-0.031901,29.702199,-95.838146,0.09,26.5,-0.01849,0.297775,-0.290465
2.3,-0.003411,-0.010583,9.796033,0.001029,-0.001289,-0.000979,-0.064459,-0.003158,94.899859,4.790184,0.001901,-0.01243,-1.600589,0.001018,-0.008903,-0.687973,-0.00205,-0.014381,9.798373,-0.061901,-0.019951,29.702199,-95.838146,0.09,26.5,-0.02451,0.292185,-0.289605
2.4,-0.007621,-0.011067,9.79636,0.001487,0.002682,9E-05,-0.057979,0.003305,94.875841,5.088228,0.002029,-0.013424,-1.669591,0.001193,-0.009596,-0.689336,-0.010428,-0.011389,9.796578,-0.064727,-0.044574,29.702199,-95.838146,0.09,26.5,-0.02623,0.291325,-0.302075
2.5,-0.009305,-0.006952,9.797927,0.000571,0.000696,0.001312,-0.053356,-0.002561,94.809621,4.252444,0.002128,-0.014532,-1.738705,0.001058,-0.010585,-0.690543,-0.010428,-0.004208,9.798972,-0.040653,-0.054415,29.702199,-95.838146,0.09,26.5,-0.02193,0.290895,-0.290895
2.6,-0.006748,-0.004588,9.794245,0.002251,0.000696,-0.000674,-0.039114,-0.00563,94.679813,3.771114,0.002212,-0.015708,-1.807996,0.000912,-0.011371,-0.692119,-0.005042,-0.003012,9.791791,-0.026838,-0.039473,29.702199,-95.838143,0.076,0,-0.01935,0.291325,-0.298635
2.7,-0.000698,-0.005437,9.7899,-0.000804,0.00146,9E-05,-0.042564,0.000343,94.560874,3.955628,0.002276,-0.016857,-1.877509,0.000734,-0.011449,-0.694128,0.003335,-0.006004,9.787003,-0.031822,-0.004084,29.702199,-95.838143,0.076,26.4,-0.02021,0.293905,-0.295195
2.8,-0.005459,-0.002546,9.791394,-0.000193,-0.002358,-0.003117,-0.040146,-0.017222,94.494883,4.660904,0.002295,-0.018133,-1.947201,0.00037,-0.012321,-0.695989,-0.008633,-0.000618,9.792389,-0.014897,-0.031943,29.702199,-95.838143,0.076,26.4,-0.02408,0.292185,-0.295195
2.9,-0.007722,-0.006416,9.795581,0.002251,0.000544,0.000395,-0.028856,-0.019873,94.435005,4.147506,0.002367,-0.019529,-2.017017,0.000604,-0.013418,-0.697431,-0.009231,-0.008996,9.798373,-0.037527,-0.045168,29.702199,-95.838143,0.076,26.4,-0.02107,0.287025,-0.293045
3,-0.005396,-0.001142,9.794743,0.001029,-6.7E-05,-0.001437,-0.021125,-0.023545,94.359994,4.082616,0.002401,-0.021015,-2.086989,0.000429,-0.014376,-0.698957,-0.003846,0.002374,9.794184,-0.00668,-0.031566,29.702199,-95.838143,0.076,26.4,-0.02107,0.293475,-0.299925
3.1,-0.00662,-0.005854,9.796203,0.000265,0.001613,0.001617,-0.021668,-0.019307,94.343752,4.597689,0.002488,-0.022598,-2.157091,0.000718,-0.015349,-0.700337,-0.007436,-0.008996,9.797176,-0.03424,-0.038719,29.702199,-95.838143,0.076,26.4,-0.02408,0.296915,-0.296055
3.2,-0.00711,-0.006662,9.796069,-0.000193,-0.003732,0.002533,-0.025085,-0.042825,94.343609,4.540953,0.002611,-0.024346,-2.227334,0.001064,-0.01677,-0.701731,-0.007436,-0.007201,9.79598,-0.038965,-0.041583,29.702199,-95.838143,0.076,26.4,-0.02365,0.295195,-0.293045
3.3,-0.011255,-0.006267,9.796374,0.001945,-0.000373,-0.000826,-0.017117,-0.049547,94.239038,3.292071,0.00279,-0.026315,-2.297712,0.001543,-0.018712,-0.703095,-0.014018,-0.006004,9.796578,-0.036654,-0.065826,29.702199,-95.838143,0.076,26.4,-0.0172,0.291755,-0.299495
3.4,-0.008245,-0.011854,9.794342,-0.002636,-0.00022,-0.003575,-0.037227,-0.052631,94.171272,4.327414,0.003045,-0.028438,-2.368256,0.002216,-0.020392,-0.704661,-0.006239,-0.015578,9.792988,-0.069343,-0.048235,29.702199,-95.838143,0.076,26.4,-0.02236,0.293475,-0.294765
3.5,-0.002733,-0.015166,9.794248,0.001334,0.001307,0.000548,-0.037351,-0.043782,94.196721,5.008911,0.003409,-0.03062,-2.438958,0.003167,-0.021347,-0.706236,0.000942,-0.017374,9.794184,-0.088718,-0.015989,29.702199,-95.838142,0.047,0,-0.0258,0.295195,-0.287885
3.6,-0.001605,-0.007514,9.796723,0.001029,0.002071,-0.003117,-0.03399,-0.031209,94.187537,4.43589,0.003759,-0.032857,-2.509781,0.003387,-0.022027,-0.707564,-0.000853,-0.002413,9.798373,-0.043947,-0.009389,29.702199,-95.838142,0.047,26.4,-0.02322,0.299065,-0.290465
3.7,0.000282,-0.004454,9.797713,0.003167,-0.002969,0.001006,-0.018159,-0.04425,94.151283,3.787729,0.004126,-0.035167,-2.580722,0.003575,-0.022744,-0.708792,0.00154,-0.002413,9.798373,-0.026044,0.001649,29.702199,-95.838142,0.047,26.4,-0.01935,0.293045,-0.293905
3.8,-0.005426,0.003592,9.797032,0.000113,-0.000373,0.004977,-0.014303,-0.046222,94.137465,4.060767,0.004407,-0.037648,-2.651796,0.003068,-0.024117,-0.71009,-0.009231,0.008957,9.796578,0.02101,-0.031732,29.702199,-95.838142,0.047,26.4,-0.02064,0.286595,-0.291755
3.9,-0.006273,0.001066,9.785988,0.002403,-0.001594,-0.001743,-0.000738,-0.054678,94.114295,4.414054,0.004713,-0.040294,-2.723165,0.003062,-0.025682,-0.712492,-0.006838,-0.000618,9.778626,0.006242,-0.036727,29.702199,-95.838142,0.047,26.4,-0.02322,0.298205,-0.289175
4,-0.009484,-0.00928,9.793419,0.000723,-0.002205,-0.001437,-0.003965,-0.067308,94.109341,4.47798,0.005171,-0.043167,-2.794663,0.00407,-0.027714,-0.714152,-0.011625,-0.016177,9.798373,-0.054289,-0.055486,29.702199,-95.838142,0.047,26.4,-0.02322,0.292615,-0.287455
4.1,-0.004306,-0.002287,9.792442,0.002861,0.001002,-6.3E-05,0.008342,-0.058789,94.06071,3.604561,0.005648,-0.046149,-2.866342,0.004542,-0.02912,-0.715909,-0.000853,0.002374,9.791791,-0.013384,-0.025193,29.702199,-95.838142,0.047,26.4,-0.01849,0.293045,-0.290465
4.2,-0.005107,-0.004876,9.793488,0.000571,0.001307,-0.00159,0.005845,-0.049996,94.04704,4.500969,0.006205,-0.049259,-2.938181,0.005224,-0.03044,-0.717561,-0.005641,-0.006602,9.794184,-0.028528,-0.029876,29.702199,-95.838142,0.047,26.4,-0.02322,0.293045,-0.290465
4.3,0.000677,-0.005194,9.796419,0.001334,-0.002358,-6.3E-05,0.007147,-0.057091,94.046704,4.313978,0.006833,-0.052432,-3.010141,0.005928,-0.031301,-0.71892,0.004532,-0.005405,9.798373,-0.030376,0.003957,29.702199,-95.838142,0.047,26.4,-0.02193,0.292615,-0.284875
4.4,-0.001678,-0.004962,9.796155,0.002709,-0.000831,-0.000979,0.015288,-0.056796,94.090107,5.022492,0.007551,-0.055725,-3.08224,0.006765,-0.032383,-0.720305,-0.003247,-0.004807,9.79598,-0.029019,-0.009812,29.7022,-95.838141,0.04,0,-0.0258,0.292615,-0.290465
4.5,-0.008723,-0.004151,9.792459,0.00332,-0.003274,-0.000826,0.025962,-0.073219,94.144583,4.912228,0.008379,-0.059272,-3.154534,0.007775,-0.034439,-0.722061,-0.01342,-0.00361,9.789996,-0.024286,-0.051039,29.7022,-95.838141,0.04,26.4,-0.0258,0.295625,-0.293045
4.6,-0.013696,-0.00634,9.79529,-0.000956,-0.003732,9E-05,0.011986,-0.093225,94.143128,3.929469,0.009314,-0.06315,-3.226962,0.008826,-0.037334,-0.723536,-0.017011,-0.007799,9.797176,-0.037083,-0.08011,29.7022,-95.838141,0.04,26.4,-0.02064,0.293475,-0.286165
4.7,-0.012094,-0.00542,9.795345,0.001487,-0.000373,0.000243,0.012325,-0.092835,94.218511,5.471411,0.010341,-0.067293,-3.299536,0.009782,-0.040067,-0.725005,-0.011026,-0.004807,9.795381,-0.031703,-0.070742,29.7022,-95.838141,0.04,26.4,-0.02838,0.293045,-0.287885
4.8,-0.00535,-0.003975,9.792853,0.002709,0.002834,-0.001285,0.019549,-0.071762,94.271976,4.839911,0.011448,-0.071555,-3.372293,0.010643,-0.04177,-0.726721,-0.000853,-0.003012,9.791192,-0.023257,-0.0313,29.7022,-95.838141,0.04,26.4,-0.02494,0.294335,-0.286595
4.9,-0.005883,-0.006269,9.796165,0.000418,-0.000525,0.000548,0.012628,-0.070245,94.281626,4.097968,0.012658,-0.07599,-3.445173,0.011617,-0.043491,-0.728106,-0.006239,-0.007799,9.798373,-0.036668,-0.034411,29.7022,-95.838141,0.04,26.4,-0.02107,0.291755,-0.288315
5,-0.007892,-0.006469,9.796054,0.004694,-6.7E-05,0.001617,0.027967,-0.067585,94.262045,3.878232,0.01401,-0.080618,-3.518193,0.012884,-0.045347,-0.729503,-0.009231,-0.006602,9.79598,-0.037836,-0.04616,29.7022,-95.838141,0.04,26.4,-0.02021,0.294335,-0.286165
5.1,-0.01085,-0.005831,9.794932,0.003167,-0.005412,0.00345,0.033901,-0.094314,94.257499,4.16597,0.015502,-0.085543,-3.59137,0.014244,-0.04795,-0.731013,-0.012822,-0.005405,9.794184,-0.034107,-0.063466,29.7022,-95.838141,0.04,26.4,-0.02193,0.296055,-0.288315
5.2,-0.010238,-0.003421,9.795202,0.003014,-0.002053,-0.000521,0.039537,-0.100466,94.272631,4.78168,0.01711,-0.090737,-3.664694,0.015463,-0.050608,-0.732497,-0.00983,-0.001815,9.795381,-0.020012,-0.059884,29.7022,-95.83814,0.023,0,-0.02451,0.289605,-0.287885
5.3,-0.005684,-0.002457,9.793155,0.002709,-0.0019,0.00177,0.04328,-0.102182,94.372446,5.68387,0.01883,-0.096133,-3.738197,0.016622,-0.052841,-0.734184,-0.002649,-0.001815,9.791791,-0.014377,-0.033257,29.7022,-95.83814,0.023,26.4,-0.02924,0.293045,-0.291755
5.4,-0.003145,-0.009612,9.794491,-0.004316,-0.002969,-0.001743,0.005897,-0.107272,94.387108,4.237247,0.020676,-0.101726,-3.811848,0.017845,-0.054902,-0.735738,-0.001452,-0.014381,9.795381,-0.056227,-0.018397,29.7022,-95.83814,0.023,26.4,-0.0215,0.290035,-0.294335
5.5,-0.001411,-0.003857,9.79682,-0.000651,0.00146,0.000853,-0.005606,-0.087553,94.402318,4.432517,0.022522,-0.107458,-3.88562,0.01826,-0.056513,-0.737057,-0.000255,-2E-05,9.798373,-0.022554,-0.008252,29.7022,-95.83814,0.023,26.4,-0.02279,0.293905,-0.287885
5.6,-0.003949,-0.005863,9.797752,0.003014,0.000696,0.001006,0.001584,-0.074915,94.534183,6.372203,0.02446,-0.113352,-3.95951,0.019004,-0.058135,-0.738283,-0.005641,-0.007201,9.798373,-0.034286,-0.023092,29.7022,-95.83814,0.023,26.4,-0.03311,0.295195,-0.290895
5.7,-0.006041,-0.009179,9.797048,0.003472,-0.003427,-0.002201,0.008156,-0.085742,94.597408,4.917786,0.026543,-0.119463,-4.033533,0.020224,-0.060114,-0.739581,-0.007436,-0.011389,9.796578,-0.05368,-0.03533,29.7022,-95.83814,0.023,26.4,-0.02537,0.292615,-0.292185
5.8,-0.002929,-0.00871,9.793894,-0.005385,-0.000525,-0.000826,-0.031487,-0.078372,94.659345,5.12288,0.028635,-0.125714,-4.107732,0.020688,-0.061714,-0.741192,-0.000853,-0.008397,9.791791,-0.050954,-0.017132,29.7022,-95.83814,0.023,26.4,-0.02666,0.297345,-0.290465
5.9,-0.003838,-0.01319,9.794786,0.002709,-0.000831,-0.003423,-0.028289,-0.073545,94.74668,5.828375,0.030849,-0.13212,-4.18208,0.021656,-0.06328,-0.742714,-0.004444,-0.016177,9.795381,-0.077156,-0.022449,29.7022,-95.83814,0.023,26.4,-0.03096,0.302505,-0.285305
6,-0.000252,-0.00816,9.791912,-0.001109,0.001002,0.001312,-0.042242,-0.057344,94.807856,4.82231,0.033042,-0.138597,-4.256623,0.021834,-0.064274,-0.744523,0.002139,-0.004807,9.789996,-0.047748,-0.001474,29.7022,-95.83814,0.023,26.4,-0.02494,0.296485,-0.280145
6.1,-0.006358,-0.004712,9.789326,-0.003094,0.001613,-0.002659,-0.062871,-0.043089,94.871117,5.556957,0.035152,-0.145238,-4.331385,0.02135,-0.065692,-0.746592,-0.010428,-0.002413,9.787602,-0.027579,-0.03721,29.7022,-95.83814,0.067,0,-0.02881,0.293045,-0.287025
6.2,-0.008441,-0.006564,9.792959,0.000113,-0.000678,-0.005102,-0.065817,-0.04331,94.889092,4.919221,0.037238,-0.15205,-4.4063,0.021018,-0.067311,-0.748296,-0.00983,-0.007799,9.795381,-0.038405,-0.049385,29.7022,-95.83814,0.067,26.4,-0.02623,0.301645,-0.286595
6.3,-0.003529,-0.00551,9.79513,0.001487,-0.000678,-0.002201,-0.060603,-0.040555,94.869876,4.276419,0.03928,-0.158943,-4.481353,0.020624,-0.068395,-0.749784,-0.000255,-0.004807,9.796578,-0.032229,-0.020645,29.7022,-95.83814,0.067,26.4,-0.02236,0.299065,-0.284445
6.4,-0.002642,-0.00796,9.795999,0.005458,0.001002,0.001617,-0.036872,-0.028809,94.887577,4.87707,0.041377,-0.165894,-4.556541,0.020853,-0.069135,-0.751184,-0.00205,-0.009594,9.796578,-0.04656,-0.015452,29.7022,-95.83814,0.067,26.4,-0.02537,0.296915,-0.279285
6.5,-0.004441,-0.003196,9.796705,-0.000193,0.00314,9E-05,-0.041778,-0.008324,94.959612,5.816659,0.043411,-0.1729,-4.631859,0.020511,-0.069753,-0.752513,-0.005641,-2E-05,9.797176,-0.018691,-0.025974,29.7022,-95.83814,0.067,26.4,-0.02967,0.289605,-0.291755
6.6,-0.007674,0.001582,9.796629,0.001945,-0.001747,0.001312,-0.032163,-0.017122,94.973863,4.446413,0.04537,-0.180043,-4.707311,0.019897,-0.07087,-0.753851,-0.00983,0.004768,9.796578,0.009254,-0.044883,29.7022,-95.83814,0.067,26.4,-0.02322,0.294765,-0.287025
6.7,-0.005377,-0.006919,9.797317,0.001334,-0.002969,0.002381,-0.031612,-0.030041,95.025986,5.378502,0.047396,-0.187285,-4.782887,0.02014,-0.071905,-0.75512,-0.003846,-0.012586,9.797775,-0.040462,-0.031445,29.7022,-95.83814,0.067,26.4,-0.02795,0.296055,-0.282295
6.8,-0.009126,-0.003138,9.795078,-0.000193,-0.000831,0.001006,-0.036713,-0.032927,95.069631,5.209629,0.049383,-0.1947,-4.858622,0.019958,-0.073402,-0.756612,-0.011625,-0.000618,9.793586,-0.018358,-0.05338,29.7022,-95.83814,0.067,26.4,-0.02709,0.293475,-0.281005
6.9,-0.005599,-0.00773,9.795978,-0.002178,-0.0019,-0.002506,-0.054163,-0.038975,95.079273,4.993176,0.051372,-0.202226,-4.934494,0.019914,-0.074637,-0.758015,-0.003247,-0.010791,9.796578,-0.045212,-0.032745,29.7022,-95.838139,0.181,0,-0.02537,0.289605,-0.287455
7,-0.002033,-0.007412,9.794902,0.000418,0.001918,0.002075,-0.056228,-0.022591,95.107824,5.015051,0.053339,-0.20978,-5.010522,0.019747,-0.075244,-0.759525,0.000343,-0.007201,9.794184,-0.043359,-0.011895,29.7022,-95.838139,0.181,26.2,-0.0258,0.294335,-0.290035
7.1,-0.011738,-0.007285,9.796985,0.001182,-0.002816,0.000853,-0.054006,-0.03805,95.092429,4.488875,0.055308,-0.21758,-5.08667,0.019715,-0.077078,-0.760827,-0.018207,-0.007201,9.798373,-0.042606,-0.068646,29.7022,-95.838139,0.181,26.2,-0.02365,0.294765,-0.282725
7.2,-0.009516,-0.008312,9.79315,0.003167,-0.000983,0.002228,-0.042381,-0.04132,95.067167,4.443972,0.057318,-0.225534,-5.163005,0.019968,-0.07872,-0.762513,-0.008034,-0.008996,9.790594,-0.048628,-0.055673,29.7022,-95.838139,0.181,26.2,-0.02279,0.290465,-0.287885
7.3,-0.006473,-0.004414,9.794848,0.000113,-0.002816,-0.002048,-0.045313,-0.051892,95.038595,4.852179,0.059285,-0.23364,-5.239484,0.019771,-0.080278,-0.764029,-0.004444,-0.001815,9.79598,-0.025817,-0.037862,29.7022,-95.838139,0.181,26.2,-0.02537,0.297345,-0.293475
7.4,-0.00346,-0.007522,9.792655,-0.000346,-0.003274,-0.002354,-0.052072,-0.061808,94.95992,3.937994,0.06126,-0.241879,-5.316147,0.019755,-0.081687,-0.765764,-0.001452,-0.009594,9.791192,-0.04401,-0.020245,29.7022,-95.838139,0.181,26.2,-0.02064,0.299495,-0.284015
7.5,-0.006564,-0.004457,9.796086,0.000418,0.001155,0.000853,-0.052298,-0.049603,94.970602,5.35188,0.063188,-0.250278,-5.392932,0.019438,-0.083225,-0.767156,-0.008633,-0.002413,9.798373,-0.026067,-0.03839,29.7022,-95.838139,0.181,26.2,-0.02838,0.300355,-0.282725
7.6,-0.009241,-0.002872,9.796381,-0.000346,-6.7E-05,9E-05,-0.055309,-0.046502,94.996687,5.249376,0.065056,-0.258866,-5.469853,0.018932,-0.084995,-0.768519,-0.011026,-0.001815,9.796578,-0.016795,-0.05405,29.7022,-95.838139,0.181,26.2,-0.02752,0.296055,-0.288315
7.7,-0.007799,-0.003315,9.796499,0.003472,-0.001136,-0.001132,-0.038454,-0.048378,95.050037,5.686637,0.066921,-0.26761,-5.546907,0.018749,-0.086624,-0.76987,-0.006838,-0.00361,9.796578,-0.019386,-0.045614,29.7022,-95.838139,0.181,26.2,-0.02967,0.296055,-0.286595
7.8,-0.009017,-0.00816,9.797624,-0.000804,0.000391,-0.000368,-0.04814,-0.042942,95.057909,4.718618,0.068817,-0.276517,-5.62408,0.018886,-0.088254,-0.771109,-0.00983,-0.011389,9.798373,-0.047716,-0.052733,29.7022,-95.838138,0.151,0,-0.02494,0.299065,-0.280575
7.9,-0.010582,-0.006866,9.797355,-4E-05,0.000391,-0.001285,-0.052111,-0.039077,95.007457,4.16765,0.070697,-0.285603,-5.701381,0.018833,-0.089992,-0.772374,-0.011625,-0.006004,9.797176,-0.040153,-0.061884,29.7022,-95.838138,0.151,26.1,-0.02193,0.296485,-0.285305
8,-0.007258,-0.004553,9.790067,0.001182,8.6E-05,9E-05,-0.047926,-0.035296,94.972194,4.599903,0.072544,-0.294806,-5.778917,0.018586,-0.091348,-0.774368,-0.005042,-0.003012,9.785208,-0.026649,-0.042478,29.7022,-95.838138,0.151,26.1,-0.02365,0.292185,-0.289175
8.1,-0.003415,-0.001474,9.793974,0.004694,-0.002205,-0.001132,-0.024148,-0.041373,94.976692,5.285544,0.074376,-0.3041,-5.856594,0.018412,-0.092415,-0.775971,-0.000853,0.000579,9.796578,-0.008624,-0.01998,29.7022,-95.838138,0.151,26.1,-0.02666,0.287885,-0.291325
8.2,0.000276,-0.005628,9.7941,-0.000804,-0.001747,-0.004033,-0.033503,-0.042102,94.957796,4.863022,0.076225,-0.313446,-5.93443,0.018462,-0.093106,-0.777561,0.002737,-0.008397,9.794184,-0.032924,0.001615,29.7022,-95.838138,0.151,26.1,-0.02494,0.294335,-0.289605
8.3,0.001394,-0.006212,9.795228,0.002098,0.00146,0.000243,-0.02734,-0.025362,94.933667,4.454299,0.078098,-0.322798,-6.012408,0.018641,-0.093386,-0.779038,0.002139,-0.006602,9.79598,-0.036339,0.008151,29.7022,-95.838138,0.151,26.1,-0.02322,0.299065,-0.284015
8.4,-0.003904,-0.007164,9.797115,0.002556,-0.00022,0.000548,-0.020093,-0.022013,94.987585,5.850287,0.080028,-0.332246,-6.090505,0.019079,-0.094117,-0.780327,-0.007436,-0.007799,9.798373,-0.041899,-0.022832,29.7022,-95.838138,0.151,26.1,-0.03053,0.296055,-0.288315
8.5,-0.008178,-0.001082,9.79787,0.000723,0.001002,9E-05,-0.019438,-0.015338,95.042828,5.479245,0.081916,-0.341822,-6.168719,0.018951,-0.095213,-0.78154,-0.011026,0.002972,9.798373,-0.006329,-0.04782,29.7022,-95.838138,0.151,26.1,-0.02881,0.296915,-0.284875
8.6,-0.000911,-0.004753,9.796736,0.001182,0.000238,-0.000979,-0.018654,-0.009049,95.044793,4.723929,0.083838,-0.351378,-6.247072,0.019128,-0.095444,-0.782866,0.003934,-0.007201,9.79598,-0.027799,-0.005326,29.7022,-95.838138,0.151,26.1,-0.02451,0.298205,-0.286165
8.7,-0.005544,-0.00299,9.786947,0.001182,-0.002816,0.001006,-0.016935,-0.021892,95.027975,4.549949,0.085764,-0.361061,-6.325705,0.019219,-0.096368,-0.785172,-0.008633,-0.001815,9.780421,-0.017506,-0.032456,29.702199,-95.838139,0.102,0,-0.02408,0.299495,-0.284015
8.8,-0.013142,-0.009107,9.79093,0.001487,-0.002663,-0.002048,-0.017544,-0.037292,94.9793,4.470194,0.087803,-0.370982,-6.404508,0.019997,-0.098259,-0.78708,-0.018207,-0.013185,9.793586,-0.053293,-0.076906,29.702199,-95.838139,0.102,26.1,-0.02365,0.296055,-0.287885
8.9,-0.006846,-0.011194,9.795396,0.002251,-0.002511,9E-05,-0.015639,-0.046707,94.974203,5.059387,0.089949,-0.381018,-6.483435,0.020974,-0.099662,-0.788541,-0.002649,-0.012586,9.798373,-0.065479,-0.040044,29.702199,-95.838139,0.102,26.1,-0.0258,0.290895,-0.294765
9,-0.005764,-0.00449,9.792874,-4E-05,-0.003122,0.001617,-0.021905,-0.057587,94.968595,4.731741,0.092078,-0.391217,-6.562546,0.021184,-0.101211,-0.790254,-0.005042,-2E-05,9.791192,-0.026267,-0.033723,29.702199,-95.838139,0.102,26.1,-0.02494,0.299495,-0.291325
9.1,-0.003895,-0.004321,9.794019,-0.000804,-0.001442,9E-05,-0.031363,-0.05744,94.909574,4.063722,0.094199,-0.401544,-6.641811,0.021198,-0.102586,-0.791853,-0.002649,-0.004208,9.794783,-0.025278,-0.022785,29.702199,-95.838139,0.102,26.1,-0.0215,0.301645,-0.290895
9.2,-0.000993,-0.006767,9.796632,0.002556,0.001307,-0.000979,-0.024038,-0.041234,94.902244,5.222745,0.096368,-0.411919,-6.721197,0.021531,-0.103365,-0.79319,0.000942,-0.008397,9.798373,-0.039576,-0.005807,29.702199,-95.838139,0.102,26.1,-0.02709,0.296915,-0.287885
9.3,-0.002704,-0.004873,9.79624,-0.002484,-0.000831,-0.000521,-0.042288,-0.038527,94.908092,5.036476,0.098498,-0.422398,-6.800723,0.021376,-0.104311,-0.794566,-0.003846,-0.00361,9.79598,-0.0285,-0.015818,29.702199,-95.838139,0.102,26.1,-0.02623,0.296485,-0.279715
9.4,-0.005184,-0.004833,9.79393,-0.003553,0.00146,-0.00159,-0.064032,-0.025716,94.926623,5.267878,0.100557,-0.43298,-6.88042,0.020849,-0.105318,-0.796174,-0.006838,-0.004807,9.792389,-0.028275,-0.030329,29.702199,-95.838139,0.102,26.1,-0.02709,0.291755,-0.290465
9.5,-0.004381,-0.004817,9.796596,0.000265,8.6E-05,0.000701,-0.0637,-0.020831,94.939408,4.878145,0.102561,-0.443638,-6.960239,0.020312,-0.106161,-0.797514,-0.003846,-0.004807,9.798373,-0.028175,-0.025623,29.702198,-95.83814,0.057,0,-0.02537,0.296055,-0.293475
9.6,-0.004778,-0.002657,9.797662,0.003014,0.000391,-0.002048,-0.047775,-0.015152,94.921727,4.739715,0.104519,-0.454372,-7.040176,0.019826,-0.106943,-0.798748,-0.005042,-0.001216,9.798373,-0.015537,-0.02794,29.702198,-95.83814,0.057,26,-0.02451,0.293905,-0.280575
9.7,-0.000987,-0.004306,9.795217,0.000265,-0.001747,0.000548,-0.048436,-0.018812,94.93619,5.118862,0.106448,-0.465134,-7.120272,0.019466,-0.107396,-0.800227,0.00154,-0.005405,9.793586,-0.025187,-0.005773,29.702198,-95.83814,0.057,26,-0.02623,0.293475,-0.287025
9.8,-0.001625,-0.00317,9.793879,0.000876,-0.003122,0.000243,-0.045071,-0.029463,94.951188,5.058041,0.108336,-0.475979,-7.200537,0.019072,-0.108098,-0.801839,-0.00205,-0.002413,9.792988,-0.018547,-0.009506,29.702198,-95.83814,0.057,26,-0.0258,0.290895,-0.282725
9.9,-0.003675,-0.003434,9.793344,-0.003094,-6.7E-05,-0.000979,-0.062453,-0.024457,94.926026,4.514014,0.110145,-0.486915,-7.28097,0.018418,-0.108943,-0.803505,-0.005042,-0.00361,9.792988,-0.020092,-0.021503,29.702198,-95.83814,0.057,26,-0.02365,0.297775,-0.290895
10,-0.000187,-0.008207,9.793848,-0.001567,0.000544,0.001312,-0.072847,-0.014699,94.855743,3.789237,0.111927,-0.497855,-7.361563,0.018018,-0.109248,-0.80512,0.002139,-0.011389,9.794184,-0.048014,-0.001094,29.702198,-95.83814,0.057,26,-0.01978,0.299925,-0.285735
10.1,0.00049,-0.001859,9.789382,0.001487,8.6E-05,0.002839,-0.062482,-0.007818,94.795528,4.14111,0.113598,-0.508804,-7.442385,0.017147,-0.109406,-0.807182,0.000942,0.002374,9.786405,-0.010878,0.002869,29.702198,-95.83814,0.057,26,-0.02107,0.291325,-0.286595
10.2,-0.000316,-0.009731,9.790468,0.000418,0.000391,-0.003575,-0.063173,-0.000512,94.797327,5.634801,0.115297,-0.519752,-7.523396,0.017044,-0.109455,-0.809135,-0.000853,-0.01498,9.791192,-0.05695,-0.001849,29.702198,-95.83814,0.057,26,-0.02881,0.292185,-0.284445
10.3,-0.004947,-0.00929,9.791262,0.004694,8.6E-05,-0.000368,-0.04153,0.001647,94.744617,3.890975,0.11704,-0.530764,-7.60459,0.017301,-0.109902,-0.811008,-0.008034,-0.008996,9.791791,-0.054362,-0.028949,29.702198,-95.83814,0.057,26,-0.02064,0.300355,-0.278855
10.4,-0.008954,0.000222,9.795529,-0.001415,-0.00358,-0.00159,-0.047797,-0.017843,94.698237,4.494557,0.118659,-0.541944,-7.685908,0.016563,-0.111167,-0.812456,-0.011625,0.006563,9.798373,0.001297,-0.052372,29.702198,-95.838139,0.136,0,-0.02365,0.296485,-0.277995
10.5,-0.003016,-0.007822,9.795799,0.001334,0.002529,0.000395,-0.043903,-0.000535,94.684202,4.737278,0.120324,-0.553107,-7.767367,0.01662,-0.111474,-0.813876,0.000942,-0.013185,9.79598,-0.045752,-0.017643,29.702198,-95.838139,0.136,25.9,-0.02451,0.296485,-0.287455
10.6,-0.00495,-0.006372,9.797344,0.000113,-0.00022,0.000548,-0.045816,-0.000409,94.697025,5.016606,0.12197,-0.564331,-7.848944,0.016515,-0.111987,-0.815141,-0.006239,-0.005405,9.798373,-0.037264,-0.028948,29.702198,-95.838139,0.136,25.9,-0.02623,0.296915,-0.283155
10.7,-0.002851,-0.003279,9.794012,-0.000193,0.002682,-0.001895,-0.047173,0.015715,94.750369,5.71547,0.123551,-0.575538,-7.930698,0.01604,-0.112043,-0.81674,-0.001452,-0.001216,9.791791,-0.019181,-0.016679,29.702198,-95.838139,0.136,25.9,-0.02967,0.296055,-0.287455
10.8,-0.000934,-0.007786,9.79232,-0.002636,-0.002511,0.000548,-0.063515,0.004483,94.810933,5.318168,0.125109,-0.586749,-8.012637,0.015735,-0.112085,-0.818508,0.000343,-0.010791,9.791192,-0.045557,-0.005468,29.702198,-95.838139,0.136,25.9,-0.02752,0.296055,-0.282295
10.9,-0.007708,-0.007794,9.795952,-0.003094,-0.000373,0.000395,-0.080414,0.001226,94.865791,5.313047,0.126603,-0.598077,-8.094699,0.015206,-0.112883,-0.819913,-0.012223,-0.007799,9.798373,-0.045585,-0.045082,29.702198,-95.838139,0.136,25.9,-0.02795,0.296915,-0.287885
11,-0.003236,-0.008156,9.797405,0.002403,-0.000525,0.000395,-0.06735,-2.4E-05,94.86847,4.536782,0.128077,-0.609418,-8.176879,0.014898,-0.113234,-0.821172,-0.000255,-0.008397,9.798373,-0.047696,-0.018925,29.702198,-95.838139,0.136,25.9,-0.02365,0.298205,-0.282725
11.1,-0.005038,-0.008301,9.795114,-0.001567,-0.000831,-0.002659,-0.076008,-0.003915,94.863742,4.989867,0.129504,-0.620833,-8.259219,0.014479,-0.113843,-0.82266,-0.006239,-0.008397,9.793586,-0.048555,-0.029469,29.702198,-95.838139,0.136,25.9,-0.02623,0.298635,-0.277565
11.2,-0.005759,-0.00405,9.79671,-0.002025,-0.002816,-0.000216,-0.083382,-0.018178,94.943403,6.080404,0.130811,-0.632363,-8.341685,0.013538,-0.114814,-0.82399,-0.006239,-0.001216,9.797775,-0.023687,-0.033679,29.702198,-95.838139,0.136,25.9,-0.03139,0.293045,-0.278855
11.3,-0.007483,-0.000196,9.796631,0.002709,-0.000831,-0.00159,-0.063003,-0.021902,94.94843,4.597608,0.132021,-0.644026,-8.424285,0.012582,-0.116024,-0.825328,-0.008633,0.002374,9.796578,-0.001144,-0.043765,29.702197,-95.83814,0.092,0,-0.02365,0.290895,-0.285735
11.4,-0.00171,-0.002603,9.795163,-0.001109,0.001155,0.003144,-0.065454,-0.011664,94.990355,5.211716,0.133156,-0.655695,-8.50704,0.011758,-0.116467,-0.826812,0.002139,-0.004208,9.794184,-0.015228,-0.010003,29.702197,-95.83814,0.092,26,-0.02752,0.302505,-0.281435
11.5,0.000599,-0.00213,9.796012,-0.002178,0.002834,0.001464,-0.072567,0.007548,94.999005,4.793655,0.134176,-0.667327,-8.589931,0.010718,-0.116369,-0.828211,0.002139,-0.001815,9.796578,-0.01246,0.003504,29.702197,-95.83814,0.092,26,-0.02494,0.298205,-0.289605
11.6,-0.000991,-0.000864,9.793479,0.000571,-0.002511,0.001159,-0.063717,-0.003668,95.071745,6.010471,0.1351,-0.679001,-8.673,0.009734,-0.116619,-0.829864,-0.00205,-2E-05,9.791791,-0.005054,-0.005795,29.702197,-95.83814,0.092,26,-0.03096,0.293475,-0.288315
11.7,-0.001267,-0.000716,9.792825,-0.000956,0.000696,0.000548,-0.063204,0.002567,95.096366,4.929904,0.135924,-0.690689,-8.756244,0.008736,-0.116791,-0.831582,-0.001452,-0.000618,9.792389,-0.004191,-0.007415,29.702197,-95.83814,0.092,26,-0.0258,0.298635,-0.286595
11.8,-0.004969,-0.000298,9.795436,0.002251,0.000544,-0.001285,-0.045688,0.005068,95.141122,5.697786,0.136691,-0.702439,-8.839621,0.008025,-0.117267,-0.833038,-0.007436,-2E-05,9.797176,-0.001745,-0.029062,29.702197,-95.83814,0.092,26,-0.02924,0.290895,-0.284875
11.9,-0.005013,-0.002285,9.795403,-0.000498,0.000238,0.000548,-0.045062,0.00552,95.189551,5.441297,0.137418,-0.714234,-8.923144,0.007522,-0.117721,-0.834498,-0.005042,-0.00361,9.795381,-0.013368,-0.029321,29.702197,-95.83814,0.092,26,-0.02838,0.296485,-0.288315
12,-0.002517,-0.003439,9.797185,0.002556,0.00146,9E-05,-0.029337,0.013515,95.187049,4.736677,0.138147,-0.726011,-9.006786,0.007367,-0.117756,-0.83578,-0.000853,-0.004208,9.798373,-0.020113,-0.014721,29.702197,-95.83814,0.092,26,-0.02451,0.295625,-0.284875
12.1,-0.004391,-0.002824,9.79359,0.000113,-0.002205,-0.002201,-0.027366,0.000562,95.153763,4.728869,0.138862,-0.737853,-9.09061,0.007221,-0.1182,-0.837421,-0.005641,-0.002413,9.791192,-0.016519,-0.025691,29.702196,-95.838141,0.056,0,-0.02408,0.289175,-0.285735
12.2,-0.004423,-0.005809,9.795024,0.000265,-0.003732,-0.002201,-0.026566,-0.019056,95.134074,5.040161,0.139613,-0.749786,-9.174577,0.007416,-0.118954,-0.838918,-0.004444,-0.007799,9.79598,-0.033979,-0.025872,29.702196,-95.838141,0.056,26,-0.0258,0.291325,-0.277995
12.3,-0.002281,-0.003771,9.79452,-0.004011,8.6E-05,-0.002659,-0.046612,-0.015773,95.120946,5.089031,0.140298,-0.761762,-9.258701,0.007042,-0.119487,-0.840466,-0.000853,-0.002413,9.794184,-0.022062,-0.013345,29.702196,-95.838141,0.056,26,-0.02623,0.294335,-0.277565
12.4,-0.005733,-0.000443,9.796832,0.003472,-0.001442,-0.001743,-0.023991,-0.022753,95.104905,4.902474,0.140961,-0.773859,-9.342945,0.006763,-0.120478,-0.841784,-0.008034,0.001776,9.798373,-0.002592,-0.03353,29.702196,-95.838141,0.056,26,-0.02537,0.293045,-0.280575
12.5,-0.006396,0.001247,9.793448,0.000265,0.001918,0.000395,-0.019038,-0.012221,95.084631,4.700587,0.141581,-0.78604,-9.427371,0.00639,-0.121363,-0.843439,-0.006838,0.002374,9.791192,0.007296,-0.037418,29.702196,-95.838141,0.056,26,-0.02451,0.295625,-0.281435
12.6,0.001956,-0.004181,9.788863,0.001182,-0.002511,-0.000674,-0.013042,-0.020595,95.105132,5.535994,0.142251,-0.798197,-9.512032,0.006599,-0.121501,-0.845553,0.007524,-0.007799,9.785807,-0.024469,0.01145,29.702196,-95.838141,0.056,26,-0.02838,0.295195,-0.273265
12.7,0.000629,-0.003838,9.793492,-0.000346,-0.003732,0.002839,-0.015366,-0.034997,95.173276,5.740111,0.142937,-0.810425,-9.596835,0.006767,-0.122023,-0.847203,-0.000255,-0.00361,9.796578,-0.022455,0.003683,29.702196,-95.838141,0.056,26,-0.02967,0.295195,-0.282295
12.8,0.000817,-0.009805,9.793189,0.004083,0.001002,0.001617,0.001628,-0.023261,95.259787,6.017905,0.143768,-0.822661,-9.681808,0.007801,-0.122246,-0.848885,0.000942,-0.013783,9.792988,-0.057366,0.004779,29.702196,-95.838141,0.056,26,-0.03096,0.294335,-0.281435
12.9,-0.002699,-0.008242,9.791632,-0.000651,-0.000525,9E-05,-0.006838,-0.022561,95.212588,3.896807,0.144663,-0.834974,-9.766972,0.008565,-0.122834,-0.850721,-0.005042,-0.007201,9.790594,-0.04823,-0.015791,29.702196,-95.838141,0.056,26,-0.02021,0.294765,-0.282725
13,-0.00231,-0.005104,9.794241,-4E-05,0.001307,-0.000826,-0.009616,-0.012248,95.185973,5.045824,0.145577,-0.847318,-9.85228,0.008949,-0.123241,-0.852297,-0.00205,-0.003012,9.79598,-0.029858,-0.013511,29.702196,-95.838142,0.023,0,-0.02623,0.296485,-0.285305
13.1,-0.003231,-0.006362,9.79672,0.003014,8.6E-05,0.000395,0.0027,-0.009846,95.199441,5.422573,0.146581,-0.859706,-9.937709,0.009673,-0.123669,-0.853625,-0.003846,-0.007201,9.798373,-0.037207,-0.018897,29.702196,-95.838142,0.023,26.1,-0.02795,0.293475,-0.284445
13.2,-0.002882,-0.003993,9.796635,0.002403,-0.001289,0.001312,0.011812,-0.014589,95.21179,5.138631,0.147645,-0.872145,-10.023272,0.010321,-0.12415,-0.854962,-0.002649,-0.002413,9.796578,-0.023351,-0.016854,29.702196,-95.838142,0.023,26.1,-0.02623,0.290895,-0.284445
13.3,0.00013,-0.006995,9.794087,0.000876,0.003293,0.000548,0.010113,0.0065,95.251817,5.698363,0.148806,-0.88453,-10.109007,0.011178,-0.123946,-0.856554,0.002139,-0.008996,9.792389,-0.040918,0.000763,29.702196,-95.838142,0.023,26.1,-0.02924,0.293905,-0.281005
13.4,-0.001896,-0.004605,9.795582,-0.003247,0.00146,0.000853,-0.01142,0.014728,95.34255,6.319355,0.149962,-0.896911,-10.194879,0.011436,-0.12386,-0.857995,-0.003247,-0.003012,9.796578,-0.026934,-0.01109,29.702196,-95.838142,0.023,26.1,-0.03268,0.294335,-0.284015
13.5,-0.003425,-0.004726,9.795821,-0.001415,-0.0019,0.000395,-0.02147,0.003775,95.466757,6.658425,0.151126,-0.909337,-10.280891,0.011568,-0.124126,-0.859413,-0.004444,-0.004807,9.79598,-0.027643,-0.020032,29.702196,-95.838142,0.023,26.1,-0.03397,0.290035,-0.282725
13.6,-0.0026,-0.005134,9.794121,0.002098,-0.003427,0.000701,-0.012724,-0.013518,95.498862,5.018053,0.152334,-0.921819,-10.367071,0.011909,-0.124587,-0.861001,-0.00205,-0.005405,9.792988,-0.030032,-0.015211,29.702196,-95.838142,0.023,26.1,-0.02623,0.298205,-0.284445
13.7,-0.004784,-0.005656,9.796313,-0.000193,0.000391,-0.000368,-0.017062,-0.010746,95.454918,4.472869,0.153575,-0.934373,-10.453376,0.012245,-0.12522,-0.86237,-0.006239,-0.006004,9.797775,-0.033078,-0.027977,29.702196,-95.838142,0.023,26.1,-0.02322,0.294765,-0.274985
13.8,8.8E-05,-0.009814,9.797549,0.000723,-0.003274,-0.002812,-0.01886,-0.024223,95.3896,4.74264,0.154903,-0.946946,-10.5398,0.012939,-0.125561,-0.863615,0.003335,-0.012586,9.798373,-0.057392,0.000514,29.702195,-95.838143,0.02,0,-0.02408,0.291755,-0.280145
13.9,-0.004426,-0.009682,9.796607,0.002098,-0.002358,0.001312,-0.013554,-0.034195,95.308837,4.164984,0.156322,-0.959645,-10.626362,0.013767,-0.126516,-0.864954,-0.007436,-0.009594,9.79598,-0.056626,-0.025888,29.702195,-95.838143,0.02,26.1,-0.0215,0.292615,-0.278425
14,-0.011259,-0.002089,9.797667,-0.001415,-6.7E-05,0.001006,-0.022469,-0.03547,95.28134,5.240083,0.157696,-0.972558,-10.713043,0.013752,-0.128257,-0.866188,-0.015814,0.002972,9.798373,-0.012219,-0.06584,29.702195,-95.838143,0.02,26.1,-0.02795,0.299495,-0.293905
14.1,-0.007529,-0.004797,9.797373,0.002861,-0.002511,0.001159,-0.010087,-0.047068,95.307051,5.757056,0.159139,-0.985612,-10.799851,0.014202,-0.12978,-0.867452,-0.005042,-0.006602,9.797176,-0.028053,-0.04403,29.702195,-95.838143,0.02,26.1,-0.02924,0.288745,-0.288745
14.2,0.000785,-0.010189,9.796896,0.001792,-0.001289,0.002228,-0.007855,-0.046124,95.306871,4.94695,0.160701,-0.998684,-10.886793,0.015149,-0.130405,-0.868762,0.006327,-0.013783,9.796578,-0.059587,0.00459,29.702195,-95.838143,0.02,26.1,-0.02537,0.295625,-0.284015
14.3,-0.000916,-0.003728,9.797064,0.000876,-0.000983,-0.002201,-0.006932,-0.044455,95.208748,3.938943,0.162265,-1.011848,-10.973863,0.015479,-0.131231,-0.870056,-0.00205,0.000579,9.797176,-0.021803,-0.005358,29.702195,-95.838143,0.02,26.1,-0.02021,0.292615,-0.289175
14.4,-0.004469,-0.002939,9.796773,0.001487,-0.004038,-0.001743,-0.002573,-0.060577,95.181124,5.415307,0.163871,-1.02519,-11.061067,0.015862,-0.132685,-0.87138,-0.006838,-0.002413,9.796578,-0.01719,-0.026137,29.702195,-95.838143,0.02,26.1,-0.02838,0.297345,-0.285305
14.5,-0.002659,-0.006214,9.797733,-0.000956,-6.7E-05,0.000548,-0.013284,-0.053343,95.096721,3.889102,0.165532,-1.038629,-11.148389,0.016359,-0.133823,-0.872607,-0.001452,-0.008397,9.798373,-0.036339,-0.015548,29.702195,-95.838143,0.02,26.1,-0.02021,0.296915,-0.279285
14.6,-0.00373,-0.006806,9.790936,0.000265,-0.001442,-0.001285,-0.017104,-0.054354,95.027284,4.661718,0.167243,-1.0522,-11.235936,0.01686,-0.135086,-0.874514,-0.004444,-0.007201,9.786405,-0.039828,-0.021827,29.702195,-95.838143,0.02,26.1,-0.02408,0.293905,-0.290035
14.7,-0.004517,-0.003811,9.792526,0.000723,0.001155,0.001006,-0.016483,-0.042222,95.006153,5.045007,0.168959,-1.065883,-11.32365,0.017062,-0.136246,-0.876262,-0.005042,-0.001815,9.793586,-0.0223,-0.026431,29.702195,-95.838144,0.06,0,-0.02666,0.300355,-0.290035
14.8,0.003785,-0.002972,9.796034,0.001945,0.000238,-0.000979,-0.009177,-0.030924,95.012707,5.430849,0.170688,-1.079528,-11.411485,0.017215,-0.136383,-0.877659,0.009319,-0.002413,9.798373,-0.017386,0.022137,29.702195,-95.838144,0.06,26.3,-0.02795,0.296915,-0.285305
14.9,-0.003307,-0.000124,9.795643,-0.001873,0.000238,0.000853,-0.020551,-0.024802,94.973019,4.293454,0.172369,-1.093284,-11.499467,0.016942,-0.137165,-0.879095,-0.008034,0.001776,9.795381,-0.000723,-0.019341,29.702195,-95.838144,0.06,26.3,-0.02236,0.294765,-0.276275
15,-0.00722,-0.000779,9.792254,0.00164,-0.003122,0.000853,-0.012994,-0.038915,94.988969,5.517051,0.174059,-1.107209,-11.587643,0.016919,-0.138559,-0.88087,-0.00983,-0.001216,9.789996,-0.00456,-0.042248,29.702195,-95.838144,0.06,26.3,-0.02838,0.290895,-0.284875
15.1,-0.004836,0.001472,9.796285,0.00164,-6.7E-05,-0.000521,-0.004806,-0.034448,94.963536,4.630609,0.175731,-1.121229,-11.675935,0.016784,-0.139647,-0.882242,-0.003247,0.002972,9.798972,0.008608,-0.028287,29.702195,-95.838144,0.06,26.3,-0.02408,0.296055,-0.283155
15.2,-0.002447,-0.004091,9.793588,-0.000193,-0.00022,0.00177,-0.01018,-0.029744,94.900352,4.022586,0.177454,-1.135303,-11.764406,0.017082,-0.140378,-0.883883,-0.000853,-0.007799,9.791791,-0.023932,-0.014314,29.702195,-95.838144,0.06,26.3,-0.02107,0.299495,-0.277135
15.3,-0.008313,-0.007393,9.793228,0.004236,-0.001594,0.001006,0.005662,-0.036061,94.825924,4.174257,0.179306,-1.149546,-11.853046,0.018037,-0.14175,-0.885561,-0.012223,-0.009594,9.792988,-0.043252,-0.048633,29.702195,-95.838144,0.06,26.3,-0.0215,0.290035,-0.282295
15.4,-0.003478,-0.007277,9.789134,0.001945,-0.000831,0.001922,0.007887,-0.034938,94.814943,5.116997,0.18125,-1.163852,-11.941915,0.018976,-0.142619,-0.887649,-0.000255,-0.007201,9.786405,-0.042595,-0.020357,29.702195,-95.838144,0.06,26.3,-0.02623,0.293045,-0.281005
15.5,-0.001544,-0.008667,9.790728,0.000723,-0.001289,-0.001895,0.002477,-0.035025,94.759766,4.359566,0.183293,-1.178215,-12.030969,0.019944,-0.143294,-0.889576,-0.000255,-0.009594,9.791791,-0.050722,-0.009037,29.702195,-95.838144,0.06,26.3,-0.02236,0.293475,-0.274125
15.6,-0.004002,-0.009583,9.791725,0.002403,-0.000525,0.002228,0.005397,-0.032528,94.800797,5.655889,0.185456,-1.192674,-12.120201,0.021071,-0.144159,-0.891404,-0.005641,-0.010193,9.792389,-0.056072,-0.023418,29.702195,-95.838145,0.078,0,-0.02924,0.293905,-0.281005
15.7,-0.004267,-0.006358,9.794637,0.002861,0.000391,-0.000521,0.011978,-0.025694,94.863333,5.809713,0.1877,-1.207209,-12.209572,0.021982,-0.14495,-0.892941,-0.004444,-0.004208,9.796578,-0.037193,-0.024962,29.702195,-95.838145,0.078,26.5,-0.02967,0.290465,-0.282725
15.8,-0.003296,0.000317,9.795442,-0.000651,-0.002663,-0.000826,0.003613,-0.034658,94.929456,5.688734,0.189915,-1.221841,-12.299084,0.022091,-0.145866,-0.894397,-0.002649,0.004768,9.79598,0.001856,-0.01928,29.702195,-95.838145,0.078,26.5,-0.02924,0.292615,-0.286165
15.9,-0.003267,-0.003834,9.792892,0.003472,0.000238,9E-05,0.014757,-0.027688,94.960926,5.055521,0.192229,-1.236539,-12.388781,0.022794,-0.146608,-0.896108,-0.003247,-0.006602,9.791192,-0.022434,-0.019113,29.702195,-95.838145,0.078,26.5,-0.02623,0.295625,-0.284875
16,-0.001819,0.000609,9.794386,-0.002178,-0.001747,0.001006,-0.001782,-0.030708,94.961519,4.739842,0.194504,-1.251307,-12.478626,0.022764,-0.14732,-0.89767,-0.000853,0.003571,9.795381,0.003561,-0.01064,29.702195,-95.838145,0.078,26.5,-0.02451,0.295195,-0.288745
16.1,-0.005907,-0.002641,9.792111,0.002556,8.6E-05,-0.000368,0.005762,-0.026373,94.957272,4.995478,0.196848,-1.26619,-12.568661,0.023215,-0.148327,-0.899459,-0.008633,-0.004807,9.790594,-0.015451,-0.034564,29.702195,-95.838145,0.078,26.5,-0.02623,0.297345,-0.285305
16.2,-0.001439,-0.007172,9.794432,-0.001262,0.000696,0.001312,-0.009954,-0.016684,95.008847,5.729012,0.199257,-1.281079,-12.65884,0.023797,-0.148706,-0.901016,0.00154,-0.010193,9.79598,-0.041954,-0.008417,29.702195,-95.838145,0.078,26.5,-0.02967,0.296485,-0.285735
16.3,-0.000729,-0.00683,9.79572,0.000113,-0.000678,-0.000368,-0.016954,-0.01458,95.065101,5.692093,0.2017,-1.295993,-12.749156,0.024217,-0.148992,-0.902444,-0.000255,-0.006602,9.796578,-0.039949,-0.004261,29.702195,-95.838145,0.078,26.5,-0.02924,0.293475,-0.286595
16.4,-0.00224,-0.003103,9.795876,0.000571,-0.000831,0.000701,-0.018742,-0.014338,95.098099,5.173393,0.204126,-1.310962,-12.839612,0.024249,-0.149461,-0.903856,-0.003247,-0.000618,9.79598,-0.018148,-0.0131,29.702194,-95.838146,0.092,0,-0.02709,0.298205,-0.278855
16.5,-0.001049,-0.006639,9.796656,0.001182,0.00146,-0.002201,-0.019352,-0.001628,95.069499,4.616706,0.206603,-1.325924,-12.930198,0.024592,-0.149563,-0.90519,-0.000255,-0.008996,9.797176,-0.038826,-0.006135,29.702194,-95.838146,0.092,26.5,-0.02365,0.293045,-0.287455
16.6,-0.003445,-0.008412,9.791942,0.003167,-0.002358,0.000243,-0.010893,-0.011322,94.976399,3.627776,0.209167,-1.340952,-13.020988,0.025292,-0.150043,-0.906996,-0.005042,-0.009594,9.788799,-0.049221,-0.020158,29.702194,-95.838146,0.092,26.5,-0.01849,0.289605,-0.284015
16.7,-0.003685,-0.002658,9.794364,0.000723,0.003445,-0.000368,-0.012582,0.009592,94.987895,5.783677,0.211706,-1.355986,-13.111922,0.02536,-0.150242,-0.90856,-0.003846,0.001177,9.79598,-0.015552,-0.021559,29.702194,-95.838146,0.092,26.5,-0.0301,0.296055,-0.279285
16.8,0.001963,-0.004666,9.792461,0.000723,-0.002205,0.000853,-0.015332,0.002574,95.066276,6.107378,0.214269,-1.370972,-13.203041,0.025542,-0.149984,-0.910314,0.005729,-0.006004,9.791192,-0.027299,0.011487,29.702194,-95.838146,0.092,26.5,-0.03182,0.299065,-0.276275
16.9,-0.001881,-0.00475,9.796008,0.005763,-0.002663,0.000395,0.007963,-0.008351,95.074886,4.702153,0.216919,-1.386011,-13.294283,0.026181,-0.15026,-0.911713,-0.004444,-0.004807,9.798373,-0.027784,-0.011002,29.702194,-95.838146,0.092,26.5,-0.02408,0.291325,-0.284875
17,-0.004496,-0.004425,9.795991,-0.00172,-0.00022,-0.000216,-0.00959,-0.007198,95.109226,5.59063,0.219587,-1.401119,-13.385664,0.026509,-0.150806,-0.913114,-0.006239,-0.004208,9.79598,-0.025883,-0.026296,29.702194,-95.838146,0.092,26.5,-0.02881,0.292615,-0.281005
17.1,-0.003747,-0.003577,9.793471,0.003472,0.00146,0.000701,0.001762,0.002807,95.110564,4.826518,0.2223,-1.416244,-13.477223,0.026924,-0.151096,-0.914767,-0.003247,-0.003012,9.791791,-0.020927,-0.021919,29.702194,-95.838146,0.092,26.5,-0.02494,0.294335,-0.284015
17.2,-0.004165,-0.002879,9.796412,-0.002484,0.001765,0.000395,-0.018351,0.012948,95.089448,4.730068,0.224991,-1.431383,-13.568904,0.026916,-0.151293,-0.916125,-0.004444,-0.002413,9.798373,-0.016837,-0.02436,29.702194,-95.838146,0.092,26.5,-0.02494,0.299925,-0.284445
17.3,-0.002896,-0.003677,9.792562,0.001334,-0.003427,9E-05,-0.017248,-0.004068,95.038026,4.379025,0.227698,-1.446565,-13.660778,0.02702,-0.151644,-0.917869,-0.00205,-0.004208,9.789996,-0.021512,-0.016945,29.702194,-95.838147,0.115,0,-0.02236,0.291325,-0.289175
17.4,-0.002389,-0.006868,9.794613,-0.005843,-0.0019,0.002228,-0.055078,-0.011241,95.068933,5.674975,0.230368,-1.461797,-13.752796,0.026804,-0.152096,-0.919408,-0.00205,-0.008996,9.79598,-0.040177,-0.013973,29.702194,-95.838147,0.115,26.6,-0.02924,0.293905,-0.288315
17.5,-0.003263,-0.005272,9.793279,-0.000651,0.000238,0.002381,-0.061266,-0.007237,95.091139,5.120016,0.232977,-1.477081,-13.844987,0.026326,-0.152591,-0.92108,-0.003846,-0.004208,9.792389,-0.030846,-0.019089,29.702194,-95.838147,0.115,26.6,-0.02709,0.301215,-0.285735
17.6,-0.003612,-0.005711,9.791668,0.002251,-0.001442,-0.002048,-0.052007,-0.012554,95.118796,5.647453,0.23557,-1.49243,-13.93737,0.026061,-0.153192,-0.922913,-0.003846,-0.006004,9.790594,-0.033419,-0.021138,29.702194,-95.838147,0.115,26.6,-0.02967,0.299065,-0.290035
17.7,-0.006266,-0.00481,9.790664,0.001487,0.000544,0.002839,-0.046977,-0.008786,95.126704,4.74428,0.238138,-1.50787,-14.029951,0.02581,-0.153995,-0.924847,-0.008034,-0.004208,9.789996,-0.028146,-0.036667,29.702194,-95.838147,0.115,26.6,-0.02451,0.292615,-0.286595
17.8,-0.005173,-0.005167,9.792417,0.000723,-0.000373,0.004061,-0.046499,-0.009609,95.148904,5.183247,0.240687,-1.523375,-14.1227,0.025594,-0.154698,-0.926605,-0.004444,-0.005405,9.793586,-0.030232,-0.030265,29.702194,-95.838147,0.115,26.6,-0.02666,0.292615,-0.287885
17.9,-0.005453,-0.002797,9.795991,0.002861,-6.7E-05,0.001922,-0.03356,-0.009064,95.180921,5.491349,0.243212,-1.538953,-14.21557,0.025365,-0.155422,-0.928006,-0.005641,-0.001216,9.798373,-0.016357,-0.031897,29.702194,-95.838147,0.115,26.6,-0.02924,0.302505,-0.280575
18,-0.00413,-0.004721,9.796343,0.002709,-0.000525,0.001922,-0.023819,-0.010254,95.234127,5.724662,0.245766,-1.554582,-14.308576,0.025483,-0.156002,-0.929371,-0.003247,-0.006004,9.796578,-0.027611,-0.024153,29.702194,-95.838147,0.115,26.6,-0.0301,0.299495,-0.282295
18.1,0.001067,-0.005132,9.797561,0.002861,-0.001594,0.003602,-0.014575,-0.013733,95.280473,5.382546,0.248355,-1.570198,-14.4017,0.025758,-0.156106,-0.930615,0.004532,-0.005405,9.798373,-0.030009,0.006243,29.702193,-95.838147,0.073,0,-0.02795,0.298205,-0.285735
18.2,-8.5E-05,-0.003501,9.795535,-0.002636,-0.000831,-0.001895,-0.033618,-0.013517,95.261136,4.915514,0.250901,-1.585847,-14.494978,0.025556,-0.156365,-0.932062,-0.000853,-0.002413,9.794184,-0.020475,-0.000498,29.702193,-95.838147,0.073,26.5,-0.02537,0.294765,-0.293045
18.3,-0.003418,-0.005721,9.795802,0.000571,0.001002,0.000548,-0.035491,-0.005863,95.257815,5.170253,0.253457,-1.60155,-14.588397,0.025562,-0.156808,-0.933481,-0.005641,-0.007201,9.79598,-0.03346,-0.019995,29.702193,-95.838147,0.073,26.5,-0.02666,0.293045,-0.283155
18.4,-0.002598,-0.005531,9.789805,0.000418,-0.000373,0.00177,-0.037829,-0.005644,95.203013,4.233317,0.256004,-1.617286,-14.682048,0.025501,-0.157171,-0.935501,-0.00205,-0.005405,9.785807,-0.032373,-0.015203,29.702193,-95.838147,0.073,26.5,-0.02193,0.295625,-0.283585
18.5,-0.003346,-0.003301,9.789201,-0.000193,0.00146,0.000548,-0.041676,0.003453,95.20117,5.518647,0.258501,-1.633049,-14.77591,0.025146,-0.157481,-0.937581,-0.003846,-0.001815,9.788799,-0.019323,-0.019586,29.702193,-95.838147,0.073,26.5,-0.02838,0.292615,-0.288745
18.6,-0.001851,-0.000255,9.791114,0.001334,-0.002816,0.001312,-0.035303,-0.009573,95.215119,5.341214,0.260934,-1.648857,-14.869952,0.024602,-0.15788,-0.93947,-0.000853,0.001776,9.792389,-0.001494,-0.010829,29.702193,-95.838147,0.073,26.5,-0.02795,0.298635,-0.286165
18.7,-0.004484,-0.002986,9.79152,0.000418,0.001765,0.000548,-0.035764,0.000672,95.214016,5.105485,0.263354,-1.664715,-14.964176,0.024331,-0.158344,-0.941318,-0.006239,-0.004807,9.791791,-0.017474,-0.026237,29.702193,-95.838147,0.073,26.5,-0.02666,0.296485,-0.287885
18.8,-0.003742,-0.008746,9.794196,0.001487,0.001765,-0.001285,-0.034082,0.010152,95.207223,5.231689,0.265833,-1.680575,-15.058545,0.02464,-0.158517,-0.942898,-0.003247,-0.012586,9.79598,-0.051165,-0.021889,29.702193,-95.838147,0.073,26.5,-0.02709,0.295195,-0.283155
18.9,-0.00524,-0.011768,9.793112,0.000876,8.6E-05,0.001006,-0.037643,0.00893,95.194174,4.905449,0.268382,-1.696475,-15.153088,0.025205,-0.158839,-0.944586,-0.006239,-0.013783,9.792389,-0.068852,-0.030658,29.702193,-95.838147,0.073,26.5,-0.02537,0.293905,-0.281435
19,-0.002249,-0.004719,9.794114,-0.001415,-0.000983,9E-05,-0.048493,0.003937,95.154553,4.668858,0.270851,-1.712387,-15.247784,0.024863,-0.159028,-0.946174,-0.000255,-2E-05,9.794783,-0.027607,-0.013157,29.702193,-95.83815,0.046,0,-0.02408,0.294765,-0.277995
19.1,-0.004643,-0.000104,9.794156,-0.001262,-0.000831,0.001159,-0.054513,-0.001304,95.105828,4.541163,0.273206,-1.728375,-15.34264,0.023989,-0.159594,-0.947759,-0.006239,0.002972,9.794184,-0.000609,-0.027162,29.702193,-95.83815,0.046,26.6,-0.02322,0.290035,-0.278425
19.2,-0.003806,-5.3E-05,9.793096,0.002709,0.000391,0.001464,-0.039181,0.000634,95.06948,4.783453,0.275511,-1.744399,-15.437669,0.02336,-0.160021,-0.94945,-0.003247,-2E-05,9.792389,-0.000313,-0.022265,29.702193,-95.83815,0.046,26.6,-0.02494,0.296915,-0.282725
19.3,0.00012,-0.002546,9.794826,-0.000498,0.002834,0.001312,-0.043202,0.017171,95.11712,6.066382,0.27777,-1.760362,-15.532842,0.02285,-0.15976,-0.950967,0.002737,-0.004208,9.79598,-0.014896,0.000702,29.702193,-95.83815,0.046,26.6,-0.03096,0.292185,-0.283585
19.4,-0.000823,-0.000312,9.794082,0.000418,0.004667,0.001159,-0.040583,0.040736,95.164116,5.573573,0.279948,-1.776255,-15.628177,0.022135,-0.159208,-0.952559,-0.001452,0.001177,9.793586,-0.001827,-0.004815,29.702193,-95.83815,0.046,26.6,-0.02881,0.294765,-0.283155
19.5,0.000236,-0.005163,9.786963,0.000265,-0.002511,-0.002812,-0.041748,0.025383,95.187514,5.546978,0.282126,-1.79211,-15.723779,0.021898,-0.158771,-0.954863,0.000942,-0.008397,9.782216,-0.030228,0.00138,29.702193,-95.83815,0.046,26.6,-0.02795,0.288315,-0.279285
19.6,0.001377,-0.007822,9.790219,0.002709,-0.000983,-0.001285,-0.031794,0.020022,95.220301,5.581435,0.284345,-1.807912,-15.819562,0.022092,-0.158271,-0.956841,0.002139,-0.009594,9.792389,-0.045776,0.008061,29.702193,-95.83815,0.046,26.6,-0.02838,0.291325,-0.284445
19.7,0.001116,-0.006013,9.795111,-0.000956,-0.001442,0.001464,-0.040671,0.012638,95.213363,4.733293,0.286536,-1.823692,-15.915469,0.021969,-0.157953,-0.95833,0.000942,-0.004807,9.798373,-0.035172,0.006528,29.702193,-95.83815,0.046,26.6,-0.02451,0.296485,-0.284875
19.8,-0.003656,0.000814,9.794914,0.003014,-0.000983,0.000548,-0.024063,0.005441,95.181302,4.739831,0.288663,-1.839534,-16.011528,0.021503,-0.158269,-0.959838,-0.006838,0.005366,9.794783,0.004764,-0.021387,29.702193,-95.838151,0.054,0,-0.02494,0.298205,-0.288315
19.9,-0.002693,-0.000404,9.795553,0.001029,-0.002663,-0.000674,-0.019948,-0.009203,95.079927,3.828109,0.290774,-1.855429,-16.107729,0.021241,-0.158721,-0.961283,-0.00205,-0.001216,9.79598,-0.002363,-0.01575,29.702193,-95.838151,0.054,26.7,-0.01978,0.294765,-0.281005
20,-0.005898,-0.002328,9.795809,-0.00172,-0.000983,0.001159,-0.031444,-0.015683,95.026126,4.765506,0.292864,-1.871433,-16.20407,0.021012,-0.159602,-0.962703,-0.008034,-0.00361,9.79598,-0.013615,-0.034496,29.702193,-95.838151,0.054,26.7,-0.02494,0.296485,-0.282725
20.1,-0.002153,-0.000584,9.796271,-0.001415,0.001002,-0.000216,-0.039018,-0.00913,95.028244,5.525108,0.294879,-1.887457,-16.300546,0.020439,-0.160026,-0.964076,0.000343,0.000579,9.796578,-0.003414,-0.012593,29.702193,-95.838151,0.054,26.7,-0.02838,0.293475,-0.280575
20.2,0.001499,0.000832,9.792506,0.00164,-0.001289,0.001159,-0.029061,-0.012822,94.981298,4.232771,0.296837,-1.903477,-16.397216,0.019867,-0.160145,-0.965825,0.003934,0.001776,9.789996,0.004867,0.008771,29.702193,-95.838151,0.054,26.7,-0.02193,0.297775,-0.279285
20.3,-0.00458,-0.008655,9.796026,0.001487,0.00146,-0.00327,-0.026488,-0.005583,94.934682,4.924577,0.298892,-1.919569,-16.494009,0.020326,-0.160661,-0.967222,-0.008633,-0.01498,9.798373,-0.050623,-0.026788,29.702193,-95.838151,0.054,26.7,-0.02494,0.287025,-0.279285
20.4,-0.00019,-0.007064,9.792767,-0.000956,-0.002358,-0.001743,-0.035902,-0.016156,94.886399,4.575118,0.300943,-1.935678,-16.590989,0.020443,-0.160947,-0.968946,0.002737,-0.006004,9.790594,-0.041332,-0.001111,29.702193,-95.838151,0.054,26.7,-0.02408,0.302075,-0.281005
20.5,-0.000588,-0.002119,9.796131,0.00393,-0.004801,0.00177,-0.016273,-0.038334,94.887615,5.103511,0.302986,-1.951881,-16.688092,0.020438,-0.161664,-0.970333,-0.000853,0.001177,9.798373,-0.012396,-0.003439,29.702193,-95.838151,0.054,26.7,-0.02666,0.298205,-0.281005
20.6,-0.001106,-0.0005,9.795322,0.004083,-0.000678,-0.000979,0.003108,-0.037154,94.848891,4.504478,0.305055,-1.968157,-16.785345,0.020604,-0.162399,-0.971801,-0.001452,0.000579,9.794783,-0.002927,-0.006471,29.702193,-95.838151,0.054,26.7,-0.02279,0.288745,-0.278425
20.7,-0.000955,-0.000212,9.796435,0.000265,-0.002969,-0.000216,0.001014,-0.047593,94.806083,4.499489,0.307132,-1.984533,-16.882729,0.020719,-0.163301,-0.973158,-0.000853,-2E-05,9.797176,-0.00124,-0.005583,29.702193,-95.838151,0.077,0,-0.02322,0.294765,-0.277565
20.8,0.000183,-0.0062,9.795803,0.004083,-0.002053,-0.000521,0.015093,-0.051314,94.816437,5.395798,0.309346,-2.00098,-16.980258,0.021666,-0.164084,-0.974578,0.000942,-0.010193,9.795381,-0.036266,0.001072,29.702193,-95.838151,0.077,26.7,-0.02795,0.296485,-0.278425
20.9,-0.004029,-0.004646,9.797345,0.002098,-6.7E-05,0.000853,0.018169,-0.046713,94.84199,5.191921,0.311644,-2.017558,-17.077906,0.02254,-0.165216,-0.975844,-0.006838,-0.00361,9.798373,-0.027171,-0.023563,29.702193,-95.838151,0.077,26.7,-0.02709,0.296055,-0.284445
21,-0.006073,-0.002229,9.796885,0.004694,-0.000678,0.001464,0.035466,-0.046837,94.817754,4.311697,0.31404,-2.03428,-17.175687,0.023484,-0.166549,-0.977157,-0.007436,-0.000618,9.796578,-0.013038,-0.035519,29.702193,-95.838151,0.077,26.7,-0.02279,0.299495,-0.277565
21.1,-0.006532,-0.004853,9.794546,-0.0034,-0.0019,-0.002048,0.007537,-0.053436,94.764263,4.43675,0.316499,-2.051161,-17.273635,0.024226,-0.168059,-0.978704,-0.006838,-0.006602,9.792988,-0.028389,-0.03821,29.702193,-95.838151,0.077,26.7,-0.02322,0.296915,-0.281865
21.2,-0.003843,-0.003389,9.795765,-0.000804,-0.002511,-0.002354,-0.003476,-0.060767,94.780224,5.590345,0.318982,-2.068176,-17.371719,0.024624,-0.169454,-0.980128,-0.00205,-0.002413,9.796578,-0.019823,-0.022477,29.702193,-95.838151,0.077,26.7,-0.02924,0.298205,-0.277995
21.3,-0.006358,-0.000649,9.792663,0.001792,-0.000373,0.001159,0.001554,-0.05767,94.769892,4.441252,0.321478,-2.085363,-17.469992,0.02485,-0.171063,-0.981863,-0.008034,0.001177,9.790594,-0.003799,-0.037199,29.702193,-95.838151,0.077,26.7,-0.02322,0.296055,-0.271545
21.4,-0.008441,-0.000272,9.794294,-0.002789,0.002224,-0.001895,-0.017263,-0.04271,94.794754,5.531285,0.323943,-2.102708,-17.568414,0.024714,-0.172654,-0.983434,-0.00983,-2E-05,9.795381,-0.001588,-0.049378,29.702193,-95.838151,0.077,26.7,-0.02924,0.299065,-0.277565
21.5,-0.000657,-0.000838,9.792074,0.003472,-0.001747,-0.000368,-0.002231,-0.045004,94.84145,5.44201,0.326431,-2.120098,-17.667026,0.02483,-0.173482,-0.985227,0.004532,-0.001216,9.790594,-0.004906,-0.003844,29.702193,-95.838151,0.077,26.7,-0.02795,0.294765,-0.277135
21.6,-0.002929,-0.001783,9.795854,-0.001109,-0.002663,-0.002659,-0.012874,-0.05291,94.869198,5.265011,0.328923,-2.137625,-17.765761,0.02489,-0.174678,-0.986643,-0.004444,-0.002413,9.798373,-0.010431,-0.017133,29.702192,-95.838153,0.041,0,-0.02709,0.292615,-0.290465
21.7,-0.005992,0.000352,9.791621,0.003014,0.003598,0.001922,7.1E-05,-0.029503,94.950942,5.79253,0.331422,-2.155258,-17.864701,0.024952,-0.175781,-0.988481,-0.008034,0.001776,9.788799,0.00206,-0.035064,29.702192,-95.838153,0.041,26.7,-0.03053,0.298635,-0.280145
21.8,-0.003268,0.001206,9.794595,-0.000956,-0.000525,0.002686,-0.008186,-0.028074,95.03131,5.589425,0.333888,-2.17296,-17.96378,0.024763,-0.176607,-0.990022,-0.001452,0.001776,9.796578,0.007056,-0.019117,29.702192,-95.838153,0.041,26.7,-0.02881,0.293905,-0.284015
21.9,-0.006128,-0.003838,9.795785,0.004236,-0.000373,0.000243,0.0081,-0.027694,95.112985,5.898437,0.336457,-2.190776,-18.062996,0.02538,-0.177643,-0.991444,-0.008034,-0.007201,9.796578,-0.022448,-0.035842,29.702192,-95.838153,0.041,26.7,-0.03053,0.293475,-0.282725
22,-0.009067,-0.008728,9.794107,0.00164,-0.0019,-0.001132,0.006221,-0.037027,95.166329,5.508673,0.339162,-2.208758,-18.162379,0.026494,-0.179088,-0.993034,-0.011026,-0.011988,9.792988,-0.051058,-0.053042,29.702192,-95.838153,0.041,26.7,-0.02838,0.291325,-0.281865
22.1,-0.007729,-0.004939,9.792358,0.002556,0.002834,-6.3E-05,0.011218,-0.020362,95.248243,6.03284,0.341929,-2.226824,-18.261947,0.027279,-0.180141,-0.994799,-0.006838,-0.002413,9.791192,-0.028899,-0.045225,29.702192,-95.838153,0.041,26.7,-0.03139,0.295195,-0.286595
22.2,-0.004322,-0.003783,9.795967,0.000876,0.00314,0.000701,0.007545,-0.001929,95.308179,5.532469,0.34474,-2.244901,-18.361637,0.027827,-0.180558,-0.996202,-0.00205,-0.003012,9.798373,-0.022124,-0.025278,29.702192,-95.838153,0.041,26.7,-0.02881,0.296915,-0.281435
22.3,-0.004395,-0.005833,9.792025,-0.002178,0.001307,-0.000216,-0.012846,0.005003,95.292658,4.5921,0.347582,-2.263004,-18.461527,0.028222,-0.180876,-0.997999,-0.004444,-0.007201,9.789397,-0.034133,-0.025717,29.702192,-95.838153,0.041,26.7,-0.02365,0.293045,-0.285735
22.4,-0.002629,-0.016707,9.795116,-0.002942,0.003445,9E-05,-0.041762,0.023092,95.25823,4.693554,0.350545,-2.281059,-18.56155,0.029163,-0.180657,-0.999487,-0.001452,-0.023956,9.797176,-0.097726,-0.015379,29.702192,-95.838154,0.048,0,-0.02408,0.293475,-0.280145
22.5,-0.010181,-0.01208,9.791685,-0.001415,-6.7E-05,0.000395,-0.057347,0.016462,95.239593,5.034873,0.353505,-2.299232,-18.661773,0.029457,-0.18137,-1.001317,-0.015215,-0.008996,9.789397,-0.070687,-0.059573,29.702192,-95.838154,0.048,26.8,-0.02666,0.297775,-0.288745
