Time, AccX(m/s^2), AccY(m/s^2), AccZ(m/s^2), GyrX(rad/s), GyrY(rad/s), GyrZ(rad/s), Roll(deg), Pitch(deg), Yaw(deg), Heading, X(m), Y(m), Z(m),         Vx(m/s), Vy(m/s), Vz(m/s), AccXraw(m/s^2), AccYraw(m/s^2), AccZraw(m/s^2), RollAcc(deg/s^2), PitchAcc(deg/s^2), Latitude, Longitude,             GPShspeed(m/s), GPSalt(m), MagX(uT), MagY(ut), MagZ(uT)
0.0000, 0.012773, 0.078978, 5.875074, 0.001487, -0.009688, 0.037964, 0.770324, 0.124439, 88.415947, 358.418351, 0.000011, 0.000383, -0.059017, 0.000072, 0.002552, -0.393444, 0.021288, 0.131631, 9.791791, 0.770176, 0.124552, 29.702189, -95.838178, 0.044000, 21.800000, 0.010320, 0.348515, -0.274125
0.1000, 0.031525, 0.109493, 8.225104, 0.001334, -0.011979, 0.010627, 0.769223, 0.149224, 88.419979, 358.364794, 0.000054, 0.001432, -0.122125, 0.000312, 0.007843, -0.551871, 0.044027, 0.129835, 9.791791, 0.762670, 0.219584, 29.702189, -95.838178, 0.044000, 21.800000, 0.010750, 0.327875, -0.285305
0.2000, 0.013534, 0.112722, 9.168707, 0.004083, -0.008619, 0.013223, 0.744681, 0.102581, 88.406264, 358.318808, 0.000194, 0.002662, -0.186922, 0.001040, 0.010819, -0.615936, 0.001540, 0.114875, 9.797775, 0.704371, 0.084570, 29.702189, -95.838179, 0.022000, 0.000000, 0.009890, 0.332175, -0.281435
0.3000, 0.026085, 0.119759, 9.546507, 0.004541, -0.007703, 0.017347, 0.734118, 0.117714, 88.512402, 358.693865, 0.000355, 0.004428, -0.252458, 0.001415, 0.015380, -0.642217, 0.034453, 0.124450, 9.798373, 0.718721, 0.156545, 29.702189, -95.838179, 0.022000, 21.800000, 0.008600, 0.330455, -0.280145
0.4000, 0.031106, 0.124009, 9.697268, 0.003320, -0.004954, 0.012765, 0.730256, 0.152429, 88.263182, 357.598328, 0.000516, 0.006820, -0.318360, 0.001547, 0.021070, -0.653423, 0.034453, 0.126843, 9.797775, 0.732659, 0.183771, 29.702189, -95.838179, 0.022000, 21.800000, 0.015050, 0.331745, -0.280145
0.5000, 0.022702, 0.125351, 9.757931, 0.001487, -0.006329, 0.015972, 0.724439, 0.145748, 87.910545, 357.251726, 0.000667, 0.009640, -0.384473, 0.001524, 0.025826, -0.658558, 0.017099, 0.126245, 9.798373, 0.735981, 0.133286, 29.702189, -95.838179, 0.022000, 21.800000, 0.016340, 0.326585, -0.281005
0.6000, 0.021494, 0.135941, 9.782196, 0.002098, -0.009077, 0.010169, 0.749843, 0.129091, 87.822354, 358.125377, 0.000726, 0.012880, -0.450733, 0.000899, 0.030207, -0.661252, 0.020689, 0.143000, 9.798373, 0.796171, 0.125882, 29.702189, -95.838179, 0.022000, 21.800000, 0.011610, 0.331745, -0.290895
0.7000, 0.020652, 0.130123, 9.785440, -0.000193, -0.005870, 0.006199, 0.745464, 0.128027, 87.492605, 356.778242, 0.000802, 0.016540, -0.517214, 0.000805, 0.034467, -0.663628, 0.020091, 0.126245, 9.787602, 0.761851, 0.120912, 29.702189, -95.838179, 0.022000, 21.800000, 0.019350, 0.329595, -0.287455
0.8000, 0.031087, 0.121333, 9.793200, 0.002556, -0.008161, 0.009100, 0.734171, 0.141055, 87.308865, 357.331461, 0.000983, 0.020811, -0.583819, 0.001480, 0.039961, -0.665244, 0.038043, 0.115474, 9.798373, 0.709829, 0.181861, 29.702189, -95.838179, 0.022000, 21.800000, 0.016340, 0.323145, -0.288745
0.9000, 0.033465, 0.122485, 9.796304, 0.001640, -0.006634, 0.004671, 0.724857, 0.161064, 87.236906, 357.621741, 0.001197, 0.025720, -0.650540, 0.001919, 0.046048, -0.666550, 0.035051, 0.123253, 9.798373, 0.716339, 0.195713, 29.702189, -95.838179, 0.022000, 21.800000, 0.014620, 0.324005, -0.284015
1.0000, 0.029031, 0.122946, 9.797546, 0.002403, -0.009230, 0.003297, 0.722123, 0.157100, 87.171576, 357.409079, 0.001439, 0.031161, -0.717372, 0.002249, 0.051628, -0.667730, 0.026075, 0.123253, 9.798373, 0.718942, 0.169759, 29.702189, -95.838179, 0.022000, 21.800000, 0.015910, 0.331315, -0.284445
1.1000, 0.029771, 0.127079, 9.796247, 0.000418, -0.006481, 0.011085, 0.719128, 0.166906, 87.012322, 356.589575, 0.001648, 0.037201, -0.784341, 0.002142, 0.057472, -0.669036, 0.030264, 0.129835, 9.795381, 0.743211, 0.174107, 29.702190, -95.838179, 0.124000, 0.000000, 0.020640, 0.328305, -0.277565
1.2000, 0.021809, 0.119039, 9.797882, 0.003625, -0.008467, 0.007115, 0.717803, 0.153185, 86.749273, 356.132401, 0.001958, 0.043664, -0.851417, 0.002785, 0.062244, -0.670185, 0.016500, 0.113678, 9.798972, 0.696076, 0.127522, 29.702190, -95.838179, 0.124000, 21.600000, 0.022790, 0.326585, -0.288745
1.3000, 0.023650, 0.121567, 9.798177, 0.000418, -0.005870, 0.007878, 0.706672, 0.156521, 86.615081, 356.855281, 0.002271, 0.050644, -0.918603, 0.003012, 0.067281, -0.671302, 0.024878, 0.123253, 9.798373, 0.710837, 0.138287, 29.702190, -95.838179, 0.124000, 21.600000, 0.018920, 0.327445, -0.288315
1.4000, 0.024746, 0.122938, 9.794345, 0.001640, -0.006634, 0.009253, 0.705568, 0.157118, 86.679255, 357.790541, 0.002582, 0.058147, -0.985958, 0.003079, 0.072447, -0.672801, 0.025477, 0.123851, 9.791791, 0.719131, 0.144750, 29.702190, -95.838179, 0.124000, 21.600000, 0.013760, 0.333895, -0.284445
1.5000, 0.022312, 0.131026, 9.796762, 0.006374, -0.007856, 0.005130, 0.736500, 0.148824, 86.568405, 356.263970, 0.002857, 0.066111, -1.053425, 0.002857, 0.077245, -0.674046, 0.020689, 0.136418, 9.798373, 0.766249, 0.130479, 29.702190, -95.838179, 0.124000, 21.600000, 0.021930, 0.322715, -0.284445
1.6000, 0.023134, 0.131389, 9.794856, -0.001262, -0.003427, 0.010475, 0.727157, 0.163126, 86.660168, 357.892585, 0.003081, 0.074606, -1.121045, 0.002448, 0.082380, -0.675483, 0.023681, 0.131631, 9.793586, 0.768520, 0.135309, 29.702190, -95.838179, 0.124000, 21.600000, 0.012900, 0.327875, -0.287025
1.7000, 0.025617, 0.127943, 9.796967, -0.000193, -0.006634, 0.007726, 0.720710, 0.162675, 86.669799, 356.972240, 0.003302, 0.083648, -1.188778, 0.002289, 0.087741, -0.676714, 0.027272, 0.125646, 9.798373, 0.748208, 0.149800, 29.702190, -95.838179, 0.124000, 21.600000, 0.018920, 0.339055, -0.285305
1.8000, 0.029482, 0.126565, 9.797811, 0.003167, -0.010452, 0.012613, 0.729589, 0.149060, 86.655522, 356.740117, 0.003552, 0.093247, -1.256621, 0.002431, 0.093240, -0.677863, 0.032059, 0.125646, 9.798373, 0.740085, 0.172391, 29.702191, -95.838178, 0.064000, 0.000000, 0.019780, 0.327015, -0.288745
1.9000, 0.026361, 0.129604, 9.794558, -0.000804, -0.007856, 0.016125, 0.721748, 0.146813, 86.613789, 356.476410, 0.003748, 0.103347, -1.324628, 0.002114, 0.098414, -0.679331, 0.024280, 0.131631, 9.792389, 0.758107, 0.154190, 29.702191, -95.838178, 0.064000, 21.400000, 0.021070, 0.326585, -0.290895
2.0000, 0.025112, 0.130820, 9.795411, 0.002861, -0.009688, 0.005435, 0.734007, 0.135081, 86.462139, 356.022241, 0.003924, 0.113915, -1.392768, 0.001880, 0.103258, -0.680712, 0.024280, 0.131631, 9.795980, 0.765151, 0.146874, 29.702191, -95.838178, 0.064000, 21.400000, 0.023650, 0.326155, -0.284875
2.1000, 0.023177, 0.129870, 9.797188, 0.002251, -0.012437, 0.007573, 0.740436, 0.110440, 86.256055, 355.404269, 0.004105, 0.124874, -1.461019, 0.001830, 0.107477, -0.681913, 0.021886, 0.129237, 9.798373, 0.759459, 0.135528, 29.702191, -95.838178, 0.064000, 21.400000, 0.027090, 0.325295, -0.286595
2.2000, 0.027070, 0.132004, 9.792514, 0.001792, -0.008925, 0.004977, 0.745833, 0.110587, 86.018026, 355.235760, 0.004268, 0.136314, -1.529461, 0.001698, 0.112094, -0.683580, 0.029665, 0.133426, 9.789397, 0.772300, 0.158370, 29.702191, -95.838178, 0.064000, 21.400000, 0.027950, 0.320995, -0.287885
2.3000, 0.028268, 0.133575, 9.796029, 0.001182, -0.007856, 0.004061, 0.748978, 0.117195, 85.869608, 356.057045, 0.004407, 0.148252, -1.598016, 0.001496, 0.116952, -0.684894, 0.029067, 0.134623, 9.798373, 0.781212, 0.165321, 29.702191, -95.838178, 0.064000, 21.400000, 0.023220, 0.320565, -0.287885
2.4000, 0.022285, 0.133845, 9.793486, 0.003778, -0.008772, -0.000216, 0.764634, 0.113154, 85.697660, 355.535865, 0.004557, 0.160574, -1.666740, 0.001495, 0.121127, -0.686460, 0.018296, 0.134024, 9.791791, 0.782993, 0.130362, 29.702191, -95.838178, 0.064000, 21.400000, 0.026230, 0.324865, -0.296055
2.5000, 0.030304, 0.130362, 9.796418, 0.001792, -0.010299, 0.001922, 0.765269, 0.109378, 85.632130, 356.430101, 0.004770, 0.173419, -1.735578, 0.001918, 0.126009, -0.687739, 0.035650, 0.128040, 9.798373, 0.762392, 0.177219, 29.702191, -95.838178, 0.064000, 21.400000, 0.021500, 0.324005, -0.289175
2.6000, 0.035306, 0.122506, 9.797591, 0.003167, -0.011215, 0.002228, 0.765839, 0.106213, 85.597340, 356.318086, 0.005150, 0.186809, -1.804528, 0.003172, 0.131276, -0.688912, 0.038642, 0.117269, 9.798373, 0.716366, 0.206453, 29.702191, -95.838178, 0.063000, 21.300000, 0.022360, 0.326155, -0.291325
2.7000, 0.039462, 0.119005, 9.798061, 0.000265, -0.006634, 0.022081, 0.748939, 0.129904, 85.547684, 354.836446, 0.005674, 0.200849, -1.873589, 0.004555, 0.137354, -0.690045, 0.042232, 0.116670, 9.798373, 0.695859, 0.230741, 29.702191, -95.838178, 0.063000, 21.300000, 0.031820, 0.334755, -0.291755
2.8000, 0.031430, 0.114732, 9.792144, 0.003320, -0.006634, 0.040102, 0.745848, 0.144327, 85.559406, 354.973594, 0.006386, 0.215408, -1.942853, 0.006260, 0.142849, -0.691776, 0.026075, 0.111883, 9.788200, 0.671284, 0.183888, 29.702191, -95.838178, 0.063000, 21.300000, 0.029670, 0.325295, -0.289175
2.9000, 0.035398, 0.123435, 9.795882, 0.000571, -0.005718, 0.060260, 0.736004, 0.164635, 85.611650, 354.438428, 0.007121, 0.230641, -2.012233, 0.006987, 0.149166, -0.693124, 0.038043, 0.129237, 9.798373, 0.721923, 0.207023, 29.702191, -95.838178, 0.063000, 21.300000, 0.032680, 0.320135, -0.292185
3.0000, 0.024059, 0.129429, 9.797377, 0.003014, -0.009383, 0.044225, 0.744133, 0.155528, 85.542317, 354.327040, 0.007846, 0.246318, -2.081723, 0.007163, 0.154234, -0.694311, 0.016500, 0.133426, 9.798373, 0.756866, 0.140688, 29.702191, -95.838178, 0.063000, 21.300000, 0.033110, 0.324435, -0.291325
3.1000, 0.022037, 0.130032, 9.793666, 0.001945, -0.007092, 0.019179, 0.746423, 0.157458, 85.374412, 354.775689, 0.008585, 0.262476, -2.151388, 0.007315, 0.159133, -0.695868, 0.020689, 0.130434, 9.791192, 0.760678, 0.128913, 29.702191, -95.838178, 0.063000, 21.300000, 0.030100, 0.318845, -0.284875
3.2000, 0.014407, 0.120938, 9.782488, 0.002251, -0.012132, -0.004950, 0.743442, 0.128180, 85.048751, 353.924871, 0.009453, 0.278924, -2.221377, 0.008226, 0.162697, -0.698550, 0.009319, 0.114875, 9.775035, 0.708293, 0.084373, 29.702191, -95.838178, 0.063000, 21.300000, 0.034400, 0.317125, -0.295195
3.3000, -0.087742, 0.446186, 9.792019, 0.001640, -0.010910, -0.590770, 0.971631, 0.034914, 81.861817, 354.787659, 0.005943, 0.294574, -2.291409, -0.020657, 0.158567, -0.699727, -0.155842, 0.663019, 9.798373, 2.608849, -0.512859, 29.702191, -95.838178, 0.063000, 21.300000, 0.026230, 0.318845, -0.287455
3.4000, -0.032019, 0.269301, 9.807321, 0.001792, -0.010757, -0.247311, 1.054898, -0.009299, 81.008212, 357.406882, 0.002484, 0.310141, -2.361372, -0.029943, 0.156633, -0.699666, 0.005131, 0.151378, 9.817522, 1.572894, -0.186986, 29.702192, -95.838177, 0.104000, 0.000000, 0.015480, 0.334325, -0.278855
3.5000, -0.134677, 0.014357, 9.802311, 0.000113, -0.006634, -0.136133, 0.944894, -0.099654, 81.089285, 359.805874, 0.001320, 0.323213, -2.431475, -0.017742, 0.139362, -0.700570, -0.203116, -0.155606, 9.798972, 0.083910, -0.787154, 29.702192, -95.838177, 0.104000, 21.100000, -0.004730, 0.332605, -0.281865
3.6000, 0.115446, 0.310202, 9.792409, 0.006832, -0.008467, -0.163622, 1.080715, -0.020386, 81.367617, 2.805496, -0.002062, 0.339092, -2.501733, -0.028465, 0.152315, -0.701914, 0.282194, 0.507432, 9.785807, 1.814272, 0.675108, 29.702192, -95.838177, 0.104000, 21.100000, -0.008600, 0.329165, -0.286165
3.7000, 0.080853, 0.334111, 9.792756, 0.001487, -0.003427, -0.020374, 1.193266, 0.055049, 82.477762, 2.414306, -0.006666, 0.355922, -2.572112, -0.040181, 0.162967, -0.703163, 0.057791, 0.350050, 9.792988, 1.954003, 0.472770, 29.702192, -95.838177, 0.104000, 21.100000, -0.012470, 0.325725, -0.285735
3.8000, 0.128053, 0.302025, 9.754118, 0.003014, -0.005107, -0.055193, 1.283635, 0.147140, 83.339136, 2.049793, -0.011661, 0.374645, -2.643207, -0.046693, 0.179142, -0.708355, 0.159520, 0.280635, 9.728359, 1.773379, 0.751783, 29.702192, -95.838177, 0.104000, 21.100000, -0.007310, 0.327875, -0.287885
3.9000, -0.064185, 0.269084, 9.787134, 0.000571, -0.006939, 0.053693, 1.331288, 0.095145, 84.651614, 1.248250, -0.017019, 0.391901, -2.714330, -0.051284, 0.174759, -0.710272, -0.192345, 0.247124, 9.809145, 1.574841, -0.375607, 29.702192, -95.838177, 0.104000, 21.100000, -0.012900, 0.327015, -0.286595
4.0000, 0.130358, 0.329512, 9.897642, 0.006985, -0.006939, 0.065758, 1.444481, 0.172877, 85.953068, 2.202923, -0.023173, 0.411859, -2.783972, -0.058124, 0.191306, -0.701035, 0.260053, 0.369798, 9.971314, 1.906622, 0.754158, 29.702193, -95.838177, 0.037000, 0.000000, -0.005590, 0.331745, -0.290895
4.1000, 0.258442, 0.229095, 9.724263, -0.007065, -0.010605, -0.237384, 1.414118, 0.311092, 85.760171, 4.475211, -0.028477, 0.435634, -2.855344, -0.054730, 0.222265, -0.709494, 0.343831, 0.162149, 9.608677, 1.349110, 1.521968, 29.702193, -95.838177, 0.037000, 20.900000, -0.015910, 0.328735, -0.285305
4.2000, 0.325832, 0.473651, 9.766575, 0.001945, -0.005565, -0.142394, 1.589141, 0.508205, 86.245508, 5.551250, -0.036577, 0.464234, -2.926853, -0.072247, 0.264756, -0.713227, 0.370759, 0.636689, 9.794783, 2.774965, 1.908549, 29.702193, -95.838177, 0.037000, 20.900000, -0.023220, 0.333895, -0.291755
4.3000, 0.021389, 0.249050, 9.793553, 0.005152, -0.005107, 0.067132, 1.623866, 0.499001, 87.595184, 1.560233, -0.043307, 0.492291, -2.998384, -0.068944, 0.275298, -0.714615, -0.181573, 0.099316, 9.811538, 1.456716, 0.125092, 29.702193, -95.838177, 0.037000, 20.900000, -0.014620, 0.333465, -0.294765
4.4000, 0.238551, 0.038571, 9.767362, 0.001792, -0.011368, -0.168356, 1.503760, 0.594676, 87.751550, 4.914654, -0.046737, 0.524787, -3.070566, -0.045851, 0.308406, -0.719414, 0.383326, -0.101749, 9.749902, 0.226188, 1.399062, 29.702193, -95.838177, 0.037000, 20.900000, -0.015910, 0.321425, -0.292185
4.5000, 0.042129, 0.266031, 9.792791, 0.005305, -0.003732, -0.007393, 1.550968, 0.599311, 88.621459, 2.175922, -0.051283, 0.557796, -3.142726, -0.045591, 0.322863, -0.720871, -0.088820, 0.417671, 9.809743, 1.556098, 0.246394, 29.702193, -95.838177, 0.037000, 20.900000, -0.015480, 0.327875, -0.284445
4.6000, 0.239307, 0.059365, 9.760595, -0.003858, -0.000220, 0.149752, 1.417128, 0.743433, 90.258019, 3.427644, -0.053136, 0.595583, -3.215635, -0.027552, 0.359536, -0.726356, 0.370759, -0.078411, 9.739131, 0.348373, 1.404451, 29.702193, -95.838177, 0.037000, 20.900000, -0.008600, 0.326155, -0.284015
4.7000, 0.143682, 0.062870, 9.703913, 0.006069, -0.004496, -0.081002, 1.345209, 0.794571, 90.543490, 3.039073, -0.053457, 0.635733, -3.289924, -0.011321, 0.387513, -0.737377, 0.079932, 0.065207, 9.666125, 0.371166, 0.848276, 29.702193, -95.838176, 0.078000, 0.000000, -0.015050, 0.325725, -0.283585
4.8000, -0.020593, 0.109512, 9.760948, 0.003930, -0.007245, -0.083141, 1.293632, 0.723750, 90.714643, 1.726713, -0.052945, 0.676046, -3.364406, -0.000362, 0.397921, -0.742336, -0.130110, 0.140607, 9.798972, 0.642797, -0.120873, 29.702193, -95.838176, 0.078000, 20.800000, -0.013760, 0.323575, -0.292185
4.9000, -0.450376, 0.173768, 9.699745, 0.003625, -0.005412, 0.390127, 1.282880, 0.397279, 93.045500, 358.142970, -0.052025, 0.710134, -3.440228, 0.006011, 0.359896, -0.752926, -0.736898, 0.216605, 9.658944, 1.025221, -2.658007, 29.702193, -95.838176, 0.078000, 20.800000, -0.011610, 0.318845, -0.290895
5.0000, -0.177790, 0.085652, 9.852633, 0.006679, -0.004343, -0.134148, 1.232005, 0.265382, 92.623763, 3.078256, -0.049442, 0.744230, -3.514877, 0.019224, 0.347272, -0.748635, 0.003934, 0.026909, 9.954558, 0.497999, -1.033747, 29.702193, -95.838176, 0.078000, 20.800000, -0.016770, 0.313255, -0.304225
5.1000, -0.370713, 0.194025, 9.821513, 0.003472, -0.008772, -0.187140, 1.232561, -0.000833, 91.908136, 0.685543, -0.047076, 0.773406, -3.589539, 0.022186, 0.310265, -0.747294, -0.499329, 0.266273, 9.800767, 1.130930, -2.161184, 29.702193, -95.838176, 0.078000, 20.800000, -0.019350, 0.313685, -0.304225
5.2000, -0.037493, 0.212599, 9.786087, -0.000040, -0.008619, -0.059775, 1.226399, -0.046553, 92.213742, 5.865837, -0.044877, 0.803750, -3.664593, 0.022052, 0.305712, -0.749458, 0.184654, 0.224983, 9.762469, 1.244526, -0.219463, 29.702193, -95.838176, 0.078000, 20.800000, -0.027950, 0.321425, -0.306375
5.3000, -0.053209, 0.202795, 9.778020, 0.004389, -0.009383, -0.082530, 1.237799, -0.102006, 92.436310, 4.872589, -0.042500, 0.833268, -3.739989, 0.023200, 0.298692, -0.752457, -0.063687, 0.196259, 9.772642, 1.188120, -0.311717, 29.702193, -95.838176, 0.078000, 20.800000, -0.029670, 0.319275, -0.298635
5.4000, 0.129363, -0.077951, 9.783410, 0.001792, -0.017019, -0.831756, 1.062583, -0.080281, 89.054743, 8.603745, -0.036261, 0.864808, -3.815677, 0.049323, 0.309828, -0.755411, 0.251077, -0.265115, 9.787003, -0.456465, 0.757534, 29.702193, -95.838176, 0.078000, 20.800000, -0.039130, 0.317985, -0.302075
5.5000, 0.207059, 0.176695, 9.787361, -0.026460, 0.016884, -0.571222, 0.907796, 0.165192, 87.927675, 15.024081, -0.031525, 0.899329, -3.891544, 0.048015, 0.333419, -0.757582, 0.258856, 0.346460, 9.789996, 1.034041, 1.211757, 29.702193, -95.838176, 0.062000, 0.000000, -0.082130, 0.324435, -0.289605
5.6000, 0.208696, 0.260243, 9.725032, -0.001262, 0.001002, -0.538999, 0.951134, 0.311170, 87.521707, 17.619794, -0.028034, 0.936655, -3.968551, 0.039277, 0.359974, -0.765908, 0.209787, 0.315941, 9.683479, 1.532521, 1.228918, 29.702193, -95.838176, 0.062000, 20.700000, -0.099760, 0.324865, -0.297775
5.7000, 0.963706, -0.067539, 9.818226, 0.003167, -0.018851, -1.417423, 0.815462, 0.801036, 83.568300, 28.002986, -0.019167, 0.988712, -4.045265, 0.072205, 0.467044, -0.766725, 1.467046, -0.286060, 9.880355, -0.392241, 5.605767, 29.702193, -95.838176, 0.062000, 20.700000, -0.126850, 0.326155, -0.297345
5.8000, 0.072959, 0.591968, 9.762511, 0.003320, -0.004649, -0.342453, 1.089920, 0.800740, 85.657569, 22.296026, -0.017784, 1.039012, -4.122537, 0.033292, 0.491011, -0.770722, -0.520872, 1.031639, 9.725367, 3.469891, 0.427403, 29.702193, -95.838176, 0.062000, 20.700000, -0.157380, 0.312825, -0.303365
5.9000, 0.184857, 0.065511, 9.750278, 0.000571, 0.041777, -0.541137, 1.014154, 1.105232, 87.144151, 30.583692, -0.012572, 1.093619, -4.200591, 0.045844, 0.527720, -0.777269, 0.259455, -0.285461, 9.742123, 0.384886, 1.086123, 29.702193, -95.838176, 0.062000, 20.700000, -0.170710, 0.310675, -0.295195
6.0000, 0.841430, -0.188876, 9.727792, 0.019355, -0.018240, -1.563267, 0.883897, 1.470869, 84.176232, 39.217655, -0.001270, 1.162152, -4.279984, 0.090628, 0.632793, -0.788377, 1.279146, -0.358467, 9.712801, -1.108186, 4.942712, 29.702193, -95.838176, 0.062000, 20.700000, -0.202100, 0.302075, -0.291755
6.1000, 0.613602, 0.324415, 9.716643, -0.037914, 0.021924, -1.932688, 0.775510, 1.885902, 80.159661, 39.973762, 0.007335, 1.239717, -4.360551, 0.087573, 0.728031, -0.799908, 0.461717, 0.666609, 9.709210, 1.908457, 3.611403, 29.702193, -95.838176, 0.062000, 20.700000, -0.234350, 0.277135, -0.295195
6.2000, -0.536714, 0.110366, 9.619190, 0.024089, -0.017477, -1.984153, 0.872993, 1.358065, 76.974353, 44.272324, 0.015578, 1.307889, -4.443245, 0.084145, 0.697152, -0.817931, -1.303592, -0.032334, 9.554222, 0.656333, -3.193366, 29.702193, -95.838175, 0.082000, 0.000000, -0.285090, 0.250045, -0.294335
6.3000, -0.768847, 1.441542, 9.804972, -0.145579, -0.008772, -1.765311, 0.886264, 0.774859, 76.310163, 53.171523, 0.002939, 1.372915, -4.524655, -0.056211, 0.665892, -0.815371, -0.923602, 2.328992, 9.928827, 8.338557, -4.436120, 29.702193, -95.838175, 0.082000, 20.600000, -0.321210, 0.156735, -0.272405
6.4000, -0.926687, 0.026905, 9.787369, -0.040357, -0.012895, 0.038269, 0.630593, 0.100479, 86.450498, 68.822985, -0.002317, 1.425812, -4.606512, -0.053776, 0.574614, -0.817503, -1.031914, -0.916185, 9.775634, 0.156804, -5.408731, 29.702193, -95.838175, 0.082000, 20.600000, -0.328950, 0.144695, -0.269825
6.5000, -0.432225, 0.103025, 9.793254, 0.009428, -0.005412, -0.000674, 0.700675, -0.197307, 96.057170, 65.370747, -0.006708, 1.476350, -4.688528, -0.047195, 0.528456, -0.819280, -0.102583, 0.153772, 9.797176, 0.602144, -2.526966, 29.702193, -95.838175, 0.082000, 20.600000, -0.329380, 0.145555, -0.263805
6.6000, -0.236235, 0.139577, 9.795607, 0.003472, -0.008772, -0.003575, 0.754564, -0.375634, 105.080241, 64.934228, -0.010407, 1.524803, -4.770684, -0.040398, 0.499171, -0.820796, -0.105575, 0.163945, 9.797176, 0.816111, -1.381361, 29.702193, -95.838175, 0.082000, 20.600000, -0.322930, 0.145125, -0.269395
6.7000, -0.160712, 0.154916, 9.789368, 0.003472, -0.008314, -0.003728, 0.812595, -0.492995, 113.554856, 66.025025, -0.013200, 1.571256, -4.853081, -0.032082, 0.476075, -0.822912, -0.110363, 0.165142, 9.785208, 0.906502, -0.940419, 29.702193, -95.838175, 0.082000, 20.600000, -0.331960, 0.141685, -0.268965
6.8000, 0.005935, 0.302515, 9.780409, -0.006454, -0.015492, 0.791771, 0.904031, -0.536265, 125.279448, 62.341989, -0.017480, 1.616531, -4.935768, -0.039231, 0.460526, -0.825553, 0.117033, 0.400915, 9.774437, 1.771636, 0.034754, 29.702193, -95.838175, 0.082000, 20.600000, -0.325510, 0.161465, -0.271115
6.9000, 0.555511, 0.149000, 9.931934, 0.005610, -0.008467, -0.039616, 0.957960, -0.206836, 131.740936, 64.487249, -0.026402, 1.668570, -5.016449, -0.072554, 0.500437, -0.813055, 0.921895, 0.046656, 10.032950, 0.858152, 3.200962, 29.702193, -95.838175, 0.078000, 0.000000, -0.316910, 0.161465, -0.274555
7.0000, 0.447173, -0.189949, 9.625958, 0.043179, 0.003445, -0.706987, 0.992171, 0.112647, 134.430243, 67.247978, -0.034732, 1.727351, -5.100599, -0.079717, 0.558684, -0.832023, 0.374948, -0.415915, 9.421973, -1.129252, 2.659242, 29.702193, -95.838175, 0.078000, 20.600000, -0.328950, 0.153725, -0.268535
7.1000, -0.936840, 0.863991, 9.627438, 0.003014, 0.021771, 0.092025, 1.452029, -0.343731, 140.489096, 54.693380, -0.037107, 1.766554, -5.186345, -0.042406, 0.447585, -0.848978, -1.859515, 1.566618, 9.628425, 5.104153, -5.535808, 29.702193, -95.838175, 0.078000, 20.600000, -0.322070, 0.137815, -0.269825
7.2000, -0.273997, 0.187245, 9.886902, 0.018286, -0.008161, -0.133995, 1.545774, -0.525761, 145.184320, 66.333983, -0.036175, 1.809169, -5.270111, -0.007922, 0.433291, -0.841436, 0.167898, -0.263918, 10.059878, 1.084563, -1.587154, 29.702193, -95.838175, 0.078000, 20.600000, -0.314330, 0.146845, -0.274125
7.3000, -0.018554, 0.341299, 9.681549, -0.015312, -0.015492, -0.588021, 1.551716, -0.579092, 147.202785, 65.511675, -0.036141, 1.850555, -5.356107, -0.002412, 0.420341, -0.853780, 0.151741, 0.444001, 9.544647, 2.018978, -0.109736, 29.702193, -95.838175, 0.078000, 20.600000, -0.319920, 0.135665, -0.265525
7.4000, 0.067825, 0.681180, 9.912496, 0.007138, -0.008619, -0.298623, 1.873577, -0.536904, 150.544852, 65.060198, -0.038684, 1.887744, -5.439690, -0.017758, 0.388039, -0.841813, 0.125411, 0.907768, 10.066461, 3.931057, 0.391110, 29.702193, -95.838175, 0.078000, 20.600000, -0.322070, 0.127925, -0.270255
7.5000, 0.035235, 0.445880, 9.850844, 0.003167, -0.007398, 0.086222, 2.014187, -0.506908, 155.678522, 67.196868, -0.040363, 1.924868, -5.523116, -0.017112, 0.376841, -0.836778, 0.013508, 0.289012, 9.809743, 2.591598, 0.204728, 29.702193, -95.838175, 0.078000, 20.600000, -0.315190, 0.124915, -0.265525
7.6000, -0.454973, 0.546721, 9.485090, -0.057003, 0.010165, 0.277423, 1.907609, -0.691855, 161.105988, 63.255681, -0.035110, 1.956512, -5.611566, 0.029311, 0.336571, -0.868593, -0.781779, 0.613949, 9.241254, 3.295103, -2.741669, 29.702193, -95.838175, 0.078000, 20.600000, -0.318200, 0.129215, -0.268105
7.7000, -0.328992, 0.057465, 9.738765, 0.008054, -0.017171, 0.000090, 1.846856, -0.925791, 164.674389, 67.450649, -0.024128, 1.991951, -5.699640, 0.082985, 0.348450, -0.876696, -0.245005, -0.268706, 9.907882, 0.337886, -1.934780, 29.702193, -95.838175, 0.073000, 20.600000, -0.310030, 0.133515, -0.271115
7.8000, -0.193506, 0.130688, 9.761604, 0.000571, -0.010910, -0.004186, 1.789971, -1.026000, 167.800512, 66.285296, -0.009878, 2.028184, -5.788122, 0.122662, 0.357703, -0.882106, -0.103182, 0.179503, 9.776831, 0.766878, -1.135533, 29.702193, -95.838175, 0.073000, 20.600000, -0.315190, 0.132225, -0.268965
7.9000, -0.146851, 0.146334, 9.783666, 0.001334, -0.011368, -0.002354, 1.746441, -1.090140, 170.539930, 66.203275, 0.007689, 2.065381, -5.876797, 0.158002, 0.367214, -0.885205, -0.115748, 0.156764, 9.798373, 0.856808, -0.859840, 29.702193, -95.838175, 0.073000, 20.600000, -0.311750, 0.131795, -0.265525
8.0000, -0.126035, 0.167672, 9.792849, 0.002861, -0.009077, -0.003423, 1.723098, -1.121815, 172.921654, 66.457555, 0.028453, 2.103403, -5.965631, 0.191098, 0.375889, -0.887293, -0.112158, 0.181897, 9.798972, 0.980832, -0.737255, 29.702193, -95.838175, 0.073000, 20.600000, -0.314330, 0.130505, -0.271545
8.1000, -0.114118, 0.169385, 9.787906, 0.001029, -0.010757, -0.001743, 1.689646, -1.149436, 174.923428, 65.621818, 0.052360, 2.142363, -6.054744, 0.223077, 0.385024, -0.889854, -0.106174, 0.170527, 9.784610, 0.991368, -0.667887, 29.702193, -95.838175, 0.073000, 20.600000, -0.318200, 0.138245, -0.264235
8.2000, -0.107915, 0.171866, 9.794186, -0.000346, -0.010299, -0.003117, 1.650085, -1.165288, 176.659804, 66.836827, 0.079363, 2.182247, -6.144017, 0.254376, 0.394240, -0.891769, -0.103780, 0.173519, 9.798373, 1.005246, -0.631179, 29.702193, -95.838175, 0.073000, 20.600000, -0.322070, 0.131795, -0.267675
8.3000, -0.124823, 0.197632, 9.795621, 0.000418, -0.009077, -0.003117, 1.630518, -1.180439, 178.062674, 65.849574, 0.109738, 2.222723, -6.233454, 0.287295, 0.401248, -0.893506, -0.136094, 0.214810, 9.796578, 1.155723, -0.729914, 29.702193, -95.838175, 0.073000, 20.600000, -0.319060, 0.135665, -0.259935
8.4000, -0.009510, 0.220864, 9.585435, -0.011188, -0.019004, 0.015056, 1.567747, -1.172526, 179.281577, 66.011982, 0.141561, 2.263431, -6.326170, 0.307916, 0.405136, -0.915937, 0.067365, 0.236352, 9.445311, 1.319955, -0.056829, 29.702193, -95.838176, 0.038000, 0.000000, -0.315620, 0.134805, -0.262515
8.5000, -0.093000, 0.200356, 9.604407, 0.000113, -0.007856, -0.004950, 1.555137, -1.153554, 180.074342, 64.978675, 0.176647, 2.304855, -6.420876, 0.336546, 0.411211, -0.936689, -0.148661, 0.186684, 9.617055, 1.195010, -0.554663, 29.702193, -95.838176, 0.038000, 20.600000, -0.312180, 0.138675, -0.261225
8.6000, -0.094801, 0.172406, 9.725813, 0.002861, -0.011063, -0.003728, 1.537266, -1.150002, 180.671136, 65.733683, 0.214636, 2.347356, -6.515849, 0.365440, 0.420407, -0.945381, -0.096001, 0.153772, 9.806751, 1.015504, -0.558375, 29.702193, -95.838176, 0.038000, 20.600000, -0.315620, 0.136955, -0.263375
8.7000, -0.112037, 0.165175, 9.767913, 0.002098, -0.008925, -0.005408, 1.509507, -1.142728, 181.048623, 65.499397, 0.255756, 2.390864, -6.611066, 0.395950, 0.430187, -0.949911, -0.123528, 0.160354, 9.795980, 0.968712, -0.657053, 29.702193, -95.838176, 0.038000, 20.600000, -0.310460, 0.135665, -0.260795
8.8000, -0.093080, 0.164078, 9.786189, 0.002403, -0.010452, -0.004339, 1.482275, -1.129644, 181.257243, 65.698810, 0.299611, 2.435313, -6.706456, 0.424349, 0.439724, -0.952569, -0.080442, 0.163346, 9.798373, 0.960502, -0.544867, 29.702193, -95.838176, 0.038000, 20.600000, -0.316050, 0.137385, -0.259935
8.9000, -0.091960, 0.168306, 9.764776, 0.003930, -0.008619, -0.003423, 1.465543, -1.104629, 181.316113, 65.839473, 0.346220, 2.480604, -6.802429, 0.452175, 0.448515, -0.957339, -0.091213, 0.171126, 9.750500, 0.987413, -0.539488, 29.702193, -95.838176, 0.038000, 20.600000, -0.315190, 0.135665, -0.261655
9.0000, 0.222294, -0.412375, 9.817608, 0.005305, -0.002969, 0.507872, 1.102694, -0.859413, 184.074562, 69.175376, 0.389672, 2.534371, -6.898161, 0.440406, 0.507952, -0.957331, 0.431797, -0.799495, 9.852829, -2.404598, 1.295950, 29.702193, -95.838176, 0.038000, 20.600000, -0.315620, 0.144695, -0.260795
9.1000, -0.259151, -0.457225, 9.829764, 0.007138, -0.017630, -1.270815, 0.740263, -0.993882, 177.286452, 68.440345, 0.440563, 2.593614, -6.993788, 0.486074, 0.564272, -0.956625, -0.580114, -0.487125, 9.837868, -2.662233, -1.508560, 29.702193, -95.838176, 0.080000, 0.000000, -0.310890, 0.130505, -0.260795
9.2000, -0.216195, -0.386122, 9.801594, -0.018213, -0.011674, -1.459573, 0.308211, -1.061194, 170.589864, 75.679296, 0.496131, 2.655560, -7.089695, 0.532478, 0.601064, -0.958255, -0.187557, -0.338720, 9.782815, -2.255383, -1.262595, 29.702193, -95.838176, 0.080000, 20.700000, -0.319920, 0.089655, -0.260365
9.3000, 0.102586, -0.458572, 9.578130, -0.002789, -0.013048, -1.942462, -0.064750, -0.934996, 162.830397, 84.721394, 0.552131, 2.721845, -7.188985, 0.550829, 0.642257, -0.981351, 0.315107, -0.506873, 9.429154, -2.740902, 0.612939, 29.702193, -95.838176, 0.080000, 20.700000, -0.322930, 0.044075, -0.260365
9.4000, -1.037334, 0.227667, 9.580301, -0.002942, -0.011215, -2.418936, 0.010101, -1.508739, 153.956460, 87.945736, 0.623101, 2.774535, -7.291025, 0.656739, 0.565350, -1.007381, -1.797280, 0.685160, 9.581749, 1.353417, -6.178053, 29.702193, -95.838176, 0.080000, 20.700000, -0.296270, -0.013975, -0.267245
9.5000, -0.192119, 0.234314, 9.875588, 0.012941, -0.016255, -1.951014, 0.166934, -1.549591, 112.409153, 104.839023, 0.688550, 2.823528, -7.390902, 0.655240, 0.515069, -1.001638, 0.371358, 0.238746, 10.072445, 1.358923, -1.114174, 29.702193, -95.838176, 0.080000, 20.700000, -0.262730, -0.078045, -0.259935
9.6000, 0.244705, 0.272519, 9.791200, 0.007290, -0.017477, -2.268816, 0.309624, -1.325764, 73.094984, 116.914618, 0.751001, 2.876252, -7.491282, 0.634754, 0.523184, -1.003081, 0.535920, 0.297989, 9.734942, 1.593807, 1.431101, 29.702193, -95.838176, 0.080000, 20.700000, -0.198660, -0.115885, -0.264665
9.7000, 0.708107, 0.496765, 9.786887, 0.007596, -0.059627, -1.701781, 0.581773, -1.045456, 40.557664, 127.375070, 0.816633, 2.938262, -7.591699, 0.649133, 0.587792, -1.003810, 1.017042, 0.646263, 9.784011, 2.898178, 4.132987, 29.702193, -95.838176, 0.080000, 20.700000, -0.147920, -0.149855, -0.264235
9.8000, -0.036820, -0.152094, 9.497925, 0.199713, -0.019462, 0.035520, 1.429201, -1.010711, 20.738878, 144.473054, 0.880747, 2.990500, -7.696895, 0.643806, 0.544186, -1.035905, -0.533438, -0.584666, 9.305283, -0.917412, -0.222087, 29.702193, -95.838176, 0.034000, 0.000000, -0.135880, -0.151575, -0.268105
9.9000, -0.089563, -0.018482, 9.672449, 0.000265, -0.007398, 0.046363, 1.235083, -0.945164, 2.512816, 139.552422, 0.941545, 3.041354, -7.802630, 0.619919, 0.520420, -1.050204, -0.124724, 0.070593, 9.788799, -0.109474, -0.530518, 29.702193, -95.838176, 0.034000, 20.700000, -0.132440, -0.153295, -0.266815
10.0000, -0.119277, 0.040708, 9.736873, 0.004236, -0.009536, 0.006351, 1.110097, -0.912829, -14.643211, 139.478083, 0.998994, 3.092289, -7.908810, 0.589634, 0.513042, -1.057934, -0.139086, 0.080167, 9.779823, 0.239521, -0.701833, 29.702193, -95.838176, 0.034000, 20.700000, -0.133730, -0.154155, -0.273265
10.1000, -0.130803, 0.069410, 9.762284, 0.001029, -0.005107, -0.003423, 0.994094, -0.866741, -30.668594, 139.530275, 1.053600, 3.144434, -8.015369, 0.560584, 0.518647, -1.063041, -0.138488, 0.088545, 9.779224, 0.407331, -0.767632, 29.702193, -95.838176, 0.034000, 20.700000, -0.125560, -0.145125, -0.271975
10.2000, -0.136491, 0.078737, 9.779988, 0.001792, -0.007245, -0.002812, 0.896315, -0.839167, -45.497021, 140.677692, 1.105923, 3.198510, -8.122169, 0.535681, 0.533391, -1.066344, -0.140283, 0.084955, 9.791791, 0.461222, -0.799552, 29.702193, -95.838176, 0.034000, 20.700000, -0.128570, -0.154585, -0.269825
10.3000, -0.134458, 0.083904, 9.773785, 0.005152, -0.008161, -0.001590, 0.826642, -0.817750, -59.285817, 139.633495, 1.156656, 3.254945, -8.229387, 0.516779, 0.554025, -1.070238, -0.133102, 0.087348, 9.769650, 0.491801, -0.788138, 29.702193, -95.838176, 0.034000, 20.700000, -0.133730, -0.155445, -0.265525
10.4000, -0.133644, 0.084175, 9.781716, -0.000040, -0.009688, -0.000826, 0.735761, -0.805669, -72.035381, 139.904534, 1.206488, 3.314025, -8.336874, 0.504473, 0.578543, -1.073323, -0.133102, 0.084356, 9.787003, 0.492993, -0.782735, 29.702193, -95.838176, 0.034000, 20.700000, -0.133300, -0.156305, -0.268965
10.5000, -0.134037, 0.084643, 9.782016, 0.006985, -0.009383, -0.001895, 0.689290, -0.793380, -83.714753, 141.184005, 1.256000, 3.375843, -8.444663, 0.498239, 0.604967, -1.076370, -0.134299, 0.084955, 9.782216, 0.495716, -0.785011, 29.702193, -95.838176, 0.034000, 20.700000, -0.128570, -0.157595, -0.265955
10.6000, -0.177639, 0.066878, 9.664369, -0.001873, -0.020684, -0.003575, 0.590753, -0.868165, -94.453427, 140.592164, 1.305711, 3.441224, -8.554539, 0.497488, 0.637529, -1.091296, -0.206707, 0.055034, 9.585938, 0.396414, -1.052998, 29.702193, -95.838176, 0.012000, 0.000000, -0.132870, -0.156305, -0.262945
10.7000, -0.205133, 0.063721, 9.774931, 0.002403, -0.002816, 0.220765, 0.520910, -0.859975, -103.296327, 137.829026, 1.356306, 3.510199, -8.664255, 0.503132, 0.672346, -1.095203, -0.223462, 0.061617, 9.848640, 0.373413, -1.202184, 29.702193, -95.838176, 0.012000, 20.700000, -0.138460, -0.147705, -0.273265
10.8000, -0.153656, -0.178821, 9.871218, 0.004236, -0.015033, -0.217073, 0.320415, -0.885079, -113.418484, 142.256484, 1.405223, 3.583042, -8.772927, 0.493823, 0.709736, -1.089552, -0.119339, -0.340515, 9.935409, -1.037694, -0.891653, 29.702193, -95.838176, 0.012000, 20.700000, -0.130720, -0.155445, -0.270255
10.9000, -0.458720, -0.088056, 9.808123, 0.001792, 0.012914, 0.339120, 0.174849, -0.949496, -119.774996, 140.160067, 1.457697, 3.662982, -8.882050, 0.514430, 0.769513, -1.090666, -0.662097, -0.027546, 9.766059, -0.513819, -2.677633, 29.702193, -95.838176, 0.012000, 20.700000, -0.143190, -0.148565, -0.269825
11.0000, -0.514682, 0.150034, 9.836741, 0.002556, -0.009230, 0.391196, 0.188318, -1.163667, -125.642880, 134.248487, 1.516819, 3.747613, -8.990896, 0.565623, 0.820707, -1.089196, -0.551989, 0.308760, 9.855821, 0.872635, -2.994772, 29.702193, -95.838176, 0.012000, 20.700000, -0.158670, -0.148565, -0.263375
11.1000, -0.340668, 0.159098, 9.757350, 0.003930, -0.093071, -0.019611, 0.217658, -1.693194, -133.552615, 128.957766, 1.581207, 3.835258, -9.100812, 0.617795, 0.857873, -1.095840, -0.224659, 0.165142, 9.704423, 0.933584, -1.999346, 29.702193, -95.838176, 0.012000, 20.700000, -0.172000, -0.138675, -0.263805
11.2000, 0.442003, -0.022184, 9.816073, -0.001415, -0.016713, -1.058234, 0.110241, -1.302260, -146.241543, 128.370815, 1.639915, 3.919734, -9.210193, 0.597322, 0.849129, -1.094487, 0.963783, -0.143040, 9.855222, -0.129358, 2.578194, 29.702193, -95.838176, 0.012000, 20.700000, -0.160820, -0.143405, -0.262515
11.3000, -0.049910, 0.165970, 9.781397, 0.006069, -0.050616, -0.508608, 0.165366, -1.401908, -154.125629, 140.594200, 1.704452, 4.004681, -9.320126, 0.629355, 0.849357, -1.097719, -0.377852, 0.291406, 9.758280, 0.972084, -0.292309, 29.702193, -95.838176, 0.054000, 0.000000, -0.130720, -0.154585, -0.268105
11.4000, -0.032325, -0.051750, 9.736290, -0.002331, -0.013354, -0.005866, 0.043710, -1.282975, -157.998829, 143.739442, 1.770537, 4.091846, -9.431052, 0.650346, 0.864221, -1.105411, -0.020601, -0.196897, 9.706218, -0.304532, -0.190219, 29.702193, -95.838176, 0.054000, 20.800000, -0.120400, -0.158025, -0.265095
11.5000, 1.717519, 0.952303, 9.834578, -0.005538, -0.024502, -2.235830, 0.513434, -0.184109, -173.832822, 126.398942, 1.811822, 4.162665, -9.541020, 0.492017, 0.760196, -1.101592, 2.884081, 1.621671, 9.900103, 5.448866, 9.861066, 29.702193, -95.838176, 0.054000, 20.800000, -0.102340, -0.162325, -0.256925
11.6000, 1.446596, -0.032712, 9.748227, -0.002025, -0.006329, 0.820482, 0.395142, 0.803646, -171.425180, 140.729659, 1.837318, 4.236626, -9.652432, 0.333979, 0.746473, -1.109940, 1.265980, -0.689388, 9.690659, -0.190181, 8.440806, 29.702193, -95.838176, 0.054000, 20.800000, -0.110510, -0.158455, -0.262515
11.7000, -0.053795, 0.270909, 9.836480, 0.002403, -0.004649, -0.319545, 0.492036, 0.832219, -174.305168, 148.122285, 1.869663, 4.308358, -9.763003, 0.326962, 0.727038, -1.107121, -1.054055, 0.473323, 9.895316, 1.577575, -0.313223, 29.702193, -95.838176, 0.054000, 20.800000, -0.116530, -0.154585, -0.265095
11.8000, -0.195449, -0.020187, 9.890452, -0.010883, -0.022364, 0.108213, 0.340929, 0.675358, -174.277428, 145.035608, 1.903418, 4.382360, -9.872488, 0.334021, 0.735689, -1.098944, -0.289886, -0.214250, 9.926433, -0.116919, -1.132095, 29.702193, -95.838176, 0.054000, 20.800000, -0.120830, -0.156305, -0.258645
11.9000, -0.489440, 0.119016, 9.889062, 0.005152, -0.010452, -0.434235, 0.368866, 0.409102, -176.611666, 146.640040, 1.943141, 4.455471, -9.981140, 0.376156, 0.732639, -1.090657, -0.685435, 0.211818, 9.888135, 0.688684, -2.833229, 29.702193, -95.838176, 0.054000, 20.800000, -0.117390, -0.155875, -0.265525
12.0000, 0.053249, -0.048630, 9.847574, 0.007748, -0.010146, 0.162427, 0.308197, 0.479879, -175.609926, 141.568182, 1.978610, 4.530099, -10.089660, 0.361847, 0.741730, -1.087019, 0.415041, -0.160394, 9.819916, -0.282934, 0.309808, 29.702193, -95.838176, 0.037000, 0.000000, -0.116100, -0.155875, -0.259935
12.1000, -0.597131, -0.266487, 9.806923, 0.000418, -0.009994, 0.340342, 0.080927, 0.149429, -173.032613, 151.355758, 2.022794, 4.609486, -10.198391, 0.415179, 0.776491, -1.087213, -1.030717, -0.411726, 9.779823, -1.553661, -3.483081, 29.702193, -95.838176, 0.037000, 20.800000, -0.120400, -0.156305, -0.267675
12.2000, -0.477412, -0.065316, 9.828722, 0.001640, -0.004801, -0.053361, -0.003970, -0.067793, -172.803139, 142.224016, 2.071469, 4.689016, -10.306840, 0.462888, 0.789030, -1.085398, -0.397599, 0.068798, 9.843254, -0.380303, -2.780789, 29.702193, -95.838176, 0.037000, 20.800000, -0.130720, -0.156735, -0.262515
12.3000, -0.319297, -0.292550, 9.783584, 0.000723, -0.009688, 0.080113, -0.225110, -0.208268, -171.716071, 143.369950, 2.122476, 4.772457, -10.415778, 0.494343, 0.819288, -1.088055, -0.213887, -0.444040, 9.753493, -1.711847, -1.868408, 29.702193, -95.838176, 0.037000, 20.800000, -0.128140, -0.152865, -0.259935
12.4000, 0.186652, -0.862052, 9.698747, 0.079983, -0.012284, -0.141020, -0.374190, -0.048993, -171.738291, 141.688095, 2.167541, 4.865858, -10.526169, 0.465216, 0.895766, -1.098622, 0.523952, -1.241720, 9.642188, -5.078330, 1.098193, 29.702193, -95.838176, 0.037000, 20.800000, -0.134160, -0.155875, -0.267245
12.5000, -0.417385, -0.135509, 9.792273, 0.004694, -0.006634, -0.304121, -0.476211, -0.238028, -172.229054, 144.580719, 2.220761, 4.957168, -10.636312, 0.509870, 0.907322, -1.100498, -0.820077, 0.348853, 9.854624, -0.792109, -2.440460, 29.702193, -95.838176, 0.037000, 20.800000, -0.127710, -0.158025, -0.263375
12.6000, -0.736554, 0.359047, 9.881027, -0.006760, -0.003580, 0.007878, -0.330617, -0.593162, -170.664283, 145.713459, 2.285175, 5.043783, -10.745453, 0.599387, 0.879874, -1.094434, -0.949333, 0.688750, 9.940196, 2.075287, -4.260271, 29.702193, -95.838176, 0.037000, 20.800000, -0.124270, -0.164045, -0.264665
12.7000, -0.535695, 0.143966, 9.756394, 0.001792, -0.006634, -0.308397, -0.270349, -0.831917, -170.711726, 143.731941, 2.355600, 5.130597, -10.855844, 0.669293, 0.872054, -1.100754, -0.401788, 0.000579, 9.673306, 0.844127, -3.142443, 29.702193, -95.838176, 0.037000, 20.800000, -0.125990, -0.156735, -0.262515
12.8000, -0.313168, 0.078758, 9.794148, -0.006302, 0.002224, 0.035978, -0.291388, -0.877442, -168.812546, 142.950730, 2.429718, 5.217259, -10.966254, 0.717219, 0.868427, -1.102986, -0.164818, 0.035287, 9.819318, 0.460491, -1.831353, 29.702193, -95.838176, 0.030000, 0.000000, -0.124700, -0.160175, -0.268105
12.9000, -0.450357, 0.404899, 9.518782, 0.004694, -0.003427, -0.059011, -0.044769, -1.043497, -167.561902, 139.828767, 2.511907, 5.300076, -11.081073, 0.786999, 0.841593, -1.133118, -0.541816, 0.622327, 9.335204, 2.432998, -2.706341, 29.702193, -95.838176, 0.030000, 20.900000, -0.133730, -0.158455, -0.266815
13.0000, -0.283342, 0.226217, 9.685100, 0.002098, -0.009536, -0.004339, 0.063279, -1.126105, -166.007727, 140.406870, 2.598282, 5.382816, -11.196366, 0.838168, 0.832133, -1.146328, -0.171999, 0.107096, 9.795980, 1.337456, -1.675280, 29.702193, -95.838176, 0.030000, 20.900000, -0.131150, -0.155875, -0.262945
13.1000, -0.217254, 0.150077, 9.750192, 0.003014, -0.008008, -0.005102, 0.124739, -1.154003, -164.378879, 141.309336, 2.688594, 5.465839, -11.311987, 0.881468, 0.830860, -1.152914, -0.173196, 0.099316, 9.793586, 0.881619, -1.276304, 29.702193, -95.838176, 0.030000, 20.900000, -0.125990, -0.154155, -0.265095
13.2000, -0.196205, 0.118902, 9.775510, 0.000723, -0.009841, -0.005561, 0.153164, -1.175973, -162.754468, 140.558898, 2.782838, 5.549360, -11.427882, 0.922114, 0.833764, -1.156943, -0.182172, 0.098120, 9.792389, 0.696731, -1.149747, 29.702193, -95.838176, 0.030000, 20.900000, -0.132010, -0.157165, -0.263375
13.3000, -0.184194, 0.106792, 9.786356, 0.003472, -0.008772, -0.002201, 0.188406, -1.182599, -161.126502, 140.212039, 2.880892, 5.633552, -11.544015, 0.961065, 0.839195, -1.159866, -0.176188, 0.098718, 9.793586, 0.625094, -1.078204, 29.702193, -95.838176, 0.030000, 20.900000, -0.135880, -0.160175, -0.259505
13.4000, -0.201292, 0.068556, 9.756585, 0.063795, -0.017477, -0.121320, 0.509116, -1.243405, -159.998031, 142.071957, 2.982726, 5.719846, -11.660899, 0.999250, 0.855025, -1.165852, -0.212691, 0.043066, 9.736737, 0.402506, -1.181896, 29.702193, -95.838176, 0.030000, 20.900000, -0.130720, -0.161465, -0.265095
13.5000, -0.160378, 0.141587, 9.781658, -0.001262, -0.009230, -0.372996, 0.506159, -1.230016, -159.914333, 144.414499, 3.088152, 5.806479, -11.777982, 1.035926, 0.862562, -1.169169, -0.133102, 0.190275, 9.798373, 0.829175, -0.939228, 29.702193, -95.838176, 0.045000, 0.000000, -0.119110, -0.166625, -0.270255
13.6000, -0.245982, -0.196145, 9.757578, 0.011566, -0.007703, -0.052750, 0.365652, -1.260896, -157.616045, 149.433392, 3.196657, 5.898950, -11.895824, 1.068676, 0.903996, -1.175333, -0.303051, -0.421300, 9.741524, -1.151230, -1.443788, 29.702193, -95.838176, 0.045000, 21.000000, -0.112660, -0.165765, -0.259935
13.7000, -0.777502, -0.150638, 9.714913, -0.080980, -0.021142, -0.387810, -0.216518, -1.683651, -156.313994, 159.953743, 3.317435, 5.997318, -12.015182, 1.161409, 0.957117, -1.187496, -1.131848, -0.120300, 9.686471, -0.885518, -4.575182, 29.702193, -95.838176, 0.045000, 21.000000, -0.094170, -0.168775, -0.264665
13.8000, -0.582952, 0.156956, 9.632142, 0.136183, -0.012590, -0.708819, 0.561680, -1.919587, -155.869916, 166.011651, 3.446352, 6.097725, -12.136957, 1.246585, 0.988421, -1.207667, -0.453251, 0.362018, 9.576962, 0.931848, -3.462942, 29.702193, -95.838176, 0.045000, 21.000000, -0.052460, -0.170495, -0.263805
13.9000, -0.332789, -0.096646, 9.544459, 0.100753, -0.009994, -0.886581, 0.922369, -1.974288, -155.276832, 174.461048, 3.578451, 6.204126, -12.262006, 1.296187, 1.038813, -1.236214, -0.166015, -0.265714, 9.486003, -0.579797, -1.996837, 29.702193, -95.838176, 0.045000, 21.000000, -0.021930, -0.170925, -0.265095
14.0000, 0.567230, -0.046210, 9.851556, 0.042873, -0.038857, -3.021250, 0.972216, -1.622333, -164.710633, 180.679042, 3.703057, 6.309954, -12.384855, 1.262765, 1.051795, -1.231067, 1.167243, -0.012586, 10.056288, -0.268307, 3.295285, 29.702193, -95.838176, 0.045000, 21.000000, 0.031820, -0.171355, -0.256495
14.1000, -0.655796, 0.457599, 9.794154, 0.007596, -0.028931, -3.131053, 1.133590, -1.967241, -169.191070, 238.125026, 3.844689, 6.414038, -12.508517, 1.365139, 1.044489, -1.234767, -1.471147, 0.793472, 9.755886, 2.669041, -3.826526, 29.702193, -95.838176, 0.045000, 21.000000, 0.121260, -0.119325, -0.265525
14.2000, 0.055284, 0.320183, 9.759345, 0.001029, -0.020378, -2.480939, 1.171217, -1.812136, -166.846828, 251.843614, 3.985318, 6.517590, -12.632733, 1.392569, 1.038511, -1.239695, 0.529338, 0.228573, 9.736139, 1.879049, 0.324388, 29.702193, -95.838176, 0.050000, 0.000000, 0.181890, -0.061275, -0.259935
14.3000, -0.274252, 0.356056, 9.775222, 0.004236, -0.016408, -0.592755, 1.246825, -1.840978, -152.248281, 267.686981, 4.133385, 6.623649, -12.757350, 1.451305, 1.053227, -1.244016, -0.493943, 0.379971, 9.785807, 2.085218, -1.605997, 29.702193, -95.838176, 0.050000, 0.000000, 0.199090, -0.018275, -0.260365
14.4000, -0.143245, 0.167185, 9.792703, -0.000040, -0.004496, -0.004033, 1.182461, -1.724601, -134.878004, 265.276345, 4.282779, 6.733996, -12.882122, 1.479730, 1.086725, -1.246484, -0.055907, 0.041271, 9.804357, 0.977976, -0.837927, 29.702193, -95.838176, 0.050000, 21.000000, 0.200810, -0.017845, -0.268535
14.5000, -0.098382, 0.080147, 9.791079, -0.000193, -0.008008, -0.004950, 1.069998, -1.606083, -118.295647, 267.265511, 4.432046, 6.848322, -13.007156, 1.488356, 1.124415, -1.249057, -0.068474, 0.022122, 9.789996, 0.468972, -0.575679, 29.702193, -95.838176, 0.050000, 21.000000, 0.196940, -0.010105, -0.270685
14.6000, -0.069307, 0.045332, 9.784325, 0.002403, -0.010146, -0.004492, 0.958000, -1.487363, -102.688013, 266.986828, 4.580216, 6.965883, -13.132533, 1.483918, 1.158547, -1.252195, -0.049923, 0.022122, 9.779823, 0.265448, -0.405841, 29.702193, -95.838176, 0.050000, 21.000000, 0.195650, -0.010965, -0.264235
14.7000, -0.014232, 0.050794, 9.788445, -0.002789, 0.001613, -0.006324, 0.830339, -1.280963, -88.186584, 265.719708, 4.727132, 7.085189, -13.258122, 1.474079, 1.181551, -1.254656, 0.022485, 0.054436, 9.791192, 0.297316, -0.083305, 29.702193, -95.838176, 0.050000, 21.000000, 0.196080, -0.016125, -0.268535
14.8000, 0.628229, -0.007341, 9.761370, 0.004236, -0.015644, -0.017625, 0.713650, -0.786920, -74.924430, 263.310325, 4.874600, 7.195684, -13.384214, 1.474483, 1.130487, -1.258834, 1.056537, -0.046097, 9.743320, -0.042998, 3.682404, 29.702193, -95.838176, 0.050000, 21.000000, 0.201240, -0.018705, -0.268535
14.9000, 0.637831, -0.351223, 9.824503, 0.008207, -0.015186, -0.008004, 0.417552, -0.313326, -62.857232, 260.061857, 5.020402, 7.298043, -13.509872, 1.463506, 1.059219, -1.257331, 0.644233, -0.580477, 9.866592, -2.043135, 3.712207, 29.702193, -95.838176, 0.050000, 21.000000, 0.196510, -0.014835, -0.268535
15.0000, 0.286216, -0.140501, 9.725886, -0.000651, -0.013964, -0.038547, 0.218934, -0.070126, -51.501562, 267.974563, 5.167228, 7.399085, -13.636871, 1.466677, 1.026691, -1.265769, 0.051807, -0.000020, 9.660141, -0.827283, 1.685456, 29.702193, -95.838176, 0.057000, 0.000000, 0.202100, -0.007095, -0.272405
15.1000, -0.132690, -0.122995, 9.780509, 0.001487, -0.007550, -0.292973, 0.057060, -0.064884, -42.193437, 268.291686, 5.310961, 7.501728, -13.763894, 1.447111, 1.026513, -1.268747, -0.411961, -0.111324, 9.816924, -0.720418, -0.777211, 29.702193, -95.838176, 0.057000, 21.100000, 0.209840, -0.003655, -0.267675
15.2000, -0.333285, -0.022640, 9.707929, 0.017675, -0.010452, 0.091109, 0.051612, -0.202553, -31.418010, 271.009968, 5.450721, 7.606852, -13.892319, 1.414104, 1.042997, -1.279080, -0.467015, 0.044263, 9.659542, -0.133543, -1.966256, 29.702193, -95.838176, 0.057000, 21.100000, 0.212420, 0.002795, -0.266385
15.3000, -0.047655, 0.356800, 9.732036, -0.003094, -0.008925, -0.314658, 0.170831, -0.153116, -23.196528, 277.317233, 5.593052, 7.716106, -14.021383, 1.420244, 1.076027, -1.286791, 0.142765, 0.609760, 9.748107, 2.099637, -0.280371, 29.702193, -95.838176, 0.057000, 21.100000, 0.216290, 0.010105, -0.271975
15.4000, -0.156730, 0.719695, 9.751732, 0.008970, -0.006023, 0.378979, 0.570706, -0.160847, -11.760326, 279.511960, 5.734276, 7.833413, -14.150843, 1.414906, 1.140726, -1.291997, -0.229446, 0.961625, 9.764862, 4.220335, -0.918281, 29.702193, -95.838176, 0.057000, 21.100000, 0.217580, 0.011825, -0.267675
15.5000, -0.177740, 0.442615, 9.803414, 0.002403, 0.010623, 0.403719, 0.746305, -0.098991, -1.743946, 270.067295, 5.872992, 7.952296, -14.280073, 1.396405, 1.172792, -1.292194, -0.191746, 0.257895, 9.837868, 2.584672, -1.037624, 29.702193, -95.838176, 0.057000, 21.100000, 0.224460, -0.006665, -0.268965
15.6000, -0.329044, 0.115278, 9.811879, 0.017980, -0.014881, -0.117654, 0.795651, -0.271494, 4.153500, 266.160064, 6.007037, 8.068853, -14.409279, 1.359102, 1.167980, -1.292108, -0.429913, -0.102946, 9.817522, 0.672751, -1.920577, 29.702193, -95.838176, 0.057000, 21.100000, 0.218870, -0.012685, -0.277565
15.7000, -0.597094, -0.019606, 9.926928, 0.000571, -0.009994, 0.038574, 0.668226, -0.568299, 10.098312, 267.163956, 6.133032, 8.181823, -14.536846, 1.293001, 1.142456, -1.281147, -0.775794, -0.109529, 10.003628, -0.112956, -3.442127, 29.702193, -95.838176, 0.057000, 21.100000, 0.222740, -0.009245, -0.274555
15.8000, -0.680258, 0.100219, 9.809582, -0.002331, -0.004191, -0.006935, 0.607027, -0.875271, 15.250843, 269.752272, 6.250335, 8.292740, -14.665132, 1.213019, 1.120264, -1.282291, -0.735701, 0.180102, 9.731351, 0.583935, -3.966693, 29.702193, -95.838176, 0.029000, 0.000000, 0.227900, -0.005805, -0.273695
15.9000, -0.349451, 0.105063, 9.814346, 0.000113, -0.010605, 0.196483, 0.567606, -1.000793, 20.782032, 268.381003, 6.364291, 8.402104, -14.793402, 1.164047, 1.102517, -1.282560, -0.128913, 0.108293, 9.817522, 0.612942, -2.039105, 29.702193, -95.838176, 0.029000, 21.100000, 0.229620, -0.009675, -0.282295
16.0000, -0.031143, 0.082227, 9.804762, 0.001487, -0.010910, 0.154181, 0.525845, -0.927985, 25.236990, 266.034771, 6.478168, 8.511036, -14.921758, 1.147197, 1.093717, -1.283229, 0.181063, 0.067002, 9.798373, 0.480491, -0.181980, 29.702193, -95.838176, 0.029000, 21.100000, 0.228330, -0.017415, -0.281005
16.1000, -0.333956, 0.083863, 9.801647, 0.000571, -0.004954, -0.000368, 0.484435, -1.011570, 28.369481, 268.560373, 6.586189, 8.616807, -15.050312, 1.102543, 1.069716, -1.284771, -0.535832, 0.084955, 9.799570, 0.489929, -1.951324, 29.702193, -95.838176, 0.029000, 21.100000, 0.225750, -0.008385, -0.281865
16.2000, -0.175026, 0.047536, 9.815481, 0.001182, -0.006787, -0.003117, 0.428435, -1.004718, 30.951630, 267.389522, 6.692178, 8.720768, -15.178774, 1.074104, 1.049645, -1.284672, -0.069072, 0.023318, 9.824703, 0.277437, -1.021556, 29.702193, -95.838176, 0.029000, 21.100000, 0.233060, -0.011395, -0.287025
16.3000, -0.119353, 0.021516, 9.801267, 0.012483, -0.017782, -0.002812, 0.419676, -1.021514, 33.007340, 266.502899, 6.796300, 8.822697, -15.307429, 1.052183, 1.029410, -1.285925, -0.082237, 0.004169, 9.791791, 0.125768, -0.697670, 29.702193, -95.838176, 0.029000, 21.100000, 0.231340, -0.014405, -0.286165
16.4000, -0.088825, 0.020802, 9.795222, -0.000804, -0.010605, -0.006630, 0.341509, -0.979384, 34.645925, 267.295336, 6.898677, 8.922990, -15.436289, 1.033239, 1.011751, -1.287702, -0.068474, 0.020326, 9.791192, 0.121675, -0.519556, 29.702193, -95.838176, 0.029000, 21.100000, 0.227040, -0.011395, -0.279715
16.5000, -0.002292, 0.288724, 9.802499, -0.000346, -0.023280, -1.597781, 0.435049, -0.951562, 28.176957, 274.319160, 6.998300, 9.025829, -15.565164, 1.008566, 1.022844, -1.288401, 0.055397, 0.467339, 9.807349, 1.687109, -0.013390, 29.702193, -95.838176, 0.029000, 21.100000, 0.231340, 0.004085, -0.277565
16.6000, -0.435515, 1.024582, 9.657482, 0.004389, -0.007856, -1.947196, 1.003149, -1.107229, 22.019181, 294.534726, 7.085691, 9.136507, -15.696198, 0.918800, 1.078806, -1.303029, -0.724331, 1.515155, 9.560805, 6.049872, -2.567680, 29.702194, -95.838175, 0.046000, 0.000000, 0.230480, 0.074175, -0.281435
16.7000, -0.294999, 1.064721, 9.712575, -0.004927, 0.094617, -0.087417, 1.514207, -0.641834, 27.014314, 302.170643, 7.166669, 9.252428, -15.827650, 0.846116, 1.132410, -1.310689, -0.201321, 1.091480, 9.749304, 6.253091, -1.729348, 29.702194, -95.838175, 0.046000, 21.000000, 0.221450, 0.113735, -0.271975
16.8000, 0.061730, -0.254875, 9.582377, 0.000113, -0.350246, -1.777986, 1.217805, -2.297426, 22.684117, 293.779639, 7.249474, 9.357461, -15.962325, 0.834075, 1.077686, -1.334731, 0.299548, -1.134605, 9.495578, -1.523577, 0.368963, 29.702194, -95.838175, 0.046000, 21.000000, 0.215860, 0.125345, -0.272835
16.9000, 0.276230, 0.327457, 9.693304, 0.001334, -0.025571, -2.507512, 1.301767, -1.967829, 16.941446, 323.541312, 7.331596, 9.466518, -16.097418, 0.825504, 1.086277, -1.345530, 0.419230, 0.715679, 9.767256, 1.934035, 1.631386, 29.702194, -95.838175, 0.046000, 21.000000, 0.176300, 0.201885, -0.278855
17.0000, 0.242827, 0.255560, 9.698898, -0.004469, -0.016713, -1.054874, 1.306676, -1.627038, 20.783452, 334.524119, 7.413505, 9.575453, -16.233543, 0.821224, 1.088324, -1.356012, 0.220558, 0.207629, 9.702628, 1.508888, 1.433692, 29.702194, -95.838175, 0.046000, 21.000000, 0.126420, 0.246175, -0.276275
17.1000, -0.151841, 0.144939, 9.537411, -0.078078, 0.003445, -2.476358, 0.867992, -1.444203, 18.721484, 350.500945, 7.490053, 9.682403, -16.373320, 0.784066, 1.075777, -1.383846, -0.414953, 0.071191, 9.429753, 0.870539, -0.912000, 29.702194, -95.838175, 0.046000, 21.000000, 0.037840, 0.298205, -0.283155
17.2000, -0.138802, 0.294934, 9.722353, 0.003472, -0.017324, -1.367332, 0.983586, -1.374169, 24.175294, 1.531927, 7.562583, 9.789447, -16.513056, 0.744886, 1.072220, -1.392860, -0.130110, 0.394931, 9.845648, 1.737396, -0.817559, 29.702194, -95.838175, 0.046000, 21.000000, -0.012470, 0.316265, -0.281435
17.3000, 0.097639, 0.427100, 9.762579, 0.003014, -0.012743, -0.063287, 1.168776, -1.140435, 36.824250, 5.629392, 7.633860, 9.898535, -16.652953, 0.723477, 1.084658, -1.396934, 0.255266, 0.515211, 9.789397, 2.504895, 0.572466, 29.702195, -95.838175, 0.081000, 0.000000, -0.025370, 0.317125, -0.280575
17.4000, -0.132003, 0.178727, 9.758204, 0.003014, -0.013964, -0.278923, 1.191233, -1.067359, 47.576812, 4.747698, 7.703300, 10.003282, -16.793462, 0.704094, 1.059864, -1.402368, -0.285098, 0.013145, 9.755288, 1.049194, -0.774888, 29.702195, -95.838175, 0.081000, 20.900000, -0.034400, 0.315405, -0.279285
17.5000, 2.271150, -0.579112, 9.679619, -0.029362, -0.013964, 0.699072, 0.589389, 0.448481, 63.870944, 23.198865, 7.798352, 10.136389, -16.936022, 0.868376, 1.240673, -1.417860, 3.873253, -1.084339, 9.627228, -3.333494, 13.181834, 29.702195, -95.838175, 0.081000, 20.900000, -0.023220, 0.323145, -0.280145
17.6000, 0.905794, -0.096655, 9.645671, 0.005916, -0.002816, 0.007115, 0.495560, 1.125118, 74.294726, 3.131320, 7.892236, 10.275537, -17.080586, 0.915351, 1.341210, -1.436377, -0.004444, 0.224983, 9.623039, -0.571604, 5.364461, 29.702195, -95.838175, 0.081000, 20.900000, -0.018060, 0.321425, -0.276275
17.7000, 0.376526, 0.043189, 9.725803, 0.002403, -0.010299, -0.006324, 0.473092, 1.390477, 83.438790, 4.062682, 7.985374, 10.418721, -17.225666, 0.926037, 1.401627, -1.445995, 0.023681, 0.136418, 9.779224, 0.254237, 2.217029, 29.702195, -95.838175, 0.081000, 20.900000, -0.022360, 0.320565, -0.284015
17.8000, 0.164460, 0.099485, 9.761446, 0.000876, -0.009383, -0.006019, 0.478084, 1.507751, 91.611343, 4.232076, 8.077529, 10.565192, -17.371102, 0.923050, 1.443686, -1.451572, 0.023083, 0.137016, 9.785208, 0.583835, 0.965175, 29.702195, -95.838175, 0.081000, 20.900000, -0.023220, 0.318845, -0.281005
17.9000, 0.083583, 0.123799, 9.777858, 0.001792, -0.007398, -0.006782, 0.502555, 1.570614, 98.903448, 4.070799, 8.168455, 10.714683, -17.516820, 0.913851, 1.477831, -1.455311, 0.029665, 0.140008, 9.788799, 0.725366, 0.489726, 29.702195, -95.838175, 0.081000, 20.900000, -0.021930, 0.316265, -0.286165
18.0000, 0.053028, 0.132807, 9.784781, 0.000723, -0.008008, -0.003575, 0.525684, 1.599069, 105.431689, 4.410800, 8.257916, 10.867009, -17.662797, 0.901027, 1.508118, -1.458282, 0.032657, 0.138812, 9.789397, 0.777603, 0.310478, 29.702195, -95.838175, 0.023000, 0.000000, -0.024080, 0.320565, -0.287455
18.1000, 0.036497, 0.134614, 9.790782, 0.002098, -0.007856, -0.004033, 0.555949, 1.607977, 111.260564, 5.088251, 8.345772, 11.021956, -17.808974, 0.886050, 1.535688, -1.460607, 0.025477, 0.135819, 9.794783, 0.787709, 0.213560, 29.702195, -95.838175, 0.023000, 20.800000, -0.028380, 0.323145, -0.285735
18.2000, 0.028090, 0.137492, 9.786720, 0.001334, -0.004954, -0.001895, 0.582251, 1.617839, 116.366443, 4.240459, 8.431838, 11.179363, -17.955441, 0.869123, 1.561273, -1.463315, 0.022485, 0.139410, 9.784011, 0.804881, 0.164432, 29.702195, -95.838175, 0.023000, 20.800000, -0.023220, 0.317985, -0.285735
18.3000, 0.026881, 0.133257, 9.793712, -0.001567, -0.008161, -0.006171, 0.589557, 1.601208, 120.764543, 3.964717, 8.516026, 11.339115, -18.102073, 0.850958, 1.585438, -1.465316, 0.026075, 0.130434, 9.798373, 0.779537, 0.157245, 29.702195, -95.838175, 0.023000, 20.800000, -0.021500, 0.317555, -0.291755
18.4000, 0.025679, 0.132999, 9.796509, 0.002556, -0.008161, -0.005255, 0.618178, 1.577367, 124.591385, 4.671133, 8.598269, 11.501073, -18.248860, 0.831943, 1.608203, -1.467021, 0.024878, 0.132827, 9.798373, 0.777808, 0.150173, 29.702195, -95.838175, 0.023000, 20.800000, -0.026230, 0.326155, -0.291325
18.5000, 0.024480, 0.138282, 9.789369, 0.006221, -0.008161, -0.001590, 0.666822, 1.547178, 127.847772, 4.132989, 8.678517, 11.665090, -18.395921, 0.812300, 1.629515, -1.469412, 0.023681, 0.141804, 9.784610, 0.809287, 0.143266, 29.702195, -95.838175, 0.023000, 20.800000, -0.022360, 0.314975, -0.289605
18.6000, 0.027951, 0.134650, 9.789386, -0.001415, -0.011368, -0.004492, 0.669811, 1.497788, 130.532512, 3.821360, 8.756750, 11.831081, -18.543219, 0.792319, 1.649775, -1.471791, 0.030264, 0.132229, 9.789397, 0.788034, 0.163574, 29.702195, -95.838175, 0.016000, 0.000000, -0.020640, 0.318415, -0.286165
18.7000, 0.023953, 0.134993, 9.795137, 0.000723, -0.005565, -0.005713, 0.684300, 1.473309, 132.724253, 3.992495, 8.832977, 11.998915, -18.690665, 0.772283, 1.668816, -1.473571, 0.021288, 0.135221, 9.798972, 0.789575, 0.140096, 29.702195, -95.838175, 0.016000, 20.800000, -0.022360, 0.325295, -0.282725
18.8000, 0.026662, 0.136566, 9.796720, 0.001640, -0.008467, -0.005255, 0.703530, 1.430540, 134.450226, 3.665822, 8.907181, 12.168530, -18.838263, 0.752126, 1.687041, -1.475177, 0.028469, 0.137615, 9.797775, 0.798646, 0.155918, 29.702195, -95.838175, 0.016000, 20.800000, -0.020210, 0.324435, -0.286165
18.9000, 0.022360, 0.135400, 9.794840, 0.002861, -0.008925, -0.001743, 0.726885, 1.380009, 135.785256, 3.814642, 8.979501, 12.339816, -18.986045, 0.732839, 1.704253, -1.476938, 0.019492, 0.134623, 9.793586, 0.791981, 0.130786, 29.702195, -95.838175, 0.016000, 20.800000, -0.021070, 0.320565, -0.281435
19.0000, 0.024230, 0.134575, 9.786188, -0.001415, -0.010910, -0.002812, 0.725800, 1.318582, 136.743334, 3.897062, 9.049951, 12.512690, -19.134129, 0.713947, 1.720575, -1.479542, 0.025477, 0.134024, 9.780421, 0.787849, 0.141848, 29.702195, -95.838175, 0.016000, 20.800000, -0.021500, 0.322715, -0.288315
19.1000, 0.027491, 0.137476, 9.783805, 0.005458, -0.008619, -0.006477, 0.762251, 1.270595, 137.359610, 4.182387, 9.118574, 12.687150, -19.282507, 0.695469, 1.736597, -1.482367, 0.029665, 0.139410, 9.782216, 0.805027, 0.160978, 29.702195, -95.838175, 0.016000, 20.800000, -0.023220, 0.325295, -0.284015
19.2000, 0.025923, 0.130378, 9.787878, -0.000040, -0.010146, -0.004950, 0.762585, 1.212485, 137.665200, 3.916111, 9.185536, 12.863163, -19.431104, 0.678235, 1.752285, -1.484766, 0.024878, 0.125646, 9.790594, 0.763153, 0.151735, 29.702195, -95.838175, 0.016000, 20.800000, -0.021500, 0.320995, -0.284015
19.3000, 0.032118, 0.132925, 9.789867, 0.004083, -0.009077, -0.005561, 0.785591, 1.163631, 137.701238, 4.189293, 9.250810, 13.040738, -19.579909, 0.661242, 1.767924, -1.486957, 0.036248, 0.134623, 9.791192, 0.777899, 0.187955, 29.702195, -95.838175, 0.016000, 20.800000, -0.022790, 0.321425, -0.278855
19.4000, 0.032083, 0.129276, 9.793535, -0.000651, -0.008008, -0.005866, 0.779610, 1.119766, 137.507592, 4.478930, 9.314503, 13.219838, -19.728876, 0.645033, 1.783314, -1.488768, 0.032059, 0.126843, 9.795980, 0.756264, 0.187679, 29.702195, -95.838175, 0.025000, 0.000000, -0.024080, 0.315835, -0.291325
19.5000, 0.030991, 0.128893, 9.795720, 0.004236, -0.009383, -0.005255, 0.798961, 1.067436, 137.097823, 4.422156, 9.376739, 13.400435, -19.877989, 0.629919, 1.798412, -1.490339, 0.030264, 0.128639, 9.797176, 0.753859, 0.181254, 29.702195, -95.838175, 0.025000, 20.800000, -0.023650, 0.313685, -0.292615
