Time, AccX(m/s^2), AccY(m/s^2), AccZ(m/s^2), GyrX(rad/s), GyrY(rad/s), GyrZ(rad/s), Roll(deg), Pitch(deg), Yaw(deg), Heading, X(m), Y(m), Z(m),         Vx(m/s), Vy(m/s), Vz(m/s), AccXraw(m/s^2), AccYraw(m/s^2), AccZraw(m/s^2), RollAcc(deg/s^2), PitchAcc(deg/s^2), Latitude, Longitude,             GPShspeed(m/s), GPSalt(m), MagX(uT), MagY(ut), MagZ(uT)
0.0000, 0.033238, 0.027276, 5.876511, -0.000346, -0.006176, -0.000521, 0.265699, 0.323868, 88.398836, 358.399677, 0.000027, 0.000996, -0.059006, 0.000183, 0.006643, -0.393371, 0.055397, 0.045460, 9.794184, 0.265931, 0.324065, 29.702199, -95.838164, 0.035000, 21.000000, 0.010320, 0.313685, -0.268965
0.1000, 0.046174, 0.032441, 8.226038, 0.002861, -0.007245, -0.003117, 0.250111, 0.304770, 88.924563, 359.724104, 0.000123, 0.003008, -0.122107, 0.000699, 0.015628, -0.551797, 0.054799, 0.035885, 9.792389, 0.225954, 0.321607, 29.702199, -95.838164, 0.035000, 21.000000, 0.003010, 0.302505, -0.276705
0.2000, 0.052785, 0.038816, 9.166567, 0.001640, -0.008925, -0.001437, 0.246842, 0.296810, 89.041955, 358.869362, 0.000228, 0.006075, -0.186943, 0.000934, 0.025652, -0.616172, 0.057192, 0.043066, 9.793586, 0.242615, 0.329928, 29.702199, -95.838164, 0.035000, 21.000000, 0.007740, 0.308955, -0.277135
0.3000, 0.053993, 0.035621, 9.542060, 0.002098, -0.003885, -0.002506, 0.230502, 0.310067, 89.104822, 359.072439, 0.000388, 0.010224, -0.252584, 0.001376, 0.036210, -0.643002, 0.054799, 0.033491, 9.792389, 0.213885, 0.324200, 29.702199, -95.838164, 0.035000, 21.000000, 0.006450, 0.301645, -0.277135
0.4000, 0.053399, 0.031471, 9.695848, 0.002098, -0.005412, -0.001285, 0.205866, 0.309978, 89.583936, 0.527906, 0.000588, 0.015432, -0.318602, 0.001789, 0.046793, -0.654455, 0.053003, 0.028704, 9.798373, 0.185968, 0.315549, 29.702199, -95.838164, 0.035000, 21.000000, -0.001290, 0.304655, -0.281865
0.5000, 0.053880, 0.037351, 9.751618, 0.003014, -0.008008, -0.001895, 0.209539, 0.303050, 89.872273, 359.960829, 0.000745, 0.021693, -0.384929, 0.001644, 0.057339, -0.660329, 0.054200, 0.041271, 9.788799, 0.219451, 0.316567, 29.702199, -95.838164, 0.035000, 21.000000, 0.001720, 0.308525, -0.272405
0.6000, 0.051918, 0.034317, 9.779671, 0.001487, -0.006939, -0.004797, 0.199276, 0.298018, 89.821301, 359.152599, 0.000909, 0.028969, -0.451422, 0.001646, 0.067617, -0.663396, 0.050610, 0.032295, 9.798373, 0.201048, 0.304164, 29.702199, -95.838164, 0.042000, 0.000000, 0.006020, 0.310675, -0.273265
0.7000, 0.055442, 0.036335, 9.786584, -0.000346, -0.010605, -0.004339, 0.191458, 0.290666, 89.673401, 359.031450, 0.001028, 0.037307, -0.518118, 0.001342, 0.078128, -0.665771, 0.057791, 0.037680, 9.791192, 0.212719, 0.324578, 29.702199, -95.838164, 0.042000, 21.100000, 0.006880, 0.308525, -0.278855
0.8000, 0.053979, 0.036424, 9.793658, 0.001945, -0.005107, -0.001895, 0.195575, 0.303769, 89.494193, 358.837716, 0.001132, 0.046709, -0.584945, 0.001136, 0.088721, -0.667441, 0.053003, 0.036483, 9.798373, 0.213087, 0.315786, 29.702199, -95.838164, 0.042000, 21.100000, 0.007740, 0.306805, -0.276275
0.9000, 0.058779, 0.038973, 9.791819, -0.002331, -0.004343, -0.004339, 0.187481, 0.325107, 89.478920, 359.602142, 0.001157, 0.057297, -0.651968, 0.000547, 0.100160, -0.669301, 0.061980, 0.040672, 9.790594, 0.228041, 0.343933, 29.702199, -95.838164, 0.042000, 21.100000, 0.003870, 0.305085, -0.275415
1.0000, 0.053878, 0.043583, 9.790366, 0.001182, -0.006634, -0.002354, 0.204906, 0.322145, 89.509339, 359.543396, 0.001097, 0.068948, -0.719199, -0.000216, 0.111060, -0.671301, 0.050610, 0.046656, 9.789397, 0.255054, 0.315299, 29.702199, -95.838164, 0.042000, 21.100000, 0.003870, 0.304225, -0.277565
1.1000, 0.052276, 0.038964, 9.795170, 0.000113, -0.006481, -0.004644, 0.205756, 0.317796, 89.675159, 0.352154, 0.001028, 0.081653, -0.786557, -0.000535, 0.121722, -0.672820, 0.051208, 0.035885, 9.798373, 0.227912, 0.305777, 29.702199, -95.838164, 0.042000, 21.100000, -0.000430, 0.304225, -0.276705
1.2000, 0.051994, 0.041066, 9.796015, 0.000418, -0.004954, -0.003117, 0.211258, 0.320398, 89.705802, 359.385097, 0.000908, 0.095428, -0.854054, -0.000975, 0.132402, -0.674254, 0.051807, 0.042467, 9.796578, 0.240187, 0.304103, 29.702199, -95.838164, 0.042000, 21.100000, 0.004730, 0.307665, -0.267675
1.3000, 0.051523, 0.041548, 9.788813, -0.001720, -0.003427, -0.002201, 0.207303, 0.328032, 89.597318, 358.751870, 0.000730, 0.110282, -0.921802, -0.001512, 0.143162, -0.676410, 0.051208, 0.041869, 9.784011, 0.243183, 0.301566, 29.702201, -95.838163, 0.124000, 0.000000, 0.008170, 0.306805, -0.278855
1.4000, 0.050616, 0.036714, 9.787009, 0.000571, -0.004496, 0.000243, 0.207802, 0.327669, 89.571987, 359.455868, 0.000573, 0.126197, -0.989794, -0.001554, 0.153822, -0.678747, 0.050011, 0.033491, 9.785807, 0.214930, 0.296314, 29.702201, -95.838163, 0.124000, 21.100000, 0.004300, 0.305945, -0.271115
1.5000, 0.052048, 0.039448, 9.789160, 0.004083, -0.003580, -0.000826, 0.227422, 0.333079, 89.655561, 0.117440, 0.000418, 0.143213, -1.057987, -0.001548, 0.164717, -0.680870, 0.053003, 0.041271, 9.790594, 0.230884, 0.304633, 29.702201, -95.838163, 0.124000, 21.100000, 0.000860, 0.308955, -0.276275
1.6000, 0.052980, 0.040183, 9.789302, 0.000265, -0.007398, -0.001895, 0.226607, 0.321132, 89.534623, 358.400659, 0.000255, 0.161303, -1.126390, -0.001607, 0.175503, -0.682977, 0.053602, 0.040672, 9.789397, 0.235180, 0.310084, 29.702201, -95.838163, 0.124000, 21.100000, 0.010320, 0.315835, -0.268535
1.7000, 0.051917, 0.035809, 9.794745, 0.001182, -0.004954, -0.000216, 0.224912, 0.321377, 89.394412, 358.556548, 0.000150, 0.180456, -1.194922, -0.001230, 0.186185, -0.684540, 0.051208, 0.032893, 9.798373, 0.209465, 0.303692, 29.702201, -95.838163, 0.124000, 21.100000, 0.009030, 0.301215, -0.271115
1.8000, 0.052210, 0.034418, 9.790459, -0.000498, -0.005870, -0.002659, 0.214137, 0.317603, 89.487089, 0.597706, 0.000074, 0.200671, -1.263675, -0.000917, 0.196831, -0.686532, 0.052405, 0.033491, 9.787602, 0.201419, 0.305538, 29.702201, -95.838163, 0.124000, 21.100000, -0.001720, 0.306375, -0.277565
1.9000, 0.056995, 0.038171, 9.795208, 0.000876, -0.004649, -0.000521, 0.215796, 0.325365, 89.537403, 359.516233, -0.000023, 0.222043, -1.332556, -0.000954, 0.208093, -0.688052, 0.060184, 0.040672, 9.798373, 0.223269, 0.333376, 29.702201, -95.838163, 0.124000, 21.100000, 0.004300, 0.303365, -0.281435
2.0000, 0.062140, 0.037517, 9.796030, 0.000571, -0.002969, 0.002686, 0.215073, 0.345071, 89.503965, 358.807158, -0.000114, 0.244670, -1.401578, -0.000924, 0.220207, -0.689497, 0.065570, 0.037082, 9.796578, 0.219429, 0.363441, 29.702202, -95.838162, 0.043000, 0.000000, 0.008170, 0.302935, -0.274985
2.1000, 0.060967, 0.031511, 9.793127, -0.002178, -0.004038, -0.000979, 0.195416, 0.355241, 89.470922, 359.277702, -0.000161, 0.268515, -1.470789, -0.000623, 0.232373, -0.691236, 0.060184, 0.027507, 9.791192, 0.184356, 0.356685, 29.702202, -95.838162, 0.043000, 21.100000, 0.005590, 0.309815, -0.272405
2.2000, 0.054752, 0.032699, 9.796275, 0.000876, -0.006634, -0.003575, 0.194706, 0.345275, 89.533168, 0.258398, -0.000200, 0.293459, -1.540125, -0.000471, 0.243751, -0.692654, 0.050610, 0.033491, 9.798373, 0.191246, 0.320228, 29.702202, -95.838162, 0.043000, 21.100000, 0.000000, 0.311535, -0.272835
2.3000, 0.058012, 0.033175, 9.797534, -0.000804, -0.006023, -0.004186, 0.186450, 0.342769, 89.491141, 358.879778, -0.000251, 0.319584, -1.609585, -0.000496, 0.255414, -0.693947, 0.060184, 0.033491, 9.798373, 0.194000, 0.339245, 29.702202, -95.838162, 0.043000, 21.100000, 0.007740, 0.308095, -0.276275
2.4000, 0.046749, 0.040905, 9.778290, 0.000876, -0.003427, -0.002201, 0.194709, 0.343101, 89.453868, 359.156054, -0.000401, 0.346706, -1.679461, -0.001163, 0.265951, -0.697155, 0.039240, 0.046058, 9.765461, 0.239676, 0.273919, 29.702202, -95.838162, 0.043000, 21.100000, 0.005590, 0.302935, -0.275845
2.5000, 0.056605, 0.030712, 9.791058, 0.002709, -0.009688, 0.001312, 0.201875, 0.321162, 89.497297, 359.855851, -0.000446, 0.374973, -1.749467, -0.000687, 0.277096, -0.699092, 0.063176, 0.023917, 9.799570, 0.179718, 0.331240, 29.702202, -95.838162, 0.043000, 21.100000, 0.002580, 0.310245, -0.278855
2.6000, 0.571829, -0.044097, 9.727947, 0.004847, -0.016713, -0.014418, 0.154556, 0.708931, 89.866411, 4.298712, 0.000565, 0.413062, -1.820726, 0.006508, 0.346294, -0.708095, 0.915312, -0.093970, 9.685872, -0.259275, 3.364063, 29.702202, -95.838162, 0.043000, 21.100000, 0.003440, 0.307235, -0.279715
2.7000, 0.449751, -0.011547, 9.741120, -0.001873, -0.007092, -0.001590, 0.106106, 0.999004, 90.201638, 1.761547, 0.001627, 0.456985, -1.892709, 0.009249, 0.408256, -0.715919, 0.368366, 0.010153, 9.749902, -0.067845, 2.643488, 29.702202, -95.838162, 0.043000, 21.100000, 0.000860, 0.307235, -0.273265
2.8000, 0.396252, -0.012530, 9.795219, -0.002178, -0.005260, 0.003297, 0.061318, 1.220370, 90.445872, 1.079255, 0.002826, 0.506885, -1.964683, 0.011079, 0.468750, -0.718465, 0.360586, -0.013185, 9.831286, -0.073230, 2.316557, 29.702202, -95.838162, 0.007000, 21.100000, 0.004300, 0.308955, -0.275845
2.9000, 0.194971, -0.054572, 9.875025, -0.007218, -0.006023, 0.009558, -0.035678, 1.253986, 90.532766, 359.437667, 0.004603, 0.559932, -2.035653, 0.015539, 0.509896, -0.712622, 0.060783, -0.082600, 9.928228, -0.316566, 1.131072, 29.702202, -95.838162, 0.007000, 21.100000, 0.004730, 0.307665, -0.283155
3.0000, 0.324500, 0.006165, 9.792770, 0.003625, 0.004667, -0.008462, -0.021004, 1.436338, 90.593156, 1.229950, 0.005922, 0.619468, -2.107342, 0.013974, 0.566870, -0.715467, 0.410853, 0.046656, 9.737934, 0.036051, 1.897896, 29.702202, -95.838162, 0.007000, 21.100000, 0.005160, 0.310245, -0.281005
3.1000, -0.061366, 0.063851, 9.796491, -0.003858, -0.008619, 0.000853, -0.002119, 1.241800, 90.555332, 359.077793, 0.006334, 0.678410, -2.179106, 0.007406, 0.581902, -0.716915, -0.318609, 0.102308, 9.798972, 0.373427, -0.358891, 29.702202, -95.838162, 0.007000, 21.100000, -0.003870, 0.308525, -0.273265
3.2000, 0.207244, 0.032710, 9.795466, 0.000571, 0.000391, 0.008947, 0.015353, 1.307050, 90.755536, 2.343825, 0.006539, 0.743053, -2.251125, 0.003830, 0.624922, -0.719095, 0.386318, 0.011949, 9.794783, 0.191282, 1.212030, 29.702202, -95.838162, 0.007000, 21.100000, -0.002150, 0.311965, -0.269825
3.3000, 0.065151, 0.032461, 9.796133, -0.000651, 0.000849, -0.000826, 0.025130, 1.263829, 90.836442, 0.646821, 0.006438, 0.809756, -2.323299, 0.000604, 0.652998, -0.720862, -0.029577, 0.032295, 9.796578, 0.189851, 0.381051, 29.702202, -95.838162, 0.007000, 21.100000, -0.004300, 0.304225, -0.283155
3.4000, 0.008673, 0.016922, 9.779884, -0.002331, -0.005260, 0.002075, 0.015017, 1.151221, 90.773900, 358.877381, 0.006241, 0.878130, -2.395869, -0.001109, 0.673493, -0.724088, -0.028979, 0.006563, 9.769051, 0.099138, 0.050813, 29.702202, -95.838162, 0.007000, 21.100000, 0.005160, 0.305085, -0.277135
3.5000, -0.042283, 0.128833, 9.839808, -0.003094, -0.007245, 0.004519, 0.080099, 1.001733, 90.765333, 0.244139, 0.004378, 0.947403, -2.467840, -0.012789, 0.686313, -0.721167, -0.076253, 0.203440, 9.879757, 0.750124, -0.246182, 29.702202, -95.838162, 0.040000, 0.000000, -0.003440, 0.307665, -0.272835
3.6000, 0.166406, 0.145950, 9.828591, 0.001182, -0.005412, -0.046336, 0.173994, 1.015940, 90.660343, 2.381350, 0.001299, 1.021123, -2.539739, -0.024791, 0.720242, -0.719718, 0.305532, 0.157362, 9.821113, 0.850633, 0.969867, 29.702202, -95.838162, 0.040000, 21.100000, -0.004300, 0.305515, -0.276275
3.7000, 0.322409, -0.016313, 9.811896, 0.003778, -0.000373, 0.026968, 0.163940, 1.159284, 91.011161, 2.399696, -0.000652, 1.100971, -2.611812, -0.021272, 0.772398, -0.720390, 0.426411, -0.124489, 9.800767, -0.095208, 1.882004, 29.702202, -95.838162, 0.040000, 21.100000, -0.000860, 0.303795, -0.269825
3.8000, 0.205287, -0.070447, 9.809886, 0.000876, -0.001747, 0.009253, 0.103011, 1.204652, 91.145128, 0.667607, -0.001582, 1.184408, -2.683952, -0.013288, 0.813714, -0.721064, 0.127206, -0.106537, 9.808546, -0.411358, 1.198800, 29.702202, -95.838162, 0.040000, 21.100000, 0.000000, 0.312395, -0.277995
3.9000, 0.111763, -0.004853, 9.795439, -0.002942, -0.015033, -0.001285, 0.070347, 1.115824, 91.172378, 0.650813, -0.002750, 1.270321, -2.756338, -0.012219, 0.843991, -0.722925, 0.049413, 0.038877, 9.785807, -0.028383, 0.653698, 29.702202, -95.838162, 0.040000, 21.100000, -0.002150, 0.313255, -0.281435
4.0000, 0.068249, 0.014922, 9.797199, 0.000723, -0.010146, -0.004950, 0.072430, 1.031152, 91.110379, 359.887301, -0.004081, 1.358387, -2.828864, -0.012947, 0.868437, -0.724485, 0.039240, 0.028106, 9.798373, 0.087266, 0.399126, 29.702202, -95.838162, 0.040000, 21.100000, 0.001720, 0.308525, -0.277565
4.1000, 0.042945, 0.020319, 9.797904, 0.004694, -0.005107, -0.002354, 0.098078, 0.962092, 91.012437, 359.501153, -0.005484, 1.448341, -2.901525, -0.013668, 0.889173, -0.725903, 0.026075, 0.023917, 9.798373, 0.118819, 0.251128, 29.702202, -95.838162, 0.040000, 21.100000, 0.003440, 0.310245, -0.275415
4.2000, 0.068009, 0.042225, 9.795313, 0.003167, -0.003732, -0.000979, 0.127283, 0.920218, 90.931391, 359.890975, -0.007213, 1.540633, -2.974370, -0.016080, 0.911668, -0.727600, 0.084719, 0.056829, 9.793586, 0.246981, 0.397797, 29.702202, -95.838161, 0.011000, 0.000000, 0.003010, 0.318415, -0.277565
4.3000, 0.064391, 0.033035, 9.797149, 0.001792, -0.007092, -0.002048, 0.141031, 0.860839, 90.847555, 359.846802, -0.009002, 1.634971, -3.047353, -0.017285, 0.932810, -0.729088, 0.061980, 0.026909, 9.798373, 0.193193, 0.376567, 29.702202, -95.838161, 0.011000, 21.200000, 0.002580, 0.308525, -0.277135
4.4000, 0.187533, -0.130057, 9.768801, 0.002098, -0.004343, 0.119819, 0.051756, 0.897683, 91.543633, 2.242706, -0.008785, 1.733415, -3.120944, -0.004320, 0.967227, -0.733633, 0.269628, -0.238785, 9.749902, -0.762622, 1.099684, 29.702202, -95.838161, 0.011000, 21.200000, -0.003870, 0.301215, -0.277135
4.5000, 0.113637, -0.029415, 9.786544, -0.004469, -0.006787, -0.005102, -0.002188, 0.872405, 91.470073, 0.427668, -0.008883, 1.834087, -3.194702, -0.002090, 0.993556, -0.736265, 0.064373, 0.037680, 9.798373, -0.172197, 0.665262, 29.702202, -95.838161, 0.011000, 21.200000, -0.000430, 0.304225, -0.281435
4.6000, 0.091978, -0.008187, 9.804772, 0.000265, -0.002205, -0.002506, -0.013719, 0.858539, 91.344585, 359.683709, -0.009089, 1.937027, -3.268444, -0.002067, 1.017452, -0.737036, 0.077538, 0.005964, 9.816924, -0.047841, 0.537472, 29.702202, -95.838161, 0.011000, 21.200000, 0.003870, 0.306805, -0.275415
4.7000, 0.094445, -0.009749, 9.858739, -0.000804, -0.009230, -0.003423, -0.030612, 0.809723, 91.210331, 359.937654, -0.009302, 2.042279, -3.341451, -0.002113, 1.040832, -0.732393, 0.096089, -0.010791, 9.894717, -0.056658, 0.548864, 29.702202, -95.838161, 0.011000, 21.200000, 0.003010, 0.308525, -0.275415
4.8000, 0.074966, 0.031993, 9.798105, -0.003553, -0.007856, -0.016403, -0.034093, 0.760034, 90.931260, 358.651737, -0.010131, 2.149426, -3.414897, -0.006228, 1.061260, -0.733771, 0.061980, 0.059821, 9.757681, 0.187078, 0.438361, 29.702202, -95.838161, 0.011000, 21.200000, 0.009030, 0.305515, -0.283155
4.9000, 0.066456, 0.017812, 9.798984, 0.000265, -0.008008, -0.006630, -0.025228, 0.707842, 90.814195, 0.650637, -0.011125, 2.258360, -3.488463, -0.008706, 1.079977, -0.735030, 0.060783, 0.008358, 9.799570, 0.104147, 0.388569, 29.702202, -95.838161, 0.011000, 21.200000, -0.001720, 0.301645, -0.275415
5.0000, 0.056948, -0.047821, 9.844216, 0.014010, 0.014288, -0.014113, 0.013567, 0.767713, 90.665138, 0.027204, -0.011277, 2.369199, -3.561478, -0.003911, 1.098919, -0.731774, 0.050610, -0.091576, 9.874371, -0.278323, 0.331445, 29.702202, -95.838161, 0.046000, 21.200000, 0.001290, 0.300355, -0.279285
5.1000, 0.174144, 0.284254, 9.791936, 0.005458, -0.003580, -0.225472, 0.206764, 0.799494, 89.461285, 0.346360, -0.015357, 2.483787, -3.634963, -0.028509, 1.130228, -0.733823, 0.252274, 0.505637, 9.757083, 1.662530, 1.018434, 29.702202, -95.838161, 0.046000, 21.200000, 0.005160, 0.310675, -0.275845
5.2000, 0.074531, 0.087479, 9.791849, -0.001415, -0.008925, -0.076421, 0.231750, 0.740670, 89.158065, 0.285852, -0.018882, 2.599837, -3.708640, -0.033000, 1.150407, -0.735789, 0.008123, -0.043704, 9.791791, 0.511846, 0.436083, 29.702202, -95.838161, 0.046000, 21.200000, -0.001290, 0.305515, -0.274985
5.3000, -0.253628, -0.538776, 9.743702, 0.030045, 0.000238, -0.368567, 0.032411, 0.531918, 87.373800, 0.053646, -0.014138, 2.712058, -3.783189, 0.020624, 1.131614, -0.742256, -0.472401, -0.956279, 9.711604, -3.163863, -1.488795, 29.702202, -95.838161, 0.046000, 21.200000, -0.013760, 0.307235, -0.278855
5.4000, -0.041284, -0.045334, 9.747781, 0.001487, -0.005870, 0.243520, -0.007502, 0.432706, 89.013924, 1.287341, -0.011407, 2.825693, -3.858347, 0.025084, 1.134771, -0.748474, 0.100278, 0.283627, 9.750500, -0.266462, -0.242659, 29.702202, -95.838161, 0.046000, 21.200000, -0.004300, 0.309815, -0.276275
5.5000, -0.012358, -0.223879, 9.807578, 0.002556, -0.006176, 0.089123, -0.147849, 0.356332, 89.716819, 1.117889, -0.005916, 2.939885, -3.933224, 0.044965, 1.139537, -0.748672, 0.006926, -0.342909, 9.847443, -1.307670, -0.072178, 29.702202, -95.838161, 0.046000, 21.200000, -0.005590, 0.306375, -0.278425
5.6000, -0.153382, -0.342332, 9.806723, 0.000418, -0.005107, -0.037784, -0.363054, 0.205196, 89.640350, 0.071005, 0.002772, 3.052039, -4.008104, 0.072909, 1.127536, -0.748754, -0.247398, -0.421300, 9.806153, -1.999017, -0.895518, 29.702202, -95.838161, 0.046000, 21.200000, -0.007310, 0.308955, -0.275415
5.7000, 0.030769, -0.124019, 9.779452, -0.000040, -0.011826, 0.097523, -0.434795, 0.141215, 90.291445, 0.713342, 0.010805, 3.165619, -4.083429, 0.077861, 1.133048, -0.751754, 0.153536, 0.021523, 9.761272, -0.726558, 0.180253, 29.702203, -95.838161, 0.072000, 21.000000, 0.000430, 0.308955, -0.272405
5.8000, 0.062421, -0.069726, 9.756696, 0.000876, -0.006329, -0.002354, -0.462992, 0.131724, 90.323046, 359.958116, 0.018448, 3.280196, -4.159403, 0.076902, 1.141528, -0.757077, 0.083522, -0.033531, 9.741524, -0.409447, 0.366550, 29.702203, -95.838161, 0.072000, 21.000000, 0.002580, 0.305085, -0.274985
5.9000, 0.247783, 0.099918, 9.812221, 0.000265, -0.006176, -0.103757, -0.387823, 0.237667, 89.892951, 1.222677, 0.023651, 3.398681, -4.235107, 0.060322, 1.170407, -0.757056, 0.371358, 0.213014, 9.849238, 0.583239, 1.446478, 29.702203, -95.838161, 0.072000, 21.000000, 0.003440, 0.312395, -0.271545
6.0000, 0.190876, 0.059703, 9.853102, 0.020577, 0.011387, -0.125443, -0.235282, 0.394553, 89.393672, 0.701313, 0.028222, 3.519618, -4.310194, 0.050580, 1.196384, -0.752933, 0.152938, 0.032893, 9.880355, 0.347104, 1.109784, 29.702203, -95.838161, 0.072000, 21.000000, 0.000430, 0.311105, -0.274555
6.1000, -0.228274, 0.189390, 9.794413, -0.005538, -0.008008, 0.129135, -0.150341, 0.185463, 90.030724, 357.008032, 0.030055, 3.636306, -4.385719, 0.029082, 1.176715, -0.754476, -0.507707, 0.275847, 9.755288, 1.107461, -1.334874, 29.702203, -95.838161, 0.072000, 21.000000, 0.002150, 0.305945, -0.274125
6.2000, -0.573302, 0.017938, 9.797148, -0.000804, -0.005107, 0.179226, -0.147022, -0.204916, 90.757040, 357.048993, 0.032438, 3.744845, -4.461393, 0.025578, 1.115830, -0.755981, -0.803321, -0.096364, 9.798972, 0.104724, -3.348967, 29.702203, -95.838161, 0.072000, 21.000000, -0.006450, 0.307665, -0.271115
6.3000, -0.290512, 0.012908, 9.806859, 0.001182, -0.009077, 0.085000, -0.135478, -0.421245, 91.009934, 359.261855, 0.034550, 3.850980, -4.537075, 0.022609, 1.079511, -0.756540, -0.101985, 0.009555, 9.813334, 0.075381, -1.696794, 29.702203, -95.838160, 0.057000, 0.000000, 0.001290, 0.313685, -0.265095
6.4000, -0.405031, 0.205499, 9.801050, 0.009123, 0.006805, 0.028495, 0.033692, -0.610302, 90.863211, 357.439595, 0.033930, 3.951246, -4.612934, 0.003405, 1.028276, -0.757911, -0.481377, 0.333893, 9.797176, 1.200124, -2.365896, 29.702203, -95.838160, 0.057000, 21.000000, 0.000860, 0.309815, -0.273265
6.5000, -0.504695, 1.670966, 9.775029, 0.006527, -0.003732, -0.167287, 1.060345, -0.900667, 89.889584, 359.977163, 0.011905, 4.044235, -4.688948, -0.145701, 0.962688, -0.759397, -0.571138, 2.647945, 9.757681, 9.687854, -2.913432, 29.702203, -95.838160, 0.057000, 21.000000, -0.015480, 0.316265, -0.276705
6.6000, -0.074570, 0.694585, 9.782214, 0.000876, -0.002205, 0.111420, 1.415847, -0.907064, 90.620670, 3.004762, -0.009417, 4.136986, -4.765128, -0.190716, 0.939235, -0.760999, 0.212180, 0.043664, 9.787003, 4.061347, -0.435660, 29.702203, -95.838160, 0.057000, 21.000000, -0.010320, 0.312395, -0.283585
6.7000, 0.091018, 0.479247, 9.807707, 0.000265, -0.002205, -0.015945, 1.615019, -0.809697, 90.629571, 1.468534, -0.031520, 4.230160, -4.841114, -0.210927, 0.934240, -0.760237, 0.201409, 0.335688, 9.824703, 2.797375, 0.531068, 29.702203, -95.838160, 0.057000, 21.000000, -0.002580, 0.309815, -0.273265
6.8000, -0.105569, 0.485028, 9.797080, -0.000040, -0.002969, 0.146545, 1.802470, -0.837958, 91.243663, 357.582522, -0.055181, 4.319793, -4.917214, -0.228045, 0.908964, -0.760747, -0.236627, 0.488881, 9.789996, 2.834085, -0.616616, 29.702203, -95.838160, 0.057000, 21.000000, 0.006880, 0.307235, -0.275845
6.9000, 0.035532, 0.007295, 9.822989, -0.002942, -0.008619, -0.017014, 1.671448, -0.805457, 90.989572, 359.951652, -0.073771, 4.409224, -4.993160, -0.199950, 0.899198, -0.759892, 0.129600, -0.311193, 9.840262, 0.042552, 0.207253, 29.702203, -95.838160, 0.057000, 21.000000, 0.003870, 0.311965, -0.274555
7.0000, 0.100949, 0.043838, 9.985588, 0.004083, -0.006787, -0.001743, 1.602546, -0.722527, 90.950694, 1.502790, -0.090229, 4.498829, -5.066549, -0.176368, 0.897094, -0.742553, 0.144560, 0.068199, 10.093988, 0.251519, 0.579205, 29.702203, -95.838160, 0.057000, 21.000000, -0.004300, 0.309815, -0.270685
7.1000, 0.079363, 0.039425, 9.869669, 0.002251, -0.004801, -0.002964, 1.521353, -0.642922, 90.868378, 0.107831, -0.104519, 4.588118, -5.139942, -0.154061, 0.894296, -0.736803, 0.064972, 0.036483, 9.792389, 0.228863, 0.460705, 29.702204, -95.838159, 0.195000, 0.000000, 0.001290, 0.313255, -0.283585
7.2000, 0.918436, -0.335389, 9.978768, 0.005763, 0.007874, 0.231302, 1.236387, -0.002153, 92.408614, 6.728537, -0.112252, 4.691654, -5.211233, -0.102905, 0.988335, -0.720878, 1.477818, -0.585265, 10.051501, -1.916904, 5.255678, 29.702204, -95.838159, 0.195000, 20.900000, 0.005590, 0.304655, -0.272405
7.3000, 0.428618, -0.096108, 9.855092, -0.003247, -0.009383, -0.281977, 1.057954, 0.226102, 91.015676, 2.058567, -0.118497, 4.797572, -5.282723, -0.075932, 1.035569, -0.716891, 0.102073, 0.063412, 9.772642, -0.558212, 2.490223, 29.702204, -95.838159, 0.195000, 20.900000, -0.008600, 0.317125, -0.274125
7.4000, -0.320599, -0.124626, 9.767563, -0.007676, -0.017019, 0.000853, 0.848215, -0.049608, 90.991241, 359.134557, -0.121967, 4.896264, -5.355097, -0.048446, 1.003135, -0.721455, -0.820077, -0.143638, 9.709210, -0.730615, -1.879780, 29.702204, -95.838159, 0.195000, 20.900000, -0.018060, 0.311105, -0.268965
7.5000, -0.445430, 0.193930, 9.846728, 0.002861, -0.005565, 0.118750, 0.898357, -0.322009, 91.685967, 2.315751, -0.127183, 4.989052, -5.426704, -0.050924, 0.952963, -0.717865, -0.528651, 0.406301, 9.899505, 1.127135, -2.589586, 29.702204, -95.838159, 0.195000, 20.900000, -0.027520, 0.308525, -0.273265
7.6000, -0.229669, 0.034475, 9.810534, 0.003320, -0.004496, -0.091998, 0.850774, -0.443836, 91.317143, 3.214206, -0.130503, 5.079803, -5.498522, -0.039104, 0.922661, -0.718076, -0.085828, -0.071829, 9.786405, 0.201284, -1.341065, 29.702204, -95.838159, 0.195000, 20.900000, -0.019780, 0.311105, -0.276275
7.7000, -0.241025, -0.084241, 9.774873, -0.004469, -0.002969, 0.487713, 0.692271, -0.557682, 93.893147, 1.355710, -0.131043, 5.167245, -5.570924, -0.016635, 0.890499, -0.722042, -0.248595, -0.163386, 9.751099, -0.493622, -1.412436, 29.702204, -95.838159, 0.195000, 20.900000, -0.014190, 0.310245, -0.272835
7.8000, 0.029821, -0.194920, 9.693108, -0.004011, -0.000831, -0.312215, 0.477456, -0.488572, 92.169189, 3.228724, -0.128544, 5.255659, -5.644913, 0.011114, 0.886264, -0.733938, 0.210385, -0.268706, 9.638598, -1.152008, 0.176237, 29.702204, -95.838158, 0.067000, 0.000000, -0.011180, 0.311535, -0.273265
7.9000, 0.292549, 0.001728, 9.665069, -0.002636, -0.011826, 0.197705, 0.403466, -0.317546, 93.463002, 6.141992, -0.126656, 5.347924, -5.720462, 0.016291, 0.910520, -0.748306, 0.467702, 0.132827, 9.646377, 0.010242, 1.733742, 29.702204, -95.838158, 0.067000, 20.800000, -0.020210, 0.308525, -0.277135
8.0000, -0.040036, -0.111702, 9.757977, -0.000804, 0.004362, 0.029870, 0.275153, -0.273995, 93.433716, 359.316668, -0.122575, 5.437820, -5.796087, 0.032638, 0.902815, -0.753604, -0.261760, -0.187322, 9.819916, -0.655844, -0.235064, 29.702204, -95.838158, 0.067000, 20.800000, -0.003870, 0.302935, -0.278425
8.1000, 0.181667, -0.041461, 9.769289, 0.009123, 0.002071, 0.041323, 0.248710, -0.111449, 93.557017, 3.147920, -0.118207, 5.530615, -5.872057, 0.039999, 0.919571, -0.757668, 0.329469, 0.005366, 9.776831, -0.243121, 1.065323, 29.702204, -95.838158, 0.067000, 20.800000, -0.007740, 0.311535, -0.279285
8.2000, 0.278247, 0.341373, 9.811514, 0.008817, 0.001613, 0.083626, 0.452774, 0.096516, 94.045699, 5.248442, -0.118466, 5.626704, -5.947773, 0.011603, 0.947114, -0.757326, 0.342634, 0.596595, 9.839664, 1.991892, 1.623447, 29.702204, -95.838158, 0.067000, 20.800000, -0.019780, 0.304655, -0.279715
8.3000, 0.236453, 0.207987, 9.918883, 0.000265, -0.007856, 0.333622, 0.518331, 0.216131, 95.647039, 2.185321, -0.119476, 5.725329, -6.021864, -0.002860, 0.973204, -0.746386, 0.208590, 0.119064, 9.990463, 1.200909, 1.365296, 29.702204, -95.838158, 0.067000, 20.800000, -0.006020, 0.304655, -0.274555
8.4000, -0.067143, 0.249062, 9.833293, -0.016534, -0.019309, -0.045572, 0.520662, 0.088640, 94.959361, 0.333751, -0.122081, 5.821666, -6.096124, -0.018321, 0.966651, -0.743862, -0.269540, 0.276446, 9.776232, 1.450872, -0.391089, 29.702204, -95.838158, 0.067000, 20.800000, -0.009460, 0.302935, -0.277565
8.5000, -0.161652, 0.222407, 9.772128, 0.000723, -0.000678, 0.060566, 0.601349, 0.009550, 94.776475, 359.909649, -0.125504, 5.915790, -6.171051, -0.028930, 0.949706, -0.747467, -0.224659, 0.204637, 9.731351, 1.303609, -0.947466, 29.702204, -95.838158, 0.067000, 20.800000, -0.006020, 0.302075, -0.281865
8.6000, 0.144869, 0.162196, 9.715348, -0.002636, 0.017342, 0.027732, 0.624334, 0.212855, 94.376333, 359.904122, -0.129447, 6.013402, -6.247209, -0.035927, 0.967320, -0.756874, 0.349216, 0.122056, 9.677494, 0.956350, 0.854175, 29.702204, -95.838157, 0.066000, 20.800000, 0.010750, 0.305515, -0.283585
8.7000, 0.478596, 0.012087, 9.894420, 0.056007, 0.088203, -0.448743, 0.855879, 0.961395, 91.758065, 3.492197, -0.131301, 6.119860, -6.321785, -0.024339, 1.032159, -0.749467, 0.701081, -0.087986, 10.013801, 0.069911, 2.769256, 29.702204, -95.838157, 0.066000, 20.800000, 0.001290, 0.305945, -0.283585
8.8000, 0.221086, -0.010257, 9.911473, -0.001109, -0.009688, -0.388879, 0.752233, 0.984976, 89.749706, 2.618810, -0.131604, 6.228938, -6.395304, -0.010130, 1.071239, -0.739945, 0.049413, -0.025153, 9.922843, -0.059278, 1.277833, 29.702204, -95.838157, 0.066000, 20.800000, -0.012470, 0.303795, -0.279715
8.9000, -0.563387, 0.142376, 9.894957, 0.001640, 0.004056, 0.680594, 0.760469, 0.607330, 93.001042, 355.128321, -0.132422, 6.329186, -6.467927, -0.008832, 1.025398, -0.730805, -1.086369, 0.244132, 9.883946, 0.823026, -3.258382, 29.702204, -95.838157, 0.066000, 20.800000, -0.004300, 0.306375, -0.283585
9.0000, 0.026183, 0.007390, 9.704160, -0.019130, 0.007416, 0.012002, 0.580636, 0.618566, 92.616808, 0.798513, -0.132032, 6.433750, -6.542615, -0.000344, 1.038894, -0.741517, 0.419230, -0.082600, 9.576962, 0.043634, 0.154593, 29.702204, -95.838157, 0.066000, 20.800000, 0.008170, 0.301215, -0.281865
9.1000, 0.046943, 0.062905, 9.701445, 0.004541, -0.009841, -0.006019, 0.572010, 0.550125, 92.172379, 359.768220, -0.131637, 6.539758, -6.618406, 0.002517, 1.053021, -0.752447, 0.060783, 0.099915, 9.699636, 0.371502, 0.277233, 29.702204, -95.838157, 0.066000, 20.800000, 0.003010, 0.301215, -0.284015
9.2000, 0.017188, 0.050283, 9.758884, 0.004236, -0.002358, -0.002506, 0.553652, 0.507358, 91.738912, 359.068219, -0.130773, 6.646634, -6.694425, 0.006602, 1.063510, -0.757610, -0.002649, 0.041869, 9.797176, 0.295218, 0.100912, 29.702204, -95.838157, 0.066000, 20.800000, 0.004730, 0.294335, -0.284015
9.3000, 0.011031, 0.043081, 9.782578, 0.003014, -0.005565, -0.001895, 0.525006, 0.446486, 91.348677, 359.466820, -0.129445, 6.754310, -6.770603, 0.011052, 1.072344, -0.760392, 0.006926, 0.038279, 9.798373, 0.252318, 0.064605, 29.702204, -95.838156, 0.078000, 0.000000, 0.003010, 0.300355, -0.289175
9.4000, 0.007491, 0.042354, 9.791337, -0.000651, -0.006176, -0.003575, 0.478500, 0.384472, 90.915813, 358.392754, -0.127766, 6.862651, -6.846926, 0.014876, 1.079725, -0.762284, 0.005131, 0.041869, 9.797176, 0.247839, 0.043833, 29.702204, -95.838156, 0.078000, 20.800000, 0.008600, 0.299925, -0.286595
9.5000, 0.000689, 0.044935, 9.790173, 0.003014, -0.005718, -0.001895, 0.455905, 0.325182, 90.492595, 358.291482, -0.125792, 6.971472, -6.923454, 0.018124, 1.085378, -0.764278, -0.003846, 0.046656, 9.789397, 0.262976, 0.004032, 29.702204, -95.838156, 0.078000, 20.800000, 0.009030, 0.305085, -0.279285
9.6000, 0.019870, 0.050276, 9.795452, -0.001873, -0.002053, -0.037020, 0.412694, 0.300691, 90.010950, 359.937918, -0.123675, 7.081079, -7.000102, 0.020151, 1.092506, -0.765746, 0.032657, 0.053837, 9.798972, 0.294075, 0.116223, 29.702204, -95.838156, 0.078000, 20.800000, 0.001290, 0.298205, -0.289605
9.7000, -0.024878, -0.130341, 9.806899, 0.000113, -0.013506, -0.918193, 0.273912, 0.191730, 85.097686, 0.109435, -0.119001, 7.190221, -7.076733, 0.037876, 1.091783, -0.766127, -0.054710, -0.250753, 9.814530, -0.761459, -0.145335, 29.702204, -95.838156, 0.078000, 20.800000, -0.002150, 0.308095, -0.282725
9.8000, -0.362687, 0.064183, 9.723153, -0.000956, -0.005718, -1.208965, 0.256451, -0.074515, 79.775307, 8.335539, -0.116518, 7.293914, -7.154653, 0.029180, 1.055212, -0.774840, -0.587894, 0.193865, 9.667321, 0.377941, -2.136178, 29.702204, -95.838156, 0.078000, 20.800000, -0.063640, 0.312825, -0.277995
9.9000, -0.013099, -0.211309, 9.771157, -0.001415, -0.016102, -0.814652, 0.071299, -0.164367, 77.769923, 15.539049, -0.110455, 7.398122, -7.232725, 0.050149, 1.046459, -0.778759, 0.219960, -0.394970, 9.803161, -1.238873, -0.076792, 29.702204, -95.838156, 0.078000, 20.800000, -0.077400, 0.311965, -0.277135
10.0000, -0.034475, -0.135520, 9.788923, 0.004083, -0.010146, -0.160415, -0.027575, -0.226785, 79.738113, 15.653965, -0.103705, 7.501337, -7.310919, 0.061716, 1.036923, -0.780882, -0.048726, -0.084994, 9.800767, -0.793159, -0.201769, 29.702204, -95.838156, 0.023000, 0.000000, -0.089440, 0.316695, -0.274985
10.1000, -0.060978, 0.468910, 9.842705, -0.029056, -0.005107, -0.906587, 0.074770, -0.272565, 77.970841, 16.522997, -0.104561, 7.604874, -7.388514, 0.014864, 1.035885, -0.777591, -0.078647, 0.871864, 9.878560, 2.727478, -0.354556, 29.702204, -95.838156, 0.023000, 20.700000, -0.101910, 0.313685, -0.270255
10.2000, -0.011978, 0.122206, 9.791332, -0.000498, -0.009230, -0.240744, 0.119296, -0.305700, 80.327284, 21.499249, -0.104742, 7.707769, -7.466553, 0.003748, 1.031265, -0.779455, 0.020689, -0.108930, 9.757083, 0.715073, -0.070084, 29.702204, -95.838156, 0.023000, 20.700000, -0.120400, 0.310245, -0.275845
10.3000, 0.015162, 0.132887, 9.746367, -0.002331, -0.003885, -0.003575, 0.160033, -0.290086, 84.135161, 24.074241, -0.105996, 7.810548, -7.545448, -0.007113, 1.028944, -0.785790, 0.033256, 0.140008, 9.716391, 0.781153, 0.089127, 29.702204, -95.838156, 0.023000, 20.700000, -0.138460, 0.308095, -0.273695
10.4000, 0.016324, 0.110950, 9.773262, 0.001487, -0.004496, -0.000368, 0.206102, -0.276393, 87.805356, 23.410930, -0.107861, 7.913024, -7.624574, -0.014804, 1.026154, -0.789434, 0.017099, 0.096324, 9.791192, 0.650413, 0.095695, 29.702204, -95.838156, 0.023000, 20.700000, -0.136310, 0.313255, -0.274125
10.5000, 0.012840, 0.103252, 9.787611, -0.000804, -0.007550, 0.000701, 0.233373, -0.279824, 91.255378, 23.099376, -0.110281, 8.015094, -7.703849, -0.021065, 1.022520, -0.791644, 0.010516, 0.098120, 9.797176, 0.604403, 0.075157, 29.702204, -95.838156, 0.023000, 20.700000, -0.131150, 0.305515, -0.265095
10.6000, 0.009650, 0.096223, 9.794068, -0.002636, -0.006481, -0.003270, 0.246202, -0.277335, 94.491036, 23.664442, -0.113153, 8.116718, -7.783248, -0.026166, 1.018332, -0.793212, 0.007524, 0.091537, 9.798373, 0.562890, 0.056452, 29.702204, -95.838156, 0.023000, 20.700000, -0.136310, 0.308955, -0.277565
10.7000, 0.021300, 0.098438, 9.790907, 0.003320, -0.006634, 0.001312, 0.291444, -0.266915, 97.465789, 22.513412, -0.116445, 8.218094, -7.862850, -0.030672, 1.015289, -0.795084, 0.029067, 0.099915, 9.788799, 0.576033, 0.124642, 29.702204, -95.838155, 0.069000, 0.000000, -0.130720, 0.314545, -0.279715
10.8000, 0.024883, 0.103274, 9.801131, 0.002861, -0.003732, -0.003575, 0.334126, -0.238292, 100.183207, 22.692779, -0.120151, 8.319267, -7.942485, -0.034931, 1.012910, -0.795926, 0.027272, 0.106497, 9.807948, 0.603696, 0.145455, 29.702204, -95.838155, 0.069000, 20.700000, -0.132010, 0.314545, -0.277565
10.9000, 0.011595, 0.077920, 9.816711, -0.004622, 0.001002, -0.010600, 0.320026, -0.194226, 102.641031, 22.553457, -0.123911, 8.420165, -8.021973, -0.036709, 1.010289, -0.795228, 0.002737, 0.061018, 9.827097, 0.454777, 0.067676, 29.702204, -95.838155, 0.069000, 20.700000, -0.130720, 0.313255, -0.271975
11.0000, 0.029618, -0.002953, 9.801400, 0.002403, -0.007856, -0.063593, 0.295229, -0.187781, 104.728977, 24.248280, -0.126797, 8.521361, -8.101626, -0.031475, 1.011406, -0.796098, 0.041634, -0.056869, 9.791192, -0.017262, 0.173139, 29.702204, -95.838155, 0.069000, 20.700000, -0.140180, 0.315405, -0.274985
11.1000, 0.088530, 0.109034, 9.769065, -0.009356, 0.000391, -0.270218, 0.279015, -0.101690, 105.938862, 29.125373, -0.131124, 8.623275, -8.181842, -0.039340, 1.016564, -0.800136, 0.127805, 0.183692, 9.747508, 0.639435, 0.519185, 29.702204, -95.838155, 0.069000, 20.700000, -0.171140, 0.308525, -0.276705
11.2000, 0.044953, 0.059041, 9.714482, 0.006679, -0.006787, -0.009684, 0.318640, -0.084236, 108.590311, 29.653762, -0.135276, 8.725344, -8.263285, -0.040793, 1.019311, -0.809664, 0.015902, 0.025712, 9.678093, 0.348214, 0.265127, 29.702204, -95.838155, 0.069000, 20.700000, -0.172430, 0.302935, -0.278855
11.3000, 0.006339, 0.093978, 9.698034, -0.009509, -0.009841, -0.243340, 0.292683, -0.105926, 109.984329, 31.138287, -0.139922, 8.826884, -8.345925, -0.044573, 1.016703, -0.820826, -0.019404, 0.117269, 9.687069, 0.555200, 0.037448, 29.702204, -95.838155, 0.069000, 20.700000, -0.185330, 0.302505, -0.277135
11.4000, 0.233249, 0.243672, 9.724128, -0.000498, -0.018088, -2.045392, 0.408504, -0.028200, 102.657147, 39.855737, -0.147682, 8.931325, -8.429272, -0.066589, 1.035174, -0.829253, 0.384523, 0.343468, 9.741524, 1.435031, 1.373638, 29.702204, -95.838155, 0.069000, 20.700000, -0.232630, 0.282295, -0.279285
11.5000, 0.213427, 0.327246, 9.849820, 0.000723, -0.006634, -1.883360, 0.572922, 0.094425, 97.757466, 47.201707, -0.158205, 9.037792, -8.511564, -0.092354, 1.054843, -0.825030, 0.200212, 0.382963, 9.933614, 1.902425, 1.240613, 29.702205, -95.838156, 0.024000, 20.600000, -0.278210, 0.252625, -0.268535
11.6000, -0.156779, 0.494959, 9.829005, 0.003625, -0.011826, -1.178116, 0.844449, -0.039338, 98.159237, 58.243330, -0.172290, 9.140103, -8.593690, -0.124683, 1.033687, -0.822517, -0.403583, 0.606768, 9.815129, 2.882444, -0.912672, 29.702205, -95.838156, 0.024000, 20.600000, -0.333680, 0.181675, -0.277995
11.7000, -0.054607, 0.342308, 9.900747, -0.015006, -0.010757, -0.006171, 0.910038, -0.096735, 105.510453, 63.688306, -0.187147, 9.241699, -8.674519, -0.140603, 1.021866, -0.813035, 0.013508, 0.240541, 9.948574, 1.980126, -0.315818, 29.702205, -95.838156, 0.024000, 20.600000, -0.346580, 0.164905, -0.277995
11.8000, -0.038512, 0.258987, 9.814907, 0.003930, -0.003732, -0.001285, 1.023494, -0.103893, 112.628279, 63.313862, -0.202040, 9.342623, -8.755704, -0.146156, 1.013451, -0.812246, -0.027782, 0.203440, 9.757681, 1.511509, -0.224738, 29.702205, -95.838156, 0.024000, 20.600000, -0.339700, 0.164475, -0.282295
11.9000, 0.048352, 0.177188, 9.387776, 0.004389, -0.032443, 0.017958, 1.085639, -0.204466, 119.545984, 65.179705, -0.216756, 9.444167, -8.843236, -0.146826, 1.014778, -0.854290, 0.106262, 0.122654, 9.103021, 1.081274, 0.295051, 29.702205, -95.838156, 0.024000, 20.600000, -0.346580, 0.158025, -0.287885
12.0000, 0.251132, 0.159189, 9.644547, 0.008207, -0.010910, 0.022845, 1.146799, -0.057017, 126.028506, 64.778592, -0.233159, 9.548874, -8.931124, -0.158293, 1.036303, -0.870686, 0.386318, 0.147189, 9.815727, 0.945292, 1.491369, 29.702205, -95.838156, 0.024000, 20.600000, -0.341420, 0.161895, -0.277995
12.1000, -0.020340, 0.101004, 9.663238, 0.003930, -0.001747, -0.020374, 1.142549, -0.036348, 131.667568, 62.557307, -0.247696, 9.653122, -9.020393, -0.149683, 1.040422, -0.885354, -0.201321, 0.062215, 9.675699, 0.598858, -0.120593, 29.702205, -95.838156, 0.024000, 20.600000, -0.334540, 0.168775, -0.282725
12.2000, -0.276496, 0.091375, 9.708415, 0.001640, -0.003885, -0.005866, 1.117679, -0.186088, 136.902228, 63.014936, -0.258287, 9.755081, -9.110467, -0.120495, 1.026533, -0.895614, -0.447267, 0.084955, 9.738532, 0.539027, -1.631275, 29.702204, -95.838157, 0.032000, 0.000000, -0.340560, 0.164045, -0.282295
12.3000, 0.300715, 0.057363, 9.759517, 0.000723, 0.002834, 0.037200, 1.066387, 0.058523, 142.015285, 64.801869, -0.272862, 9.862072, -9.200800, -0.137333, 1.055450, -0.900756, 0.685523, 0.034688, 9.793586, 0.336599, 1.764837, 29.702204, -95.838157, 0.032000, 20.700000, -0.335830, 0.165765, -0.274555
12.4000, 0.495336, -0.146536, 9.798270, 0.002861, 0.004820, 0.006809, 0.903491, 0.414805, 146.675366, 66.687520, -0.291211, 9.976056, -9.291162, -0.168109, 1.111710, -0.902666, 0.625083, -0.282469, 9.824105, -0.855721, 2.893711, 29.702204, -95.838157, 0.032000, 20.700000, -0.347440, 0.164045, -0.271115
12.5000, 0.225269, 0.228610, 9.996884, 0.010650, -0.019920, -0.050154, 1.012271, 0.454742, 150.438833, 63.102970, -0.312381, 10.088803, -9.378620, -0.197169, 1.122219, -0.883940, 0.045224, 0.478708, 10.129294, 1.309689, 1.290542, 29.702204, -95.838157, 0.032000, 20.700000, -0.350450, 0.165765, -0.272835
12.6000, -0.338028, 0.235769, 9.843309, -0.001567, -0.002663, -0.024345, 1.055109, 0.245842, 153.761585, 60.611456, -0.328480, 10.198330, -9.466453, -0.173047, 1.104256, -0.880206, -0.713560, 0.240541, 9.740926, 1.371290, -1.966253, 29.702204, -95.838157, 0.032000, 20.700000, -0.340560, 0.173075, -0.268535
12.7000, -0.739639, 0.301465, 9.872000, -0.000346, 0.001155, 0.247796, 1.140281, -0.174787, 157.985145, 59.612512, -0.335670, 10.302968, -9.553518, -0.105618, 1.065672, -0.873832, -1.007379, 0.345263, 9.891127, 1.744236, -4.282771, 29.702204, -95.838157, 0.032000, 20.700000, -0.344860, 0.174365, -0.273265
12.8000, 0.020311, 0.159351, 9.958517, -0.001720, -0.005260, -0.055346, 1.127092, -0.151349, 160.425769, 64.729093, -0.345964, 10.410022, -9.638655, -0.103828, 1.068916, -0.858857, 0.526944, 0.064609, 10.016195, 0.916739, 0.116843, 29.702204, -95.838157, 0.032000, 20.700000, -0.337980, 0.164475, -0.273695
12.9000, -0.037627, 0.223145, 9.875356, -0.003858, 0.001613, 0.415936, 1.142303, -0.128316, 164.869843, 61.254283, -0.355584, 10.516300, -9.723525, -0.098744, 1.064825, -0.852084, -0.076253, 0.265674, 9.819916, 1.294435, -0.218254, 29.702204, -95.838157, 0.032000, 20.700000, -0.337980, 0.176945, -0.269395
13.0000, -0.191855, 0.282413, 9.825217, 0.005763, -0.003885, 0.409370, 1.242708, -0.229828, 168.616711, 59.904838, -0.362262, 10.621079, -9.808460, -0.077438, 1.053470, -0.850266, -0.294673, 0.321925, 9.791791, 1.646126, -1.118197, 29.702204, -95.838157, 0.033000, 20.700000, -0.335830, 0.180815, -0.268535
13.1000, 1.305791, 0.437890, 9.900667, 0.023020, -0.022516, -0.148198, 1.513339, 0.473671, 169.065793, 61.924565, -0.390945, 10.727779, -9.892172, -0.217029, 1.062485, -0.841501, 2.304222, 0.541541, 9.950968, 2.510732, 7.506077, 29.702204, -95.838157, 0.033000, 20.700000, -0.326800, 0.191995, -0.265955
13.2000, -0.249067, -2.045914, 9.690646, -0.135805, 0.096450, 0.314533, -0.551636, 0.826317, 172.667987, 80.986070, -0.407288, 10.862867, -9.977785, -0.181299, 1.254749, -0.851254, -1.285640, -3.701784, 9.550632, -11.917545, -1.440542, 29.702204, -95.838157, 0.033000, 20.700000, -0.340560, 0.171355, -0.268105
13.3000, -0.322388, -0.649626, 9.664803, 0.000113, 0.003445, 0.407995, -0.930811, 0.603584, 175.694802, 60.738827, -0.421566, 10.995461, -10.064906, -0.155618, 1.302209, -0.864560, -0.371269, 0.281233, 9.647574, -3.843257, -1.906207, 29.702204, -95.838157, 0.033000, 20.700000, -0.334970, 0.173505, -0.271115
13.4000, -0.475588, 0.187868, 9.752485, -0.002636, -0.010299, -0.965077, -0.787946, 0.227263, 170.973243, 60.140257, -0.431413, 11.119884, -10.152251, -0.117519, 1.263556, -0.870481, -0.577721, 0.746198, 9.810940, 1.102279, -2.791346, 29.702204, -95.838157, 0.033000, 20.700000, -0.346580, 0.168345, -0.267245
13.5000, -0.777787, 0.251068, 9.620961, 0.024089, -0.006634, 0.092331, -0.471698, -0.298170, 172.110202, 62.385642, -0.431545, 11.239628, -10.242233, -0.040053, 1.219479, -0.890042, -0.979254, 0.293201, 9.533278, 1.489989, -4.620346, 29.702204, -95.838157, 0.033000, 20.700000, -0.348300, 0.157595, -0.269395
13.6000, -0.250589, 0.273117, 9.727408, 0.007748, -0.008467, 0.165940, -0.248819, -0.476552, 173.504279, 63.998992, -0.431145, 11.356313, -10.332531, -0.010686, 1.184396, -0.898671, 0.100876, 0.287816, 9.798373, 1.607739, -1.475098, 29.702204, -95.838157, 0.033000, 20.700000, -0.336260, 0.157595, -0.270255
13.7000, -0.114032, 0.214076, 9.769628, -0.000498, -0.011063, -0.002506, -0.117467, -0.571704, 173.840075, 64.392822, -0.429436, 11.470921, -10.423035, 0.007831, 1.158851, -0.902916, -0.022995, 0.174716, 9.797775, 1.255203, -0.668574, 29.702204, -95.838159, 0.042000, 0.000000, -0.342280, 0.158885, -0.272835
13.8000, -0.064436, 0.184356, 9.784003, 0.002556, -0.008161, -0.004339, 0.005488, -0.612394, 174.002749, 63.717558, -0.426419, 11.583805, -10.513735, 0.022722, 1.138843, -0.905639, -0.031372, 0.164543, 9.793586, 1.079452, -0.377272, 29.702204, -95.838159, 0.042000, 20.700000, -0.336260, 0.161035, -0.273695
13.9000, -0.102045, 0.225966, 9.769287, 0.000723, -0.005565, 0.056289, 0.137854, -0.657137, 174.315625, 63.327202, -0.421252, 11.694349, -10.604929, 0.042020, 1.116576, -0.909840, -0.127118, 0.253706, 9.759477, 1.324959, -0.598303, 29.702204, -95.838159, 0.042000, 20.700000, -0.336690, 0.160175, -0.273265
14.0000, -0.054974, 0.195216, 9.783148, -0.002789, -0.007245, -0.003728, 0.226314, -0.676836, 174.203350, 64.070467, -0.414742, 11.803412, -10.696326, 0.057406, 1.099277, -0.912589, -0.023593, 0.174716, 9.792389, 1.143129, -0.321892, 29.702204, -95.838159, 0.042000, 20.700000, -0.341850, 0.161035, -0.272835
14.1000, -0.036864, 0.169272, 9.786898, -0.001262, -0.005107, -0.002506, 0.302837, -0.670481, 174.027387, 64.403714, -0.406927, 11.911350, -10.787936, 0.071240, 1.086011, -0.914934, -0.024790, 0.151977, 9.789397, 0.990871, -0.215778, 29.702204, -95.838159, 0.042000, 20.700000, -0.343140, 0.159745, -0.277135
14.2000, -0.033210, 0.175052, 9.788756, 0.001029, -0.003885, -0.003117, 0.390579, -0.653706, 173.742608, 64.005573, -0.397819, 12.018099, -10.879749, 0.084463, 1.073664, -0.917063, -0.030774, 0.178905, 9.789996, 1.024503, -0.194352, 29.702204, -95.838159, 0.042000, 20.700000, -0.347440, 0.164045, -0.271545
14.3000, -0.037493, 0.169465, 9.791654, 0.001792, -0.003732, -0.000368, 0.473310, -0.637874, 173.355330, 63.518712, -0.387344, 12.123891, -10.971730, 0.097991, 1.063171, -0.918893, -0.040349, 0.165740, 9.793586, 0.991515, -0.219356, 29.702204, -95.838159, 0.042000, 20.700000, -0.338840, 0.163615, -0.273265
14.4000, -0.039565, 0.167230, 9.764808, 0.005305, -0.004649, -0.004186, 0.567356, -0.627337, 172.878229, 63.758742, -0.375495, 12.228886, -11.064295, 0.111653, 1.054357, -0.923397, -0.040947, 0.165740, 9.746910, 0.981130, -0.232118, 29.702204, -95.838160, 0.039000, 0.000000, -0.339700, 0.162325, -0.268965
14.5000, -1.088450, 0.465062, 9.979909, 0.003930, -0.003427, -0.100703, 0.820402, -1.230663, 171.581587, 58.618141, -0.345708, 12.326681, -11.154386, 0.235800, 1.003420, -0.908410, -1.787706, 0.663617, 10.123310, 2.652339, -6.217616, 29.702204, -95.838160, 0.039000, 20.600000, -0.346150, 0.157595, -0.274555
14.6000, -0.538938, -0.024747, 9.811386, -0.005385, -0.008161, -0.335886, 0.719466, -1.504972, 169.430228, 66.563517, -0.309978, 12.427014, -11.245486, 0.316803, 1.003355, -0.910134, -0.172597, -0.351286, 9.699037, -0.144297, -3.144080, 29.702204, -95.838160, 0.039000, 20.600000, -0.353890, 0.161465, -0.271975
14.7000, -0.641557, 0.414841, 9.766956, -0.119922, 0.001765, -1.192472, 0.302854, -1.772536, 163.104210, 65.523085, -0.266340, 12.518023, -11.337482, 0.396517, 0.941183, -0.916685, -0.709969, 0.707899, 9.737335, 2.426891, -3.754783, 29.702204, -95.838160, 0.039000, 20.600000, -0.354320, 0.130935, -0.269825
14.8000, 1.008143, -0.109464, 9.798732, 0.022867, 0.006652, -0.901089, 0.356761, -0.999054, 159.656416, 76.370925, -0.237574, 12.618905, -11.429091, 0.323949, 0.986271, -0.916290, 2.107943, -0.459000, 9.819916, -0.636676, 5.873848, 29.702204, -95.838160, 0.039000, 20.600000, -0.350020, 0.105995, -0.272835
14.9000, 0.020002, -0.126378, 9.511639, -0.009203, 0.055674, -0.044809, 0.221825, -0.612292, 161.132486, 75.180985, -0.203228, 12.719452, -11.525209, 0.336952, 0.999074, -0.946215, -0.638759, -0.137654, 9.320244, -0.761223, 0.120478, 29.702204, -95.838160, 0.039000, 20.600000, -0.348300, 0.091375, -0.274125
15.0000, -0.044573, 0.046739, 9.748308, -0.004163, -0.002663, -0.628185, 0.228717, -0.600766, 159.572163, 75.668332, -0.167511, 12.818481, -11.620769, 0.350434, 0.993218, -0.952473, -0.087623, 0.162149, 9.906087, 0.274701, -0.261973, 29.702205, -95.838160, 0.076000, 0.000000, -0.353030, 0.084925, -0.280575
15.1000, -0.042756, 0.223699, 9.881752, -0.014243, -0.020684, -1.366721, 0.289492, -0.679578, 154.840559, 82.024279, -0.131404, 12.914424, -11.714943, 0.357526, 0.970689, -0.945318, -0.041545, 0.341672, 9.970715, 1.296804, -0.247842, 29.702205, -95.838160, 0.076000, 20.700000, -0.348730, 0.039345, -0.272405
15.2000, 0.041987, 0.135785, 9.791512, 0.009123, 0.002682, -0.198899, 0.417521, -0.576553, 157.070586, 85.546984, -0.095246, 13.010272, -11.809743, 0.360224, 0.962552, -0.947101, 0.098483, 0.077175, 9.731351, 0.794496, 0.245665, 29.702205, -95.838160, 0.076000, 20.700000, -0.341850, 0.024725, -0.269395
15.3000, 0.212322, -0.147482, 9.804246, 0.000571, -0.035497, -0.396514, 0.318585, -0.572336, 158.497097, 88.581907, -0.059710, 13.109975, -11.904529, 0.356986, 0.985538, -0.947611, 0.325878, -0.336326, 9.812735, -0.861613, 1.240470, 29.702205, -95.838160, 0.076000, 20.700000, -0.338840, 0.017845, -0.280575
15.4000, 0.093034, 0.101130, 9.688700, 0.016606, 0.006194, -2.219184, 0.457060, -0.415837, 150.871025, 92.143244, -0.024483, 13.208382, -12.001096, 0.353841, 0.984561, -0.959649, 0.013508, 0.266871, 9.611669, 0.598001, 0.550124, 29.702205, -95.838160, 0.076000, 20.700000, -0.325940, -0.019995, -0.280575
15.5000, 0.411904, 0.032182, 9.639250, 0.083038, 0.060867, -0.361084, 0.880845, 0.207519, 116.852783, 97.509311, 0.009426, 13.313604, -12.099655, 0.344009, 1.029664, -0.976944, 0.624485, -0.013783, 9.606284, 0.191116, 2.446861, 29.702205, -95.838160, 0.076000, 20.700000, -0.306590, -0.042355, -0.280575
15.6000, 0.236418, -0.042432, 9.437434, -0.005080, 0.035363, -2.828980, 0.757685, 0.542904, 72.529599, 102.677293, 0.047687, 13.420479, -12.202999, 0.369741, 1.055723, -1.014605, 0.119427, -0.092175, 9.302890, -0.257527, 1.435007, 29.702205, -95.838160, 0.076000, 20.700000, -0.288530, -0.062995, -0.276705
15.7000, 0.009320, -0.122903, 9.416668, -0.087547, -0.002358, -0.587562, 0.167202, 0.511786, 43.849061, 115.113633, 0.087235, 13.525396, -12.310372, 0.386897, 1.051350, -1.054024, -0.142078, -0.176551, 9.402824, -0.747762, 0.056704, 29.702205, -95.838160, 0.076000, 20.700000, -0.236070, -0.103415, -0.277565
15.8000, 0.213617, 0.211853, 9.646409, 0.001945, -0.013964, -1.501875, 0.300516, 0.547476, 12.804731, 117.032986, 0.129861, 13.633906, -12.418251, 0.413141, 1.073852, -1.070534, 0.349815, 0.435024, 9.799570, 1.257813, 1.268286, 29.702206, -95.838161, 0.019000, 20.700000, -0.202960, -0.120615, -0.277135
15.9000, 0.072368, 0.194957, 9.801139, -0.005843, 0.008638, 0.002075, 0.373156, 0.611871, -7.370084, 128.026735, 0.174061, 13.742901, -12.525441, 0.432381, 1.084584, -1.071447, -0.021798, 0.183692, 9.904292, 1.139502, 0.422960, 29.702206, -95.838161, 0.019000, 20.700000, -0.176300, -0.142545, -0.275845
16.0000, -0.054864, 0.165219, 9.799480, 0.002251, -0.006481, -0.000674, 0.466151, 0.513681, -25.927748, 127.157688, 0.218305, 13.852296, -12.632727, 0.439087, 1.090829, -1.072387, -0.139685, 0.145394, 9.798373, 0.965899, -0.320728, 29.702206, -95.838161, 0.019000, 20.700000, -0.178020, -0.136095, -0.282295
16.1000, -0.106115, 0.154760, 9.794507, 0.001182, -0.006481, -0.002812, 0.540541, 0.389812, -42.995520, 128.912761, 0.262419, 13.962467, -12.740175, 0.440452, 1.098081, -1.073784, -0.140283, 0.147788, 9.791192, 0.905186, -0.620650, 29.702206, -95.838161, 0.019000, 20.700000, -0.173720, -0.141255, -0.277135
16.2000, 0.281619, 0.124366, 9.788210, 0.000876, -0.006329, 0.003297, 0.589283, 0.509316, -58.968812, 125.107842, 0.309619, 14.067720, -12.847912, 0.461485, 1.067716, -1.076176, 0.540109, 0.104104, 9.784011, 0.727644, 1.647886, 29.702206, -95.838161, 0.019000, 20.700000, -0.177590, -0.138245, -0.277135
16.3000, 1.038833, 0.130161, 9.749427, -0.004163, -0.000220, -0.011364, 0.611293, 1.114460, -74.089488, 122.327515, 0.361195, 14.156881, -12.956757, 0.497670, 0.950310, -1.084355, 1.543643, 0.134024, 9.723572, 0.760585, 6.081567, 29.702206, -95.838161, 0.019000, 20.700000, -0.174580, -0.139535, -0.272835
16.4000, 0.529916, 0.035896, 9.665695, 0.008054, 0.000544, 0.013529, 0.637707, 1.383392, -87.755637, 126.391486, 0.410336, 14.240432, -13.067594, 0.493496, 0.873777, -1.100367, 0.190638, -0.026948, 9.609874, 0.212460, 3.138044, 29.702206, -95.838161, 0.019000, 20.700000, -0.176730, -0.133515, -0.277135
16.5000, 0.197811, 0.033017, 9.739557, 0.009428, -0.011063, 0.019485, 0.664124, 1.369824, -100.085412, 128.650751, 0.457375, 14.321661, -13.178804, 0.478092, 0.832783, -1.108189, -0.023593, 0.031098, 9.788799, 0.194190, 1.163512, 29.702206, -95.838162, 0.030000, 20.700000, -0.170280, -0.136525, -0.274985
16.6000, 0.258135, -0.010502, 9.838757, 0.015842, -0.010299, 0.008947, 0.691562, 1.395642, -111.523727, 125.739740, 0.500642, 14.398706, -13.289343, 0.447809, 0.791229, -1.106318, 0.298352, -0.039515, 9.904890, -0.061137, 1.502899, 29.702206, -95.838162, 0.030000, 20.700000, -0.183610, -0.136955, -0.274985
16.7000, -0.010717, 0.057543, 9.891363, 0.021187, -0.000831, -0.058400, 0.780267, 1.305566, -122.132110, 129.121825, 0.542730, 14.475717, -13.398791, 0.429858, 0.777155, -1.098428, -0.189951, 0.102907, 9.926433, 0.333316, -0.062075, 29.702206, -95.838162, 0.030000, 20.700000, -0.173290, -0.139535, -0.273265
16.8000, -0.084866, -0.000332, 9.692669, -0.009203, 0.005431, 0.024372, 0.666374, 1.203595, -131.214483, 129.802664, 0.583266, 14.553211, -13.510409, 0.413530, 0.775673, -1.110263, -0.134299, -0.038916, 9.560206, -0.001965, -0.501651, 29.702206, -95.838162, 0.030000, 20.700000, -0.168990, -0.136525, -0.270255
16.9000, -0.457056, 0.106133, 9.638324, 0.010039, 0.003293, 0.026357, 0.724928, 0.861822, -139.304359, 130.562422, 0.628013, 14.634010, -13.623915, 0.436155, 0.797217, -1.126795, -0.705182, 0.177110, 9.602095, 0.630182, -2.714805, 29.702206, -95.838162, 0.030000, 20.700000, -0.174150, -0.136955, -0.270255
17.0000, -0.541303, -0.090047, 9.413008, 0.005916, 0.003445, 0.075074, 0.633484, 0.476177, -146.159965, 132.403829, 0.675777, 14.720018, -13.742510, 0.463808, 0.839127, -1.166234, -0.597468, -0.220833, 9.262796, -0.547182, -3.291069, 29.702206, -95.838162, 0.030000, 20.700000, -0.180600, -0.142115, -0.269395
17.1000, -0.647170, 0.279571, 9.716036, -0.000651, -0.000983, 0.079655, 0.738605, 0.032644, -152.273687, 130.599417, 0.731754, 14.806360, -13.860495, 0.527783, 0.855321, -1.175314, -0.717749, 0.525983, 9.918055, 1.644542, -3.809184, 29.702207, -95.838162, 0.070000, 0.000000, -0.171570, -0.145125, -0.268105
17.2000, -0.250045, 0.303188, 9.815705, 0.006985, -0.004954, 0.015209, 0.890047, -0.163069, -158.119061, 129.339205, 0.789244, 14.891348, -13.977900, 0.559195, 0.851699, -1.174466, 0.014705, 0.318933, 9.882151, 1.768620, -1.458541, 29.702207, -95.838162, 0.070000, 20.700000, -0.162970, -0.142545, -0.265955
17.3000, -0.046673, 0.175120, 9.765452, 0.001792, -0.004191, -0.002048, 0.927155, -0.218930, -163.521918, 127.084567, 0.846444, 14.976630, -14.095995, 0.567734, 0.852443, -1.178790, 0.088908, 0.089742, 9.731950, 1.027343, -0.273795, 29.702207, -95.838162, 0.070000, 20.700000, -0.159530, -0.124915, -0.269395
17.4000, -0.238199, 0.075422, 9.739606, -0.008898, 0.002529, 0.030480, 0.845491, -0.351797, -168.010480, 129.274354, 0.907377, 15.063805, -14.214954, 0.595464, 0.865315, -1.185989, -0.365884, 0.008957, 9.722375, 0.443549, -1.400949, 29.702207, -95.838162, 0.070000, 20.700000, -0.170710, -0.131365, -0.272835
17.5000, -0.560756, 0.000356, 9.687618, -0.006912, 0.001002, 0.046974, 0.734394, -0.683121, -171.696943, 130.584210, 0.976692, 15.153639, -14.335511, 0.660588, 0.887332, -1.199043, -0.775794, -0.049688, 9.652960, 0.002103, -3.312802, 29.702207, -95.838162, 0.070000, 20.700000, -0.175010, -0.128355, -0.284875
17.6000, -0.431984, 0.108563, 9.591782, -0.010730, -0.001594, 0.009711, 0.678087, -0.932105, -175.315126, 124.946124, 1.051535, 15.243167, -14.458804, 0.719148, 0.892628, -1.221634, -0.346136, 0.180700, 9.527892, 0.647806, -2.578517, 29.702207, -95.838162, 0.070000, 20.700000, -0.181890, -0.125345, -0.284445
17.7000, -0.390529, 0.052030, 9.818424, -0.000193, -0.000067, -0.005102, 0.645810, -1.125531, -178.389082, 127.872439, 1.132171, 15.333555, -14.580985, 0.777292, 0.900130, -1.221751, -0.362892, 0.014342, 9.969519, 0.303382, -2.277712, 29.702207, -95.838162, 0.070000, 20.700000, -0.178020, -0.130935, -0.276705
17.8000, -0.258334, 0.152929, 9.856660, 0.000265, -0.004801, -0.022665, 0.678035, -1.249127, -181.163512, 125.372928, 1.216985, 15.422879, -14.702563, 0.824525, 0.895542, -1.217771, -0.170204, 0.220195, 9.882151, 0.888586, -1.501143, 29.702207, -95.838163, 0.041000, 0.000000, -0.181030, -0.131365, -0.274555
17.9000, -0.236693, 0.159539, 9.829228, -0.005996, -0.004649, -0.011975, 0.680218, -1.347890, -183.357366, 126.596508, 1.306406, 15.511381, -14.824158, 0.870981, 0.888525, -1.216557, -0.222265, 0.163945, 9.810940, 0.929619, -1.379262, 29.702207, -95.838163, 0.041000, 20.800000, -0.176300, -0.130935, -0.281865
18.0000, -0.203262, 0.167927, 9.784146, -0.000804, -0.007398, -0.003270, 0.715802, -1.431045, -185.139085, 125.057852, 1.400130, 15.598950, -14.946303, 0.915150, 0.879966, -1.219822, -0.180975, 0.173519, 9.754091, 0.983069, -1.189952, 29.702207, -95.838163, 0.041000, 20.800000, -0.182750, -0.129645, -0.282725
18.1000, -0.200302, 0.164101, 9.790887, -0.002178, -0.006634, -0.001437, 0.739760, -1.498397, -186.474707, 125.929002, 1.498382, 15.685613, -15.068681, 0.960063, 0.871077, -1.222461, -0.198329, 0.161551, 9.795381, 0.960023, -1.171829, 29.702207, -95.838163, 0.041000, 20.800000, -0.179310, -0.130505, -0.284015
18.2000, -0.200913, 0.159699, 9.793225, 0.003625, -0.002969, -0.002812, 0.789585, -1.538425, -187.523228, 124.439937, 1.601236, 15.771442, -15.191294, 1.005720, 0.862553, -1.224904, -0.201321, 0.156764, 9.794783, 0.934047, -1.175133, 29.702207, -95.838163, 0.041000, 20.800000, -0.183180, -0.126205, -0.283585
18.3000, -0.210493, 0.211795, 9.796314, -0.016534, -0.005412, -0.007088, 0.763123, -1.590544, -188.261389, 124.682771, 1.708794, 15.855451, -15.314104, 1.052289, 0.847576, -1.227039, -0.216879, 0.246525, 9.798373, 1.238247, -1.230635, 29.702207, -95.838163, 0.041000, 20.800000, -0.180170, -0.127495, -0.275415
18.4000, -0.314858, -0.047782, 9.769544, -0.002636, -0.008161, -0.377883, 0.655867, -1.713186, -190.267792, 129.958520, 1.823405, 15.940942, -15.437640, 1.114837, 0.852466, -1.232582, -0.384434, -0.220833, 9.751697, -0.280080, -1.845896, 29.702207, -95.838163, 0.041000, 20.800000, -0.174580, -0.130075, -0.287025
18.5000, -0.130046, -0.034204, 9.802281, -0.002789, -0.018393, -2.204828, 0.561964, -1.763687, -200.507532, 139.143841, 1.941638, 16.025752, -15.561155, 1.159833, 0.849552, -1.234299, -0.006838, -0.025153, 9.824105, -0.199912, -0.760087, 29.702208, -95.838164, 0.020000, 0.000000, -0.122980, -0.141255, -0.278425
18.6000, 0.114067, -0.014771, 9.828301, -0.000498, -0.002205, -1.435596, 0.497057, -1.572206, -204.310193, 152.300412, 2.060366, 16.111113, -15.684327, 1.178133, 0.852262, -1.232575, 0.276809, -0.001815, 9.845648, -0.086102, 0.664943, 29.702208, -95.838164, 0.020000, 20.900000, -0.071380, -0.150715, -0.277565
18.7000, -0.086296, 0.208071, 9.855584, 0.004694, -0.016408, -1.643443, 0.596708, -1.581903, -206.591215, 175.217854, 2.182279, 16.192519, -15.806968, 1.205461, 0.826793, -1.228468, -0.219872, 0.356633, 9.873773, 1.209404, -0.501561, 29.702208, -95.838164, 0.020000, 20.900000, -0.018060, -0.152435, -0.276275
18.8000, 1.693417, -2.737090, 10.333616, -0.162988, -0.216924, -0.842293, -1.817565, -1.627673, -203.071257, 171.807638, 2.297702, 16.316640, -15.920078, 1.171307, 1.103071, -1.163555, 2.879892, -4.700530, 10.652304, -14.648569, 9.001534, 29.702208, -95.838164, 0.020000, 20.900000, 0.033540, -0.133945, -0.275845
18.9000, 0.578117, -1.242415, 9.942457, 0.025769, -0.007703, -0.051528, -2.302480, -1.125583, -193.986876, 196.586490, 2.412327, 16.440587, -16.033677, 1.154602, 1.194002, -1.145178, -0.165416, -0.245966, 9.681683, -7.110907, 3.302166, 29.702208, -95.838164, 0.020000, 20.900000, 0.036550, -0.131795, -0.283155
19.0000, 0.266280, 0.687515, 9.857084, 0.000876, -0.006023, -1.240119, -1.740106, -0.824362, -188.407189, 243.168983, 2.523772, 16.545622, -16.147827, 1.127832, 1.098235, -1.142730, 0.058389, 1.974135, 9.800169, 3.988371, 1.543669, 29.702208, -95.838164, 0.020000, 20.900000, 0.093310, -0.103415, -0.277995
19.1000, 0.186785, 0.440514, 9.821857, -0.007829, -0.011063, -1.462780, -1.395743, -0.614092, -181.120509, 249.637631, 2.635131, 16.645277, -16.262106, 1.118339, 1.030445, -1.142765, 0.133789, 0.275847, 9.798373, 2.567555, 1.088387, 29.702208, -95.838164, 0.020000, 20.900000, 0.139750, -0.058265, -0.274125
19.2000, -0.187902, -0.197932, 9.819256, 0.003320, -0.010299, -0.593060, -1.393720, -0.638799, -168.396749, 249.409082, 2.751458, 16.748617, -16.376255, 1.148294, 1.032415, -1.141919, -0.437693, -0.623563, 9.817522, -1.154574, -1.096057, 29.702208, -95.838165, 0.022000, 0.000000, 0.150070, -0.044075, -0.273695
19.3000, -0.264172, -0.277737, 9.739585, 0.008207, -0.014881, -0.398805, -1.415096, -0.734500, -154.267192, 259.237483, 2.871303, 16.854894, -16.491508, 1.181729, 1.052651, -1.148990, -0.315019, -0.330940, 9.686471, -1.632821, -1.553051, 29.702208, -95.838165, 0.022000, 20.900000, 0.158670, -0.022575, -0.277565
19.4000, 0.432388, 0.120478, 9.749366, 0.032488, -0.009994, -0.480050, -1.067905, -0.375049, -140.325360, 270.137650, 2.988114, 16.953141, -16.607336, 1.172650, 1.005862, -1.155185, 0.896762, 0.385955, 9.755886, 0.707303, 2.539233, 29.702208, -95.838165, 0.022000, 20.900000, 0.159100, -0.011395, -0.282725
19.5000, 0.413363, 0.610805, 9.776616, -0.000346, 0.009401, 0.435331, -0.617937, 0.050481, -121.480452, 276.864543, 3.111235, 17.042719, -16.723468, 1.211694, 0.932475, -1.159276, 0.400680, 0.937689, 9.794783, 3.571786, 2.416363, 29.702208, -95.838165, 0.022000, 20.900000, 0.162970, -0.008815, -0.277135
