Time, AccX(m/s^2), AccY(m/s^2), AccZ(m/s^2), GyrX(rad/s), GyrY(rad/s), GyrZ(rad/s), Roll(deg), Pitch(deg), Yaw(deg), Heading, X(m), Y(m), Z(m),         Vx(m/s), Vy(m/s), Vz(m/s), AccXraw(m/s^2), AccYraw(m/s^2), AccZraw(m/s^2), RollAcc(deg/s^2), PitchAcc(deg/s^2), Latitude, Longitude,             GPShspeed(m/s), GPSalt(m), MagX(uT), MagY(ut), MagZ(uT)
0.0000, 0.007387, 0.136785, 5.879024, 0.002709, -0.009077, -0.001743, 1.332856, 0.071925, 83.134626, 353.136557, 0.000027, 0.000220, -0.058941, 0.000177, 0.001466, -0.392940, 0.012312, 0.227975, 9.798373, 1.332835, 0.071972, 29.702183, -95.838178, 0.035000, 16.800000, 0.033110, 0.265955, -0.272835
0.1000, 0.011778, 0.195089, 8.230634, 0.000723, -0.010146, -0.007088, 1.348868, 0.052677, 83.716400, 354.620455, 0.000057, 0.000657, -0.121891, 0.000261, 0.003403, -0.550647, 0.014705, 0.233959, 9.798373, 1.357815, 0.081966, 29.702183, -95.838178, 0.035000, 16.800000, 0.025370, 0.258215, -0.283155
0.2000, 0.012457, 0.218052, 9.169841, 0.004236, -0.012590, -0.004797, 1.368695, 0.036763, 84.135903, 354.513545, 0.000126, 0.001270, -0.186519, 0.000552, 0.005217, -0.614404, 0.012910, 0.233360, 9.795980, 1.362192, 0.077814, 29.702183, -95.838178, 0.035000, 16.800000, 0.025800, 0.258215, -0.278855
0.3000, 0.013447, 0.226160, 9.546960, 0.002556, -0.011063, -0.006630, 1.369497, 0.042906, 84.512865, 354.805243, 0.000242, 0.002096, -0.251865, 0.000955, 0.007248, -0.640442, 0.014107, 0.231565, 9.798373, 1.357035, 0.080679, 29.702183, -95.838178, 0.035000, 16.800000, 0.024940, 0.263375, -0.279285
0.4000, 0.004867, 0.230480, 9.697808, 0.004541, -0.012284, -0.003881, 1.375917, 0.021708, 84.830845, 354.987138, 0.000386, 0.002945, -0.317551, 0.001276, 0.008077, -0.651387, -0.000853, 0.233360, 9.798373, 1.361447, 0.028745, 29.702183, -95.838178, 0.035000, 16.800000, 0.023650, 0.263375, -0.277135
0.5000, 0.008616, 0.231131, 9.757788, 0.007901, -0.010146, -0.005255, 1.386033, 0.027896, 84.857202, 354.357256, 0.000606, 0.003946, -0.383432, 0.001890, 0.009364, -0.656336, 0.011115, 0.231565, 9.797775, 1.356901, 0.050574, 29.702181, -95.838171, 0.025000, 0.000000, 0.026230, 0.255635, -0.282295
0.6000, 0.006525, 0.237136, 9.782139, -0.002025, -0.015186, -0.002354, 1.371553, 0.010998, 84.603525, 353.562690, 0.000763, 0.005012, -0.449441, 0.001678, 0.010228, -0.658835, 0.005131, 0.241140, 9.798373, 1.388678, 0.038204, 29.702181, -95.838171, 0.025000, 18.500000, 0.030530, 0.262515, -0.278855
0.7000, 0.008920, 0.237025, 9.791880, 0.001487, -0.014881, -0.004950, 1.374830, 0.008489, 84.809334, 355.602946, 0.000915, 0.006192, -0.515553, 0.001571, 0.011279, -0.660360, 0.010516, 0.236951, 9.798373, 1.386646, 0.052177, 29.702181, -95.838171, 0.025000, 18.500000, 0.021070, 0.263375, -0.281005
0.8000, 0.010955, 0.232672, 9.795776, 0.003014, -0.015186, -0.003728, 1.373321, 0.011379, 85.210785, 356.156556, 0.001120, 0.007510, -0.581761, 0.001895, 0.012546, -0.661506, 0.012312, 0.229770, 9.798373, 1.360648, 0.064057, 29.702181, -95.838171, 0.025000, 18.500000, 0.018060, 0.256925, -0.284015
0.9000, 0.017873, 0.232367, 9.797334, 0.000113, -0.009841, -0.002354, 1.360341, 0.048387, 85.078934, 353.645166, 0.001348, 0.009155, -0.648061, 0.002148, 0.015149, -0.662499, 0.022485, 0.232163, 9.798373, 1.358647, 0.104491, 29.702181, -95.838171, 0.025000, 18.500000, 0.030960, 0.265525, -0.283155
1.0000, 0.015613, 0.232245, 9.797958, 0.002709, -0.010146, -0.004339, 1.361365, 0.069497, 85.064306, 354.952807, 0.001607, 0.011080, -0.714450, 0.002444, 0.017884, -0.663431, 0.014107, 0.232163, 9.798373, 1.357848, 0.091276, 29.702181, -95.838171, 0.025000, 18.500000, 0.023650, 0.256495, -0.284015
1.1000, 0.011478, 0.231119, 9.798207, 0.003320, -0.009688, -0.004033, 1.362599, 0.079615, 84.800398, 353.311843, 0.001914, 0.013241, -0.780930, 0.002865, 0.020365, -0.664340, 0.008721, 0.230368, 9.798373, 1.351234, 0.067099, 29.702181, -95.838171, 0.025000, 18.500000, 0.031390, 0.259075, -0.279285
1.2000, 0.008388, 0.230309, 9.796512, 0.000571, -0.012284, -0.006630, 1.350668, 0.071088, 84.550293, 353.663584, 0.002240, 0.015583, -0.847526, 0.003127, 0.022404, -0.665420, 0.006327, 0.229770, 9.795381, 1.346737, 0.049042, 29.702180, -95.838167, 0.022000, 0.000000, 0.029670, 0.259075, -0.279715
1.3000, 0.007152, 0.236808, 9.797629, 0.001640, -0.009077, -0.006019, 1.355960, 0.076342, 84.444054, 354.311980, 0.002509, 0.018132, -0.914211, 0.002836, 0.024463, -0.666373, 0.006327, 0.241140, 9.798373, 1.384562, 0.041809, 29.702180, -95.838167, 0.022000, 19.600000, 0.026660, 0.259075, -0.278855
1.4000, 0.012402, 0.232585, 9.793049, 0.003014, -0.011979, -0.005713, 1.360440, 0.074780, 84.318163, 353.789501, 0.002830, 0.020955, -0.981061, 0.003084, 0.026970, -0.667794, 0.015902, 0.229770, 9.789996, 1.360518, 0.072538, 29.702180, -95.838167, 0.022000, 19.600000, 0.029240, 0.257785, -0.286165
1.5000, 0.014143, 0.233409, 9.795166, 0.001945, -0.013964, -0.004644, 1.360199, 0.067080, 84.539841, 356.230772, 0.003163, 0.024035, -1.048022, 0.003245, 0.029527, -0.669002, 0.015304, 0.233959, 9.796578, 1.365042, 0.082704, 29.702180, -95.838167, 0.022000, 19.600000, 0.018060, 0.260795, -0.281865
1.6000, 0.014839, 0.236970, 9.798168, 0.006221, -0.011063, -0.002506, 1.383659, 0.075067, 84.695399, 355.044830, 0.003521, 0.027402, -1.115057, 0.003471, 0.032286, -0.669902, 0.015304, 0.239344, 9.800169, 1.385436, 0.086749, 29.702180, -95.838167, 0.022000, 19.600000, 0.023220, 0.256065, -0.278855
1.7000, 0.015118, 0.239831, 9.798291, 0.006069, -0.010146, -0.006171, 1.405049, 0.086001, 84.799152, 355.099435, 0.003916, 0.031076, -1.182179, 0.003791, 0.035252, -0.670782, 0.015304, 0.241738, 9.798373, 1.402136, 0.088376, 29.702180, -95.838167, 0.022000, 19.600000, 0.023220, 0.258645, -0.285735
1.8000, -0.008468, 0.219791, 9.801931, 0.001640, -0.011368, -0.006019, 1.378809, 0.062195, 84.754553, 354.008051, 0.004539, 0.034611, -1.249342, 0.005417, 0.035322, -0.671344, -0.024191, 0.206432, 9.804357, 1.284544, -0.049484, 29.702180, -95.838167, 0.022000, 19.600000, 0.027520, 0.262945, -0.284015
1.9000, -0.001027, 0.225778, 9.785794, 0.013704, -0.015644, -0.006782, 1.420076, 0.030422, 84.648335, 353.869548, 0.005338, 0.038182, -1.316800, 0.007129, 0.035580, -0.673506, 0.003934, 0.229770, 9.775035, 1.321698, -0.006010, 29.702180, -95.838167, 0.022000, 19.600000, 0.028380, 0.256925, -0.270685
2.0000, 0.100687, 0.244330, 9.823860, -0.009050, 0.024826, -0.005255, 1.364888, 0.300821, 84.730842, 355.665459, 0.006107, 0.044029, -1.383907, 0.007506, 0.050838, -0.671883, 0.168497, 0.256698, 9.849238, 1.424641, 0.587037, 29.702180, -95.838163, 0.044000, 0.000000, 0.025370, 0.262945, -0.285305
2.1000, 0.007090, 0.233440, 9.871042, -0.025544, 0.101489, 0.022234, 1.229257, 0.795552, 84.763379, 353.401563, 0.006732, 0.051296, -1.450155, 0.006669, 0.065393, -0.665610, -0.055309, 0.226179, 9.902497, 1.354732, 0.041140, 29.702180, -95.838163, 0.044000, 20.100000, 0.029240, 0.259935, -0.278855
2.2000, -0.078821, 0.182767, 9.829595, 0.012635, -0.049242, -0.012127, 1.251157, 0.401109, 84.500090, 352.810877, 0.007861, 0.057640, -1.516392, 0.009749, 0.064093, -0.663455, -0.136094, 0.148984, 9.801964, 1.065172, -0.459349, 29.702180, -95.838163, 0.044000, 20.100000, 0.030100, 0.265095, -0.278855
2.3000, -0.048915, 0.182245, 9.838868, -0.020810, 0.032309, -0.012586, 1.107074, 0.486125, 84.234346, 352.931369, 0.009006, 0.064553, -1.582279, 0.010881, 0.067454, -0.660393, -0.028979, 0.181897, 9.845049, 1.061152, -0.284804, 29.702180, -95.838163, 0.044000, 20.100000, 0.033110, 0.268535, -0.280145
2.4000, 0.188168, 0.179882, 9.786206, 0.003014, -0.088337, -0.056110, 1.099170, 0.184620, 83.991947, 355.270368, 0.010556, 0.074564, -1.648660, 0.013964, 0.089221, -0.662673, 0.346224, 0.178307, 9.751099, 1.052850, 1.101357, 29.702180, -95.838163, 0.044000, 0.000000, 0.032250, 0.265095, -0.278425
2.5000, 0.425543, 0.185400, 9.811100, 0.001487, -0.050616, -0.036257, 1.089105, 0.323188, 84.089047, 356.761384, 0.012712, 0.090659, -1.714923, 0.019027, 0.137043, -0.662644, 0.583793, 0.189078, 9.827695, 1.081568, 2.483128, 29.702180, -95.838163, 0.044000, 20.100000, 0.031820, 0.256495, -0.285735
2.6000, -0.266177, 0.389390, 9.599526, -0.173526, 0.042693, -0.231886, 0.403800, 0.316373, 82.674361, 349.278904, 0.009421, 0.101808, -1.784287, -0.015601, 0.120004, -0.683308, -0.727323, 0.525384, 9.458476, 2.321953, -1.586992, 29.702179, -95.838162, 0.044000, 0.000000, 0.029670, 0.259505, -0.294335
2.7000, -0.120626, 0.307980, 9.700523, 0.001792, 0.010470, -0.022512, 0.615092, 0.267306, 82.535032, 352.553644, 0.004682, 0.113085, -1.854212, -0.036789, 0.115180, -0.693936, -0.023593, 0.253706, 9.767854, 1.818321, -0.712080, 29.702179, -95.838162, 0.044000, 20.900000, 0.033970, 0.257785, -0.295195
2.8000, -0.087899, 0.104151, 9.555654, -0.013632, 0.001155, -0.183781, 0.562095, 0.200181, 81.785551, 354.383295, 0.000732, 0.123816, -1.927409, -0.038598, 0.109934, -0.719289, -0.066080, -0.031735, 9.459075, 0.624438, -0.526995, 29.702179, -95.838162, 0.044000, 20.900000, 0.023650, 0.262945, -0.302075
2.9000, -0.092401, 0.176650, 9.715647, -0.030125, -0.089254, 0.140589, 0.490593, -0.311987, 83.194286, 359.022007, -0.004778, 0.132811, -2.000745, -0.049599, 0.096612, -0.728674, -0.095402, 0.224983, 9.822310, 1.041590, -0.544806, 29.702179, -95.838162, 0.044000, 20.900000, 0.001290, 0.256495, -0.331315
3.0000, -0.320042, -0.314249, 9.550573, -0.102207, -0.065430, -0.157819, -0.311214, -0.819345, 83.272439, 1.170346, -0.006632, 0.135209, -2.077564, -0.028892, 0.048193, -0.755015, -0.471802, -0.641515, 9.440524, -1.883506, -1.918237, 29.702179, -95.838162, 0.044000, 20.900000, -0.020640, 0.269395, -0.312395
3.1000, -0.030509, -0.633762, 9.547736, -0.058225, 0.091410, -0.398958, -1.042600, -0.260585, 82.839320, 8.032487, -0.002814, 0.138067, -2.156854, 0.015820, 0.035120, -0.780270, 0.162512, -0.846770, 9.545844, -3.797600, -0.182682, 29.702179, -95.838162, 0.044000, 20.900000, -0.030100, 0.275845, -0.295195
3.2000, 0.343458, -0.385645, 9.484127, -0.030889, -0.007703, -0.336497, -1.372592, 0.014811, 83.389238, 11.573095, 0.001725, 0.146460, -2.239672, 0.035532, 0.067658, -0.812215, 0.592769, -0.220234, 9.441721, -2.326965, 2.072290, 29.702179, -95.838162, 0.044000, 20.900000, -0.038270, 0.281865, -0.289605
3.3000, 0.326088, -0.589793, 9.421343, -0.003247, -0.056572, 0.098134, -1.681544, 0.008218, 85.989726, 7.097054, 0.010306, 0.157797, -2.326525, 0.069053, 0.098132, -0.849760, 0.314509, -0.725891, 9.379486, -3.580004, 1.978441, 29.702178, -95.838162, 0.047000, 0.000000, -0.022790, 0.282295, -0.285305
3.4000, 0.234047, -0.523525, 9.768919, -0.030583, 0.006041, 0.021317, -2.037095, 0.252934, 87.644492, 3.963573, 0.020019, 0.171657, -2.411948, 0.087772, 0.125108, -0.852737, 0.172685, -0.479346, 10.000636, -3.066717, 1.370481, 29.702178, -95.838162, 0.047000, 21.300000, -0.014190, 0.287455, -0.277565
3.5000, -0.426792, -0.805438, 9.418928, -0.071359, 0.055522, -0.137355, -2.776861, 0.252562, 87.649717, 355.931529, 0.033778, 0.178181, -2.502642, 0.120981, 0.085198, -0.888870, -0.867351, -0.993380, 9.185601, -4.882641, -2.585000, 29.702178, -95.838162, 0.047000, 21.300000, -0.008170, 0.276275, -0.273695
3.6000, 0.079026, -0.329727, 9.721636, 0.042720, -0.020226, -0.173549, -2.517776, 0.213857, 87.628473, 1.586448, 0.044484, 0.188490, -2.592783, 0.111701, 0.097126, -0.897232, 0.416238, -0.012586, 9.923441, -1.942482, 0.465473, 29.702178, -95.838162, 0.047000, 21.300000, 0.004300, 0.273695, -0.283155
3.7000, 0.384759, -0.076250, 9.838410, -0.015159, 0.038570, -0.137660, -2.406018, 0.683807, 88.001124, 3.757542, 0.050867, 0.205905, -2.682242, 0.079789, 0.148478, -0.895468, 0.588580, 0.092734, 9.916260, -0.443710, 2.239504, 29.702178, -95.838162, 0.047000, 21.300000, -0.001290, 0.279715, -0.291325
3.8000, 0.284084, 0.112388, 10.286175, 0.119689, 0.008638, 0.337898, -1.491388, 0.880344, 90.748958, 2.520619, 0.053059, 0.227308, -2.764826, 0.041208, 0.192177, -0.849049, 0.216968, 0.238148, 10.584684, 0.625759, 1.581901, 29.702178, -95.838162, 0.047000, 21.300000, -0.006450, 0.273695, -0.287025
3.9000, -0.033728, 0.306688, 9.945023, -0.034707, 0.012914, -0.494711, -1.326079, 0.879306, 88.830982, 0.541188, 0.049166, 0.248471, -2.847861, -0.012215, 0.205144, -0.836588, -0.245603, 0.436221, 9.717588, 1.766337, -0.194224, 29.702178, -95.838162, 0.047000, 21.300000, -0.009890, 0.274125, -0.284445
4.0000, -0.048831, 0.047623, 9.984135, 0.052189, -0.008314, -0.060386, -0.888925, 0.755609, 89.390269, 1.992788, 0.044920, 0.270260, -2.928941, -0.032377, 0.213640, -0.819391, -0.058899, -0.125087, 10.010210, 0.273287, -0.280219, 29.702178, -95.838161, 0.069000, 0.000000, -0.011180, 0.275845, -0.290465
4.1000, 0.063254, 0.267138, 10.209822, 0.020729, 0.089883, -0.013807, -0.519239, 1.211218, 90.217318, 2.953999, 0.036272, 0.295788, -3.004979, -0.068447, 0.241403, -0.780055, 0.137978, 0.413482, 10.360280, 1.498763, 0.354846, 29.702178, -95.838161, 0.069000, 21.600000, -0.010750, 0.272405, -0.293045
4.2000, 0.220829, -0.039288, 10.056305, -0.014395, -0.012437, 0.156319, -0.548330, 1.189773, 91.853811, 2.800046, 0.028365, 0.326341, -3.079393, -0.075529, 0.284155, -0.756108, 0.325878, -0.243572, 9.953960, -0.223790, 1.257960, 29.702178, -95.838161, 0.069000, 21.600000, -0.003440, 0.270255, -0.288315
4.3000, 0.109721, -0.300451, 10.085018, 0.039666, 0.087745, -0.094136, -0.458016, 1.613389, 91.876762, 0.132073, 0.023914, 0.360767, -3.150953, -0.054848, 0.324222, -0.729107, 0.035650, -0.474559, 10.104161, -1.706337, 0.623056, 29.702178, -95.838161, 0.069000, 21.600000, 0.000430, 0.272835, -0.291325
4.4000, 0.763982, -0.035098, 9.911236, 0.040888, -0.003274, 0.491684, -0.214871, 1.930368, 95.196949, 5.909305, 0.016908, 0.409580, -3.222815, -0.064995, 0.433493, -0.722113, 1.200155, 0.141804, 9.795381, -0.202297, 4.407752, 29.702178, -95.838161, 0.069000, 21.600000, 0.006880, 0.271115, -0.290465
4.5000, 0.412076, -0.164850, 9.827720, -0.007218, 0.019022, 0.613551, -0.325259, 2.124175, 98.242774, 355.509816, 0.010358, 0.464685, -3.295079, -0.065328, 0.511864, -0.722466, 0.177473, -0.251352, 9.772043, -0.960147, 2.400668, 29.702178, -95.838161, 0.069000, 21.600000, 0.025800, 0.267675, -0.296485
4.6000, 0.203095, -0.007427, 9.749792, 0.042415, -0.067873, 1.184099, -0.075149, 1.724947, 103.203561, 349.238420, 0.002046, 0.523103, -3.368387, -0.077190, 0.560078, -0.729540, 0.063775, 0.097521, 9.697840, -0.043639, 1.193341, 29.702178, -95.838161, 0.069000, 21.600000, 0.051170, 0.256065, -0.294765
4.7000, -0.056789, -0.146601, 9.963132, 0.013857, -0.038704, 1.240757, -0.082787, 1.353005, 106.977319, 339.563198, -0.004558, 0.582250, -3.439062, -0.069758, 0.581009, -0.714350, -0.230044, -0.239384, 10.105358, -0.842996, -0.326539, 29.702178, -95.838160, 0.087000, 0.000000, 0.077830, 0.233705, -0.293475
4.8000, 0.322534, -0.080195, 9.965528, -0.013326, 0.088050, 1.758160, -0.192342, 1.892037, 111.929512, 330.397971, -0.014533, 0.649677, -3.508402, -0.089749, 0.643180, -0.700384, 0.575415, -0.035924, 9.967125, -0.460822, 1.853668, 29.702178, -95.838160, 0.087000, 21.600000, 0.127710, 0.195435, -0.296485
4.9000, -0.379549, -0.255416, 9.806351, 0.036001, 0.079803, 1.716774, -0.147800, 1.901754, 113.955866, 306.696056, -0.020025, 0.714658, -3.578378, -0.066531, 0.647599, -0.699967, -0.847604, -0.372231, 9.700234, -1.490874, -2.215740, 29.702178, -95.838160, 0.087000, 21.600000, 0.168130, 0.155015, -0.297345
5.0000, -0.246402, -0.570733, 9.815208, -0.011952, 0.113248, 1.947681, -0.554339, 2.141988, 114.951082, 291.704936, -0.020972, 0.784071, -3.648186, -0.028493, 0.678622, -0.698705, -0.157637, -0.780945, 9.821113, -3.326834, -1.435631, 29.702178, -95.838160, 0.087000, 21.600000, 0.196940, 0.103845, -0.296485
5.1000, -0.329221, -0.815345, 9.890919, -0.003705, 0.020397, 0.779554, -1.036156, 1.812769, 107.794746, 277.697259, -0.014661, 0.854625, -3.716564, 0.032579, 0.696569, -0.688755, -0.384434, -0.978420, 9.941393, -4.709853, -1.899958, 29.702178, -95.838160, 0.087000, 21.600000, 0.210700, 0.057835, -0.290035
5.2000, 0.208175, 0.055875, 9.692491, -0.048604, -0.122393, 0.669904, -1.189365, 1.093670, 100.201897, 285.518610, -0.016242, 0.929402, -3.787337, 0.000318, 0.730702, -0.701404, 0.566439, 0.636689, 9.560206, 0.330218, 1.230387, 29.702178, -95.838160, 0.087000, 21.600000, 0.205540, 0.031605, -0.297775
5.3000, 0.135897, -0.035827, 9.587628, -0.033332, 0.021771, 0.902643, -1.296835, 1.146358, 93.321409, 273.062676, -0.019208, 1.007222, -3.860907, -0.019667, 0.762363, -0.724270, 0.087711, -0.096962, 9.517719, -0.214081, 0.812061, 29.702178, -95.838160, 0.087000, 21.600000, 0.208120, 0.013975, -0.290895
5.4000, -0.592077, -0.354000, 9.619287, -0.040357, 0.104696, 0.497334, -1.620583, 1.164581, 83.634973, 263.885325, -0.020614, 1.077414, -3.935951, -0.015929, 0.722068, -0.741720, -1.077393, -0.566115, 9.640393, -2.103618, -3.519795, 29.702178, -95.838160, 0.087000, 21.600000, 0.205110, -0.009675, -0.291325
5.5000, -0.459951, -0.253993, 9.648108, -0.011799, -0.122698, 0.251003, -1.704338, 0.070637, 73.093332, 266.744751, -0.024636, 1.143334, -4.012494, -0.032123, 0.680161, -0.757525, -0.371868, -0.187322, 9.667321, -1.506294, -2.728435, 29.702175, -95.838158, 0.108000, 0.000000, 0.208550, -0.007095, -0.286165
5.6000, -0.372992, 0.334991, 9.894811, -0.206818, -0.101165, 0.270703, -2.420153, -0.754810, 63.605132, 271.826834, -0.041313, 1.209610, -4.087406, -0.121892, 0.668557, -0.751918, -0.315019, 0.727647, 10.059280, 1.937645, -2.157547, 29.702175, -95.838158, 0.108000, 22.100000, 0.199520, -0.013975, -0.291755
5.7000, -0.231930, -0.119502, 9.849515, 0.066086, 0.052773, 0.070034, -1.910519, -0.627742, 53.187820, 261.479501, -0.059066, 1.274263, -4.162074, -0.158980, 0.653871, -0.748429, -0.137889, -0.422497, 9.819318, -0.694930, -1.348817, 29.702175, -95.838158, 0.108000, 22.100000, 0.193930, -0.017415, -0.287885
5.8000, -0.628622, -0.180301, 10.043234, 0.028518, -0.008467, -0.028621, -1.674476, -1.064629, 42.845543, 262.469653, -0.085084, 1.332581, -4.233605, -0.226447, 0.606743, -0.726349, -0.893083, -0.220833, 10.172380, -1.026480, -3.580985, 29.702175, -95.838158, 0.108000, 22.100000, 0.206830, -0.024725, -0.289175
5.9000, -0.502934, -0.359728, 10.594662, 0.603495, -0.443555, -1.141617, 1.397023, -3.613789, 27.283270, 258.600952, -0.119064, 1.376980, -4.295440, -0.302014, 0.498241, -0.654349, -0.419142, -0.479346, 10.962281, -1.942470, -2.716256, 29.702175, -95.838158, 0.108000, 22.100000, 0.200810, -0.030315, -0.292185
6.0000, -0.259851, -0.044447, 10.106117, -0.001109, -0.011368, -0.005866, 1.202213, -3.544766, 19.322259, 266.538647, -0.160505, 1.418786, -4.357011, -0.376949, 0.444788, -0.628592, -0.097796, 0.165740, 9.780421, -0.251905, -1.472865, 29.702175, -95.838158, 0.108000, 22.100000, 0.196940, -0.016985, -0.290895
6.1000, -0.507661, 0.628492, 9.932960, -0.161309, 0.103322, 0.075837, 0.599043, -3.032836, 13.062270, 272.891084, -0.215070, 1.467429, -4.418547, -0.489414, 0.472549, -0.619772, -0.672868, 1.077118, 9.817522, 3.615766, -2.919941, 29.702175, -95.838158, 0.108000, 22.100000, 0.200810, -0.018705, -0.286595
6.2000, -0.268205, 0.421214, 9.932634, -0.019130, 0.037348, 0.114169, 0.682076, -2.769330, 7.274796, 264.779835, -0.275716, 1.517771, -4.478989, -0.567447, 0.493128, -0.609533, -0.108567, 0.283028, 9.932417, 2.427407, -1.545359, 29.702175, -95.838158, 0.108000, 22.100000, 0.202960, -0.026875, -0.284445
6.3000, 0.065266, -0.012844, 9.240981, 0.116177, -0.252813, -0.490435, 1.200553, -3.813399, -1.483356, 259.594847, -0.340778, 1.564201, -4.548754, -0.622895, 0.473911, -0.668276, 0.287580, -0.302217, 8.779879, -0.079636, 0.404655, 29.702173, -95.838158, 0.179000, 0.000000, 0.201670, -0.025155, -0.288315
6.4000, 0.105303, 0.022138, 9.499658, 0.030809, -0.019004, 0.180753, 1.241743, -3.500693, -5.897952, 263.163326, -0.410436, 1.609582, -4.620432, -0.672016, 0.460514, -0.700615, 0.131994, 0.045460, 9.672109, 0.133513, 0.635089, 29.702173, -95.838158, 0.179000, 22.500000, 0.198660, -0.024725, -0.292615
6.5000, -0.229112, 0.128047, 9.716587, -0.016686, -0.000525, 0.009558, 1.093053, -3.308417, -10.746715, 262.820981, -0.489433, 1.656997, -4.692326, -0.750652, 0.469604, -0.712831, -0.452055, 0.198652, 9.861206, 0.754799, -1.350635, 29.702173, -95.838158, 0.179000, 22.500000, 0.196940, -0.032035, -0.287025
6.6000, -0.004550, 0.363577, 9.960621, -0.010578, -0.015950, 0.009100, 1.128002, -3.066601, -14.791842, 267.502163, -0.571655, 1.708445, -4.761489, -0.798364, 0.499518, -0.698697, 0.145159, 0.520597, 10.123310, 2.090450, -0.026153, 29.702173, -95.838158, 0.179000, 22.500000, 0.203820, -0.023435, -0.283155
6.7000, 1.025976, 0.635876, 9.744787, -0.159323, -0.133999, -0.228374, 0.569612, -2.813012, -19.140826, 275.059844, -0.641100, 1.763348, -4.831670, -0.729091, 0.532526, -0.700774, 1.712993, 0.817408, 9.600898, 3.712960, 5.997558, 29.702173, -95.838158, 0.179000, 22.500000, 0.195650, -0.014835, -0.292185
6.8000, 1.708548, 0.664010, 9.726672, 0.028671, 0.163950, 0.173117, 1.066219, -0.596351, -20.812571, 272.130609, -0.688902, 1.814806, -4.902579, -0.561708, 0.520562, -0.706314, 2.163596, 0.682766, 9.714596, 3.846635, 9.940034, 29.702173, -95.838158, 0.179000, 22.500000, 0.201670, -0.017845, -0.288315
6.9000, 0.680394, 0.319808, 9.580117, 0.022104, -0.141941, -0.676443, 1.291875, -0.731368, -26.843865, 266.133997, -0.736902, 1.864471, -4.976468, -0.507238, 0.504621, -0.728035, -0.005042, 0.090340, 9.482413, 1.907166, 4.060153, 29.702173, -95.838158, 0.179000, 22.500000, 0.203820, -0.016555, -0.290895
7.0000, 0.168599, 0.758755, 10.201887, 0.057992, -0.092002, -0.156750, 1.925519, -0.892371, -28.751228, 277.792950, -0.784504, 1.920330, -5.043077, -0.486427, 0.540601, -0.686734, -0.172597, 1.051387, 10.616400, 4.252908, 0.944192, 29.702171, -95.838158, 0.179000, 0.000000, 0.202960, -0.000215, -0.293905
7.1000, -0.261600, -0.139931, 10.071801, -0.094724, 0.057812, 0.208853, 1.198051, -0.509600, -29.018102, 264.790467, -0.840303, 1.972348, -5.107941, -0.534133, 0.526985, -0.661339, -0.548399, -0.739056, 9.985077, -0.795713, -1.487692, 29.702171, -95.838158, 0.179000, 23.100000, 0.205970, 0.000645, -0.294335
7.2000, -0.342122, -0.140360, 9.931082, 0.063184, -0.019004, 0.191443, 1.344170, -0.616955, -29.368553, 265.501369, -0.902332, 2.023469, -5.172413, -0.591567, 0.516472, -0.650260, -0.395804, -0.140646, 9.837270, -0.809251, -1.972842, 29.702171, -95.838158, 0.179000, 23.100000, 0.212850, -0.013545, -0.297775
7.3000, -0.304676, -0.162074, 9.794728, 0.027143, -0.006329, 0.368442, 1.263448, -0.635909, -28.778963, 264.170805, -0.969652, 2.073131, -5.237817, -0.645990, 0.503238, -0.652781, -0.279713, -0.176551, 9.703825, -0.947535, -1.781434, 29.702171, -95.838158, 0.179000, 23.100000, 0.223600, -0.018275, -0.305945
7.4000, -0.427572, -0.154603, 9.887754, 0.041651, -0.008314, 0.346298, 1.258486, -0.741726, -28.359894, 263.000381, -1.044231, 2.122506, -5.302111, -0.712527, 0.496912, -0.646220, -0.509502, -0.149622, 9.949771, -0.894957, -2.475771, 29.702171, -95.838158, 0.179000, 23.100000, 0.208550, -0.023005, -0.312395
7.5000, -0.096141, -0.179979, 9.871107, 0.017370, 0.060867, 0.514591, 1.101585, -0.292000, -27.599304, 253.573474, -1.120000, 2.168300, -5.365905, -0.742632, 0.470930, -0.640699, 0.124813, -0.196897, 9.860010, -1.044504, -0.557930, 29.702171, -95.838158, 0.179000, 23.100000, 0.196080, -0.050525, -0.305515
7.6000, 0.731185, 0.039301, 9.823876, -0.053491, -0.410569, 0.283531, 0.717186, -1.810959, -28.485127, 249.578398, -1.189319, 2.211283, -5.429498, -0.709674, 0.443527, -0.637519, 1.282736, 0.185487, 9.792389, 0.228581, 4.256607, 29.702171, -95.838158, 0.179000, 23.100000, 0.190490, -0.061705, -0.307665
7.7000, 0.724612, 0.403837, 9.888283, -0.033638, -0.015950, 1.112475, 0.690398, -1.118656, -25.596995, 242.783755, -1.251254, 2.256043, -5.491829, -0.649456, 0.446243, -0.628050, 0.720231, 0.646862, 9.931220, 2.332412, 4.187659, 29.702168, -95.838157, 0.085000, 0.000000, 0.157380, -0.090515, -0.319705
7.8000, 0.393097, 0.511593, 9.804177, -0.077620, 0.086065, 1.906906, 0.517649, -0.141109, -20.191863, 226.880403, -1.308815, 2.304712, -5.554644, -0.600229, 0.473209, -0.628116, 0.172087, 0.583430, 9.748107, 2.984655, 2.292921, 29.702168, -95.838157, 0.085000, 23.800000, 0.122980, -0.129215, -0.317125
7.9000, 0.589018, 0.308390, 9.777357, -0.032721, -0.079174, 1.597808, 0.484696, 0.020071, -18.972975, 204.262534, -1.359334, 2.352345, -5.617915, -0.536866, 0.475288, -0.631176, 0.719632, 0.172921, 9.759477, 1.803312, 3.445799, 29.702168, -95.838157, 0.085000, 23.800000, 0.090730, -0.155015, -0.315405
8.0000, 0.197395, -0.098905, 9.917428, 0.044553, -0.025876, 1.279394, 0.612790, 0.218170, -21.396466, 191.130812, -1.410858, 2.395724, -5.679457, -0.522449, 0.447625, -0.620678, -0.063687, -0.370435, 10.010809, -0.571272, 1.140201, 29.702168, -95.838157, 0.085000, 23.800000, 0.034830, -0.175655, -0.320565
8.1000, 0.248275, 0.189497, 9.757670, 0.039361, -0.149576, 1.364457, 0.869040, -0.201276, -24.949705, 175.056091, -1.459930, 2.439697, -5.742272, -0.501297, 0.442360, -0.625654, 0.282194, 0.381766, 9.651164, 1.112205, 1.457249, 29.702168, -95.838157, 0.085000, 23.800000, -0.005160, -0.180815, -0.320995
8.2000, -0.244450, 0.014749, 9.302406, 0.044248, 0.013830, 1.483729, 1.019069, -0.036403, -29.561967, 160.082235, -1.514442, 2.483819, -5.812472, -0.530509, 0.441603, -0.676550, -0.572933, -0.101749, 8.998898, 0.090814, -1.505279, 29.702168, -95.838157, 0.085000, 23.800000, -0.089010, -0.185115, -0.321425
8.3000, 0.237057, 0.832771, 9.608963, -0.301044, -0.156143, 1.013515, -0.119840, -0.467181, -38.259586, 140.993296, -1.557701, 2.536551, -5.883144, -0.465235, 0.498744, -0.696669, 0.558061, 1.378119, 9.813334, 4.951724, 1.407947, 29.702168, -95.838157, 0.085000, 23.800000, -0.091590, -0.179525, -0.314975
8.4000, 0.241879, 0.080328, 9.629975, 0.049898, 0.001765, 0.013834, 0.225645, -0.028579, -51.954067, 147.249618, -1.601532, 2.584016, -5.955506, -0.447285, 0.482687, -0.714635, 0.245093, -0.421300, 9.643984, 0.477770, 1.438760, 29.702166, -95.838158, 0.092000, 0.000000, -0.113950, -0.176085, -0.312825
8.5000, 0.634808, 0.271962, 9.509483, 0.450778, 0.138294, -0.384755, 2.715159, 1.320860, -67.398185, 137.735465, -1.643814, 2.619430, -6.031702, -0.430976, 0.396983, -0.746182, 0.896762, 0.399718, 9.429154, 1.634523, 3.817574, 29.702166, -95.838158, 0.092000, 24.400000, -0.119110, -0.175655, -0.311105
8.6000, 0.391644, 0.099438, 9.673123, 0.008817, -0.011979, -0.005102, 2.562099, 1.617078, -79.353989, 146.229072, -1.689981, 2.648412, -6.108675, -0.451437, 0.325542, -0.761883, 0.229534, -0.015578, 9.782216, 0.588487, 2.318394, 29.702166, -95.838158, 0.092000, 24.400000, -0.115240, -0.182535, -0.305945
8.7000, 0.086850, -0.299535, 10.453439, -0.134278, 0.182582, 0.126234, 1.447446, 2.694178, -89.189167, 151.672786, -1.743454, 2.672183, -6.175610, -0.506963, 0.266990, -0.700191, -0.116347, -0.565517, 10.973651, -1.641260, 0.475821, 29.702166, -95.838158, 0.092000, 24.400000, -0.111370, -0.184255, -0.316695
8.8000, 0.002632, -0.401318, 10.168832, 0.168711, -0.173095, 0.794215, 1.922481, 1.772699, -94.637899, 150.942940, -1.805631, 2.695049, -6.240608, -0.583503, 0.241435, -0.666721, -0.053514, -0.469173, 9.979093, -2.260033, 0.014817, 29.702166, -95.838158, 0.092000, 24.400000, -0.114810, -0.188985, -0.314975
8.9000, 0.766745, -0.308107, 9.914242, 0.069751, 0.215568, -0.488144, 1.866703, 3.389997, -106.852472, 140.627967, -1.878912, 2.702545, -6.306886, -0.683042, 0.130451, -0.664092, 1.276153, -0.245966, 9.744516, -1.774723, 4.420196, 29.702166, -95.838158, 0.092000, 24.400000, -0.119110, -0.185975, -0.312395
9.0000, 0.326651, 0.031135, 9.836463, 0.046691, -0.038857, -0.175839, 1.880723, 3.277360, -115.871121, 151.751754, -1.956967, 2.705511, -6.373484, -0.748047, 0.063259, -0.665349, 0.033256, 0.257297, 9.784610, 0.181257, 1.901983, 29.702166, -95.838158, 0.092000, 24.400000, -0.099760, -0.195865, -0.310675
9.1000, 1.266170, 0.509721, 9.777345, -0.153520, -0.135527, 0.679067, 1.144088, 3.239856, -120.357289, 137.369522, -2.041478, 2.685933, -6.441693, -0.812757, -0.109433, -0.676512, 1.892516, 0.828778, 9.737934, 2.959622, 7.368864, 29.702165, -95.838159, 0.085000, 0.000000, -0.098040, -0.190705, -0.300355
9.2000, 1.080070, 0.124887, 9.717435, 0.012941, 0.015204, -0.065425, 1.117667, 3.897010, -127.740125, 149.192698, -2.139479, 2.654967, -6.512162, -0.924254, -0.242918, -0.695297, 0.956004, -0.131670, 9.677494, 0.731807, 6.341743, 29.702165, -95.838159, 0.085000, 24.800000, -0.089010, -0.195435, -0.308955
9.3000, 0.396689, -0.111628, 9.558469, -0.018519, -0.146522, -0.073825, 0.784877, 3.257700, -133.776898, 156.048121, -2.244277, 2.623022, -6.586071, -1.006738, -0.293943, -0.724491, -0.058899, -0.269304, 9.452492, -0.668519, 2.376322, 29.702165, -95.838159, 0.085000, 24.800000, -0.090730, -0.191135, -0.309815
9.4000, -0.086347, 0.314024, 10.005447, 0.019355, -0.001442, 0.337287, 0.928885, 3.126690, -136.649623, 157.471417, -2.348402, 2.587238, -6.655685, -1.029749, -0.336538, -0.705588, -0.408371, 0.597792, 10.303431, 1.797589, -0.494207, 29.702165, -95.838159, 0.085000, 24.800000, -0.084710, -0.193285, -0.301645
9.5000, -0.827106, -0.056798, 9.980658, -0.000346, 0.059492, -0.096580, 0.741365, 2.861097, -140.436423, 169.293406, -2.449361, 2.558868, -6.723274, -1.016307, -0.301314, -0.685795, -1.320946, -0.304012, 9.964133, -0.324939, -4.737253, 29.702165, -95.838159, 0.085000, 24.800000, -0.081700, -0.201025, -0.313255
9.6000, -0.462406, 0.031485, 9.691764, 0.027602, 0.068961, -0.062829, 0.763793, 2.836768, -143.859272, 157.252920, -2.552071, 2.529763, -6.793469, -1.023507, -0.294473, -0.696562, -0.219273, 0.090340, 9.499168, 0.185922, -2.731569, 29.702165, -95.838159, 0.085000, 24.800000, -0.088580, -0.197155, -0.309385
9.7000, 0.108943, 0.165895, 9.850518, 0.046233, -0.028625, 0.502527, 0.957135, 2.631608, -144.379566, 151.567167, -2.661253, 2.495397, -6.862727, -1.069047, -0.327264, -0.693909, 0.489843, 0.255501, 9.956354, 0.964782, 0.633554, 29.702164, -95.838159, 0.026000, 0.000000, -0.090300, -0.201025, -0.296485
9.8000, 0.798139, 0.105482, 9.836106, 0.001487, 0.113554, 0.161206, 0.864109, 3.582244, -147.037790, 145.447263, -2.786268, 2.451693, -6.932756, -1.189781, -0.400447, -0.698160, 1.257603, 0.065207, 9.826499, 0.612403, 4.638767, 29.702164, -95.838159, 0.026000, 25.200000, -0.099760, -0.203175, -0.311965
9.9000, 0.575820, 0.233553, 9.704676, 0.009734, -0.154616, 0.059344, 0.900944, 2.934046, -149.965370, 146.209581, -2.918559, 2.402549, -7.004748, -1.278531, -0.461107, -0.712665, 0.427608, 0.318933, 9.617055, 1.376194, 3.394645, 29.702164, -95.838159, 0.026000, 25.200000, -0.115240, -0.203175, -0.313685
10.0000, 1.143947, 0.980971, 10.299463, 0.020118, 0.022840, 0.153570, 1.408477, 3.569537, -152.706904, 136.632396, -3.065192, 2.334468, -7.069726, -1.403735, -0.607575, -0.670743, 1.522698, 1.479250, 10.695988, 5.407663, 6.309465, 29.702164, -95.838159, 0.026000, 25.200000, -0.121690, -0.213495, -0.304225
10.1000, 0.501229, 0.408893, 10.400941, 0.034779, 0.064685, 0.030939, 1.633395, 4.000698, -154.987256, 150.408373, -3.221522, 2.264408, -7.128730, -1.510108, -0.669594, -0.616940, 0.072751, 0.027507, 10.468592, 2.248706, 2.756868, 29.702164, -95.838159, 0.026000, 25.200000, -0.118680, -0.213495, -0.303795
10.2000, -0.129984, 0.372510, 10.019294, 0.017217, 0.039944, 0.135855, 1.735859, 3.889721, -155.916896, 153.002701, -3.379649, 2.193137, -7.187398, -1.557551, -0.698340, -0.596769, -0.550792, 0.348255, 9.764862, 2.129056, -0.742762, 29.702164, -95.838159, 0.026000, 25.200000, -0.123840, -0.219945, -0.308955
10.3000, -0.177454, 0.071079, 9.805597, 0.066850, 0.035516, -0.055652, 1.906875, 3.710698, -157.663426, 148.121146, -3.543204, 2.124237, -7.247323, -1.609553, -0.692111, -0.598423, -0.209100, -0.129875, 9.663133, 0.415253, -1.036751, 29.702164, -95.838159, 0.026000, 25.200000, -0.135020, -0.202315, -0.305085
10.4000, -0.216189, 0.254619, 9.822806, -0.067846, -0.004649, 1.239535, 1.471018, 3.293844, -153.039643, 138.138980, -3.708806, 2.052623, -7.306981, -1.640530, -0.708134, -0.597194, -0.242013, 0.376979, 9.834278, 1.484484, -1.260390, 29.702164, -95.838159, 0.026000, 25.200000, -0.167700, -0.190705, -0.304225
10.5000, -0.513893, -0.018445, 9.890009, 0.059825, 0.077513, 0.991219, 1.570878, 3.138355, -151.492246, 120.368251, -3.875303, 1.985425, -7.365364, -1.656819, -0.684030, -0.588284, -0.712363, -0.200487, 9.934811, -0.106711, -2.974458, 29.702163, -95.838161, 0.047000, 0.000000, -0.262300, -0.134375, -0.299495
10.6000, -0.410726, 0.038209, 9.846876, -0.063112, 0.025895, 0.841251, 1.053720, 2.760065, -151.980409, 110.838739, -4.042837, 1.918464, -7.423528, -1.669169, -0.674417, -0.583857, -0.341947, 0.075978, 9.818121, 0.222133, -2.388477, 29.702163, -95.838161, 0.047000, 25.200000, -0.294120, -0.110295, -0.303365
10.7000, -0.356533, 0.119036, 9.810952, 0.096782, -0.031221, 1.423559, 1.455602, 2.130429, -150.439152, 101.835852, -4.210827, 1.852659, -7.481805, -1.676326, -0.663505, -0.583129, -0.320404, 0.172921, 9.787003, 0.694677, -2.081077, 29.702163, -95.838161, 0.047000, 25.200000, -0.327230, -0.072025, -0.304225
10.8000, -0.232887, 0.754923, 9.618855, 0.311654, -0.164848, 2.403997, 3.308352, 0.928571, -145.346273, 88.648786, -4.375822, 1.784511, -7.542534, -1.658740, -0.675488, -0.599239, -0.150456, 1.178848, 9.490791, 4.486276, -1.382694, 29.702163, -95.838161, 0.047000, 25.200000, -0.367650, -0.027735, -0.287025
10.9000, 0.006507, 0.980195, 9.513293, 0.027143, -0.181800, 1.573679, 3.659504, -0.101132, -109.097093, 76.884373, -4.536387, 1.715288, -7.606261, -1.623344, -0.686646, -0.624594, 0.166103, 1.130377, 9.442918, 5.882671, 0.038984, 29.702163, -95.838161, 0.047000, 25.200000, -0.392590, 0.059555, -0.288745
11.0000, 0.407454, 0.432280, 9.667466, -0.010119, 0.142417, 0.218627, 3.450394, 0.887863, -82.632251, 72.958213, -4.699885, 1.638044, -7.670843, -1.631106, -0.743848, -0.638745, 0.674751, 0.067002, 9.770248, 2.558000, 2.411005, 29.702163, -95.838161, 0.047000, 25.200000, -0.385280, 0.121905, -0.273265
11.1000, 0.128360, 0.279537, 10.047250, 0.052189, -0.095668, -0.009684, 3.477754, 0.386007, -59.052264, 70.722182, -4.865735, 1.558588, -7.731199, -1.649366, -0.777654, -0.615284, -0.057702, 0.177708, 10.300439, 1.593554, 0.731667, 29.702163, -95.838162, 0.053000, 0.000000, -0.380980, 0.127925, -0.276275
11.2000, 0.041856, 0.138372, 10.002047, -0.009050, 0.016426, -0.003117, 3.093979, 0.462731, -36.731848, 71.469151, -5.032801, 1.474894, -7.789963, -1.663565, -0.817177, -0.596857, -0.015814, 0.044263, 9.971912, 0.792595, 0.239742, 29.702163, -95.838162, 0.053000, 25.200000, -0.381840, 0.126635, -0.272405
11.3000, 0.107787, 0.169873, 9.869790, 0.004236, -0.011368, -0.003728, 2.825265, 0.427556, -15.620810, 71.873859, -5.197817, 1.387867, -7.848822, -1.654626, -0.852574, -0.591348, 0.151741, 0.190873, 9.781618, 0.985984, 0.625604, 29.702163, -95.838162, 0.053000, 25.200000, -0.373240, 0.118465, -0.265955
11.4000, 1.458680, 0.516386, 9.970917, 0.014010, 0.435938, 0.098897, 2.826333, 3.491847, 4.847029, 72.880542, -5.332460, 1.305586, -7.906954, -1.449160, -0.832731, -0.584661, 2.359276, 0.747394, 10.038336, 2.933485, 8.311975, 29.702163, -95.838162, 0.053000, 25.200000, -0.381410, 0.120615, -0.279285
11.5000, 0.227145, 0.104933, 9.880676, -0.055782, 0.014441, -0.053055, 2.228178, 3.375034, 23.218840, 70.536131, -5.464582, 1.223242, -7.964869, -1.363871, -0.826535, -0.580983, -0.593878, -0.169370, 9.820514, 0.608296, 1.316858, 29.702163, -95.838162, 0.053000, 25.200000, -0.365930, 0.128355, -0.274985
11.6000, 0.409897, 0.102640, 9.716399, -0.105873, 0.042235, 0.005588, 1.425326, 3.515415, 40.688314, 70.027973, -5.588180, 1.148834, -8.025029, -1.278607, -0.771568, -0.594730, 0.531731, 0.101112, 9.606882, 0.604689, 2.415519, 29.702163, -95.838162, 0.053000, 25.200000, -0.361200, 0.133945, -0.277995
11.7000, -0.639739, 0.173891, 10.111704, -0.108774, 0.068350, -0.237079, 0.725543, 3.142633, 55.545647, 66.415743, -5.717323, 1.071022, -8.079657, -1.287159, -0.775931, -0.562434, -1.339497, 0.221392, 10.375241, 0.983254, -3.619585, 29.702163, -95.838162, 0.053000, 25.200000, -0.358190, 0.133515, -0.267675
11.8000, -0.308828, 0.383351, 9.530191, 0.201545, -0.211579, 0.229164, 1.830218, 1.515952, 71.834794, 68.146311, -5.847426, 0.992994, -8.139915, -1.296403, -0.778834, -0.589194, -0.088221, 0.522991, 9.142516, 2.302268, -1.854537, 29.702162, -95.838165, 0.018000, 0.000000, -0.363350, 0.129645, -0.263805
11.9000, -0.544486, 0.023354, 9.045536, 0.071737, 0.021008, -0.275716, 1.932715, 1.068218, 84.487709, 70.985207, -5.973401, 0.909093, -8.210238, -1.271970, -0.818950, -0.665218, -0.701592, -0.216644, 8.722432, 0.147660, -3.444690, 29.702162, -95.838165, 0.018000, 25.600000, -0.359910, 0.123625, -0.265095
12.0000, -0.449891, -0.656701, 9.499752, 0.136641, 0.029102, 0.617675, 1.922372, 0.759670, 101.045498, 73.120670, -6.085312, 0.825226, -8.281747, -1.170064, -0.832096, -0.698467, -0.386828, -1.110070, 9.802562, -3.950049, -2.704954, 29.702162, -95.838165, 0.018000, 25.600000, -0.347870, 0.133515, -0.255205
12.1000, -1.122246, -0.203090, 9.363682, 0.009428, -0.114604, 0.177699, 1.508484, -0.702901, 113.683350, 66.682651, -6.188691, 0.727734, -8.358634, -1.079213, -0.927315, -0.745405, -1.570483, 0.099316, 9.272969, -1.233676, -6.832763, 29.702162, -95.838165, 0.018000, 25.600000, -0.342710, 0.123195, -0.264665
12.2000, -0.788350, -0.007643, 9.644962, 0.085176, 0.026964, 0.319725, 1.634289, -1.097344, 125.929506, 67.808744, -6.284616, 0.625674, -8.435966, -0.999235, -0.989500, -0.764010, -0.565753, 0.122654, 9.832483, -0.045255, -4.672794, 29.702162, -95.838165, 0.018000, 25.600000, -0.326800, 0.123195, -0.269395
12.3000, 0.142650, 0.297093, 9.701463, 0.004541, -0.069095, -0.023734, 1.510197, -1.391969, 135.338251, 68.615965, -6.383981, 0.525301, -8.513919, -0.995512, -0.998987, -0.774357, 0.763316, 0.500251, 9.739131, 1.753863, 0.842018, 29.702162, -95.838165, 0.018000, 25.600000, -0.329380, 0.124485, -0.271115
12.4000, 0.315779, 0.156166, 9.728731, -0.023864, -0.207456, 0.004366, 1.167871, -2.248243, 144.085905, 69.079734, -6.482357, 0.425332, -8.592483, -0.987681, -0.999454, -0.781878, 0.431199, 0.062215, 9.746910, 0.919153, 1.858837, 29.702162, -95.838165, 0.018000, 25.600000, -0.330670, 0.129215, -0.269825
12.5000, 0.170321, 0.041989, 9.773389, -0.014548, -0.026487, 0.449839, 0.837641, -2.152373, 154.286988, 68.647322, -6.577808, 0.325470, -8.671233, -0.965568, -0.998904, -0.785632, 0.073349, -0.034129, 9.803161, 0.246119, 0.998385, 29.702160, -95.838166, 0.176000, 0.000000, -0.332820, 0.131795, -0.264235
12.6000, -0.724798, 0.365418, 9.763605, 0.087161, 0.252831, 0.361417, 1.256912, -1.158305, 162.594162, 61.453924, -6.661845, 0.219278, -8.750657, -0.882099, -1.040912, -0.791370, -1.321544, 0.581036, 9.757083, 2.137504, -4.242587, 29.702160, -95.838166, 0.176000, 26.000000, -0.332820, 0.141685, -0.268105
12.7000, -1.070279, 0.664618, 9.927007, -0.026918, 0.056132, -0.547398, 1.225308, -1.491900, 165.047396, 59.708081, -6.732549, 0.103491, -8.828329, -0.765397, -1.118883, -0.781598, -1.300600, 0.864084, 10.035942, 3.808258, -6.139929, 29.702160, -95.838166, 0.176000, 26.000000, -0.336260, 0.149425, -0.264235
12.8000, -0.307266, 0.532606, 9.784122, -0.002942, 0.016884, 0.006046, 1.262743, -1.567919, 170.231362, 65.546210, -6.801394, -0.014545, -8.906917, -0.714095, -1.159868, -0.784457, 0.201409, 0.444599, 9.688864, 3.114334, -1.796101, 29.702160, -95.838166, 0.176000, 26.000000, -0.328090, 0.139965, -0.265525
12.9000, -0.063099, 0.483392, 9.793032, 0.003167, -0.015950, -0.005561, 1.308229, -1.657781, 174.711674, 63.981920, -6.867985, -0.134890, -8.985579, -0.681974, -1.188920, -0.785899, 0.099679, 0.450583, 9.798972, 2.825817, -0.368716, 29.702160, -95.838166, 0.176000, 26.000000, -0.323790, 0.147275, -0.270255
13.0000, 0.018770, 0.408773, 10.116147, 0.033252, 0.271768, 0.515202, 1.458965, -0.204307, 181.387188, 65.715755, -6.935868, -0.256041, -9.059470, -0.679876, -1.203981, -0.754571, 0.073349, 0.359026, 10.331557, 2.313943, 0.106223, 29.702160, -95.838166, 0.176000, 26.000000, -0.328090, 0.139535, -0.274555
13.1000, 0.536589, -0.284592, 9.909326, -0.058378, -0.164237, 2.289460, 0.717715, -0.828191, 196.341108, 64.952955, -7.011242, -0.372216, -9.133401, -0.729122, -1.175830, -0.744400, 0.881801, -0.746835, 9.771445, -1.642656, 3.098258, 29.702160, -95.838166, 0.176000, 26.000000, -0.310030, 0.174365, -0.268965
13.2000, 0.335122, 0.109119, 9.759815, -0.105109, 0.100726, 1.772515, 0.036997, -0.121948, 205.842270, 48.728577, -7.087726, -0.493242, -9.208583, -0.752931, -1.198786, -0.749343, 0.200811, 0.371593, 9.660141, 0.640188, 1.966465, 29.702159, -95.838168, 0.057000, 0.000000, -0.261010, 0.223815, -0.276275
13.3000, -0.100202, 0.866928, 9.925132, -0.146648, 0.018564, 2.378188, -0.331254, -0.162965, 215.519784, 29.271954, -7.153396, -0.623286, -9.281873, -0.688779, -1.266555, -0.738380, -0.390418, 1.372135, 10.035344, 4.991679, -0.576234, 29.702159, -95.838168, 0.057000, 0.000000, -0.176300, 0.260795, -0.269395
13.4000, -0.398562, 0.325217, 9.982283, 0.087161, 0.013066, 1.676151, 0.244932, -0.407693, 218.887390, 19.191284, -7.214131, -0.748819, -9.353153, -0.634490, -1.259067, -0.721331, -0.597468, -0.035924, 10.020383, 1.864518, -2.285219, 29.702159, -95.838168, 0.057000, 26.200000, -0.111800, 0.275845, -0.267675
13.5000, 0.208444, 0.390024, 10.209799, -0.007981, 0.027116, 1.328569, 0.315466, -0.207021, 218.719480, 14.872875, -7.276455, -0.880241, -9.419249, -0.626994, -1.295841, -0.681083, 0.613115, 0.433229, 10.361477, 2.187235, 1.168742, 29.702159, -95.838168, 0.057000, 26.200000, -0.061060, 0.278855, -0.271115
13.6000, -0.498430, 0.233193, 9.915191, 0.048676, 0.089272, 0.527419, 0.592877, -0.120149, 212.596804, 359.511751, -7.331538, -1.007280, -9.485767, -0.576215, -1.278870, -0.670482, -0.969679, 0.128639, 9.718785, 1.345578, -2.877003, 29.702159, -95.838168, 0.057000, 26.200000, -0.024940, 0.277565, -0.274125
13.7000, 0.004413, 0.549254, 9.929835, -0.139928, -0.085894, 0.450450, 0.066269, -0.656134, 205.639757, 1.525816, -7.384191, -1.141730, -9.551018, -0.543091, -1.322622, -0.658496, 0.339642, 0.759961, 9.939598, 3.166003, 0.025425, 29.702159, -95.838168, 0.057000, 26.200000, 0.001720, 0.266815, -0.274985
13.8000, -0.758847, 1.050881, 10.368702, -0.074718, 0.243210, 0.867060, 0.217262, 0.122372, 199.906300, 348.019011, -7.422944, -1.284496, -9.608404, -0.439382, -1.392651, -0.602075, -1.267687, 1.385300, 10.661281, 5.771906, -4.164546, 29.702159, -95.838168, 0.057000, 26.200000, 0.030960, 0.264665, -0.276275
13.9000, -1.679197, -0.574217, 10.026864, 0.162908, -0.026334, 0.266733, 0.669643, -1.141315, 189.542147, 330.151285, -7.440814, -1.408864, -9.666001, -0.265599, -1.293332, -0.584672, -2.292764, -1.657615, 9.798972, -3.232703, -9.491822, 29.702159, -95.838168, 0.057000, 26.200000, 0.063210, 0.260795, -0.274555
14.0000, -0.409728, -0.197384, 9.922443, -0.014701, -0.091544, -0.082071, 0.358266, -1.916260, 178.439801, 350.742042, -7.456154, -1.534610, -9.723092, -0.190795, -1.269417, -0.575495, 0.436584, 0.053837, 9.852829, -1.138648, -2.364109, 29.702158, -95.838172, 0.049000, 0.000000, 0.054180, 0.255635, -0.275845
14.1000, -0.240162, -0.181653, 9.769370, -0.010425, -0.008008, -0.008004, 0.100316, -2.085122, 168.231339, 345.557096, -7.465881, -1.660454, -9.781484, -0.128449, -1.262104, -0.581112, -0.127118, -0.171165, 9.667321, -1.064919, -1.407985, 29.702158, -95.838172, 0.049000, 26.400000, 0.062780, 0.262515, -0.272835
14.2000, -0.197110, -0.096370, 9.785695, 0.006985, -0.011215, -0.003575, 0.003902, -2.222701, 158.627564, 346.653155, -7.470143, -1.788460, -9.840185, -0.071228, -1.274076, -0.585044, -0.168408, -0.039515, 9.796578, -0.564118, -1.153877, 29.702158, -95.838172, 0.049000, 26.400000, 0.056760, 0.259935, -0.271115
14.3000, -0.174862, -0.065129, 9.792584, 0.005305, -0.015186, -0.004797, -0.075350, -2.346731, 149.621494, 347.555222, -7.469420, -1.919559, -9.899180, -0.018921, -1.298682, -0.588315, -0.160031, -0.044302, 9.797176, -0.381000, -1.022976, 29.702158, -95.838172, 0.049000, 26.400000, 0.052890, 0.261225, -0.274985
14.4000, -0.168477, -0.053351, 9.795339, -0.000193, -0.014117, -0.001895, -0.169182, -2.440973, 141.146653, 346.975644, -7.464242, -2.054651, -9.958471, 0.028209, -1.333511, -0.591376, -0.164219, -0.045499, 9.797176, -0.312016, -0.985356, 29.702158, -95.838172, 0.049000, 26.400000, 0.055040, 0.259075, -0.274555
14.5000, -0.166999, -0.044331, 9.789261, 0.003625, -0.013659, -0.006019, -0.229022, -2.513979, 133.135926, 346.531127, -7.455250, -2.194476, -10.018169, 0.069355, -1.376664, -0.595115, -0.166015, -0.038318, 9.785208, -0.259427, -0.977330, 29.702158, -95.838172, 0.049000, 26.400000, 0.056330, 0.256065, -0.279715
14.6000, -0.168204, -0.047904, 9.793292, 0.006221, -0.013354, -0.003117, -0.271651, -2.569800, 125.612229, 346.095083, -7.442993, -2.339533, -10.078190, 0.104828, -1.425937, -0.598513, -0.169007, -0.050286, 9.795980, -0.280220, -0.983970, 29.702158, -95.838172, 0.049000, 26.400000, 0.056760, 0.249615, -0.272405
14.7000, -0.166172, -0.039639, 9.796341, 0.002709, -0.015492, -0.006324, -0.322914, -2.620533, 118.554550, 346.051794, -7.428314, -2.490327, -10.138513, 0.132804, -1.480604, -0.601656, -0.164818, -0.034129, 9.798373, -0.231802, -0.971789, 29.702158, -95.838172, 0.049000, 26.400000, 0.058050, 0.253055, -0.271975
14.8000, -0.164641, -0.039205, 9.797201, 0.005152, -0.010452, -0.004950, -0.355526, -2.629819, 111.940320, 345.283415, -7.411893, -2.647051, -10.199138, 0.153743, -1.538363, -0.604718, -0.163621, -0.038916, 9.797775, -0.229246, -0.962754, 29.702157, -95.838174, 0.051000, 0.000000, 0.061490, 0.253055, -0.281005
14.9000, -0.166183, -0.038673, 9.797904, 0.001487, -0.016102, -0.004797, -0.402532, -2.658616, 105.808092, 345.651993, -7.394418, -2.809966, -10.260064, 0.167743, -1.598886, -0.607750, -0.167211, -0.038318, 9.798373, -0.226116, -0.971700, 29.702157, -95.838174, 0.051000, 26.600000, 0.059340, 0.251765, -0.280575
15.0000, -0.161415, -0.043487, 9.798186, 0.005305, -0.009536, -0.003881, -0.426972, -2.638225, 100.215183, 346.760666, -7.376451, -2.978971, -10.321283, 0.175695, -1.659665, -0.610708, -0.158235, -0.046696, 9.798373, -0.254255, -0.943792, 29.702157, -95.838174, 0.051000, 26.600000, 0.055040, 0.254345, -0.278425
15.1000, -0.159866, -0.047207, 9.798298, -0.000193, -0.008925, -0.004186, -0.478383, -2.606249, 95.014307, 345.499470, -7.358605, -3.154027, -10.382790, 0.177538, -1.720261, -0.613613, -0.158834, -0.049688, 9.798373, -0.276006, -0.934727, 29.702157, -95.838174, 0.051000, 26.600000, 0.061490, 0.256495, -0.277135
15.2000, -0.164632, -0.046900, 9.798343, 0.004236, -0.014881, -0.003575, -0.500380, -2.601572, 90.166111, 344.515874, -7.341405, -3.335193, -10.444589, 0.173848, -1.781193, -0.616532, -0.167810, -0.046696, 9.798373, -0.274208, -0.962585, 29.702157, -95.838174, 0.051000, 26.600000, 0.064930, 0.252195, -0.268105
15.3000, -0.167616, -0.044982, 9.794412, 0.001792, -0.011979, -0.006935, -0.530203, -2.575023, 85.754374, 345.620757, -7.325378, -3.522349, -10.506737, 0.164798, -1.841437, -0.619833, -0.169605, -0.043704, 9.791791, -0.263099, -0.980421, 29.702157, -95.838174, 0.051000, 26.600000, 0.061060, 0.258215, -0.278855
15.4000, -0.171323, -0.045651, 9.797148, 0.006527, -0.017782, -0.004644, -0.531502, -2.574192, 81.754515, 345.408639, -7.310884, -3.715468, -10.569177, 0.151556, -1.901273, -0.622877, -0.173794, -0.046097, 9.798972, -0.266935, -1.001819, 29.702157, -95.838176, 0.046000, 0.000000, 0.060200, 0.251335, -0.276275
15.5000, -0.174601, -0.039815, 9.793934, 0.004083, -0.022669, -0.008157, -0.540176, -2.591634, 78.093140, 345.037666, -7.298410, -3.914493, -10.631975, 0.133681, -1.960589, -0.626280, -0.176786, -0.035924, 9.791791, -0.232885, -1.021320, 29.702157, -95.838176, 0.046000, 26.500000, 0.061920, 0.250475, -0.264235
15.6000, -0.170885, -0.045739, 9.790853, 0.008512, -0.019462, -0.009226, -0.527068, -2.579655, 74.775841, 344.961756, -7.288092, -4.119226, -10.695155, 0.113349, -2.018417, -0.629956, -0.168408, -0.049688, 9.788799, -0.267618, -0.999903, 29.702157, -95.838176, 0.046000, 26.500000, 0.062780, 0.253055, -0.281005
15.7000, -0.153960, -0.048108, 9.795365, 0.006069, -0.013201, -0.005102, -0.527820, -2.517474, 71.982050, 347.568490, -7.280067, -4.329203, -10.758613, 0.091277, -2.072656, -0.633038, -0.142677, -0.049688, 9.798373, -0.281360, -0.900470, 29.702157, -95.838176, 0.046000, 26.500000, 0.051600, 0.253485, -0.273265
15.8000, -0.148985, -0.034335, 9.794298, 0.008817, -0.019462, -0.006935, -0.504620, -2.481705, 69.431215, 345.543368, -7.274688, -4.544242, -10.822388, 0.066286, -2.124474, -0.636180, -0.145669, -0.025153, 9.793586, -0.200832, -0.871478, 29.702157, -95.838176, 0.046000, 26.500000, 0.061920, 0.256925, -0.278425
15.9000, -0.139455, -0.027030, 9.797102, 0.014162, -0.013354, -0.009684, -0.450218, -2.403326, 67.257123, 347.371222, -7.271941, -4.764010, -10.886417, 0.040410, -2.173281, -0.638925, -0.133102, -0.022161, 9.798972, -0.158064, -0.815510, 29.702157, -95.838176, 0.046000, 26.500000, 0.053750, 0.257355, -0.277995
16.0000, -0.098303, -0.052473, 9.758370, 0.032488, 0.007874, -0.005866, -0.321273, -2.190322, 65.430605, 347.575764, -7.270870, -4.987752, -10.951246, 0.020614, -2.216040, -0.645163, -0.070867, -0.069435, 9.732548, -0.308076, -0.577151, 29.702157, -95.838176, 0.046000, 26.500000, 0.055040, 0.261225, -0.283585
16.1000, 0.172363, -0.222785, 9.723129, 0.035390, -0.011368, -0.439733, -0.294982, -1.923774, 61.895657, 351.570094, -7.267612, -5.212616, -11.017045, 0.028587, -2.237776, -0.653718, 0.352807, -0.336326, 9.699636, -1.312376, 1.015316, 29.702157, -95.838177, 0.128000, 0.000000, 0.046010, 0.251765, -0.278855
16.2000, -0.339443, 0.144613, 9.746374, 0.017828, -0.016408, -0.144532, -0.142975, -2.006488, 60.132562, 346.459106, -7.272034, -5.443983, -11.083645, -0.019949, -2.288372, -0.661905, -0.680647, 0.389545, 9.761870, 0.849557, -1.994451, 29.702157, -95.838177, 0.128000, 26.400000, 0.044290, 0.253485, -0.280145
16.3000, -0.349922, 0.221558, 9.745618, 0.003930, -0.057489, -0.370858, -0.025555, -2.297860, 57.483177, 347.574441, -7.282856, -5.680364, -11.151131, -0.078797, -2.338660, -0.670540, -0.356907, 0.272855, 9.745115, 1.301509, -2.055822, 29.702157, -95.838177, 0.128000, 26.400000, 0.048160, 0.258215, -0.287025
16.4000, -0.507067, 0.308707, 9.800609, -0.003705, -0.024196, 0.014445, 0.099928, -2.480545, 57.159605, 346.863675, -7.301982, -5.923588, -11.218785, -0.153775, -2.401049, -0.674540, -0.611830, 0.366806, 9.837270, 1.801740, -2.960279, 29.702157, -95.838177, 0.128000, 26.400000, 0.043860, 0.255635, -0.296485
16.5000, 0.159298, 0.365109, 9.809321, 0.125340, -0.062375, -0.410870, 0.918892, -2.439260, 55.354374, 356.569097, -7.322128, -6.165112, -11.286212, -0.185563, -2.410508, -0.674360, 0.603541, 0.402710, 9.815129, 2.131319, 0.929725, 29.702157, -95.838177, 0.128000, 26.400000, 0.035260, 0.253915, -0.313255
16.6000, 0.241653, 0.483176, 10.019616, -0.129238, -0.042980, -0.292973, 0.417773, -2.236797, 54.771833, 357.066272, -7.347005, -6.404449, -11.350428, -0.227700, -2.399081, -0.652893, 0.296556, 0.561887, 10.159813, 2.760034, 1.379987, 29.702157, -95.838177, 0.128000, 26.400000, 0.023220, 0.257355, -0.314115
16.7000, -0.491968, 0.059334, 9.987762, -0.068152, -0.136443, 0.115849, 0.044444, -2.950663, 56.540468, 355.331039, -7.378736, -6.656513, -11.413628, -0.287439, -2.480119, -0.638969, -0.981049, -0.223227, 9.966526, 0.339962, -2.819896, 29.702157, -95.838177, 0.128000, 26.400000, -0.010750, 0.263805, -0.323145
16.8000, -0.013109, 0.341837, 9.848637, 0.034626, -0.159503, -0.389184, 0.410347, -3.423309, 56.420792, 6.774610, -7.415859, -6.909788, -11.477188, -0.343298, -2.515210, -0.636722, 0.306131, 0.530172, 9.755886, 1.987882, -0.076216, 29.702157, -95.838178, 0.014000, 26.300000, -0.023650, 0.266815, -0.321855
16.9000, 0.240909, -0.128612, 9.928347, -0.037761, 0.030171, 0.000243, 0.092178, -2.701758, 59.092472, 11.750249, -7.450079, -7.165349, -11.539084, -0.342570, -2.542143, -0.624877, 0.410254, -0.442245, 9.981487, -0.741951, 1.389879, 29.702157, -95.838178, 0.014000, 26.300000, -0.040420, 0.268535, -0.307235
17.0000, 0.095133, 0.006350, 10.229874, -0.061127, 0.146693, 0.017958, -0.236977, -1.522497, 61.853316, 8.880500, -7.486230, -7.421556, -11.595291, -0.355196, -2.555427, -0.583009, -0.002050, 0.096324, 10.430893, 0.035563, 0.532811, 29.702157, -95.838178, 0.014000, 26.300000, -0.043860, 0.277565, -0.300785
17.1000, -0.039295, 0.030175, 9.789296, -0.043717, -0.047715, -0.057026, -0.426383, -1.531402, 63.966281, 5.551837, -7.525119, -7.680476, -11.653978, -0.377659, -2.577941, -0.585584, -0.128913, 0.046058, 9.495578, 0.176608, -0.229985, 29.702157, -95.838178, 0.014000, 26.300000, -0.031390, 0.281865, -0.284015
17.2000, 0.205301, 0.051553, 9.795102, -0.032874, 0.044679, 0.080419, -0.524064, -0.909060, 66.805253, 7.545223, -7.564536, -7.936748, -11.712743, -0.388668, -2.567797, -0.586960, 0.368366, 0.065805, 9.798972, 0.301488, 1.200705, 29.702157, -95.838178, 0.014000, 26.300000, -0.026660, 0.280145, -0.285305
17.3000, 0.126130, 0.193311, 9.878209, -0.009356, -0.011826, 0.035520, -0.401088, -0.678191, 69.083174, 3.925569, -7.607031, -8.191993, -11.770428, -0.412855, -2.557566, -0.580218, 0.073349, 0.287816, 9.933614, 1.121010, 0.731403, 29.702157, -95.838178, 0.014000, 26.300000, -0.017630, 0.279285, -0.283155
17.4000, -0.067468, 0.310333, 9.912170, -0.074260, 0.123328, 0.154944, -0.545734, 0.114339, 71.665340, 1.648697, -7.654304, -8.446519, -11.826966, -0.452773, -2.549362, -0.570330, -0.196534, 0.388348, 9.934811, 1.793207, -0.389792, 29.702157, -95.838178, 0.014000, 26.300000, -0.013760, 0.274555, -0.280575
17.5000, -0.019241, -0.389314, 9.737973, 0.118468, -0.002205, -0.278770, -0.096219, 0.205867, 71.701786, 0.189868, -7.694196, -8.702988, -11.885070, -0.416869, -2.559576, -0.577468, 0.012910, -0.855746, 9.621842, -2.289403, -0.113120, 29.702157, -95.838178, 0.025000, 26.000000, -0.000430, 0.274985, -0.293045
17.6000, -0.167625, 0.080874, 9.844586, 0.035695, -0.019615, -0.060080, 0.155642, 0.107177, 72.794883, 358.698640, -7.737321, -8.960843, -11.942291, -0.426453, -2.572228, -0.573962, -0.266548, 0.394333, 9.915662, 0.470609, -0.975455, 29.702157, -95.838178, 0.025000, 26.000000, -0.001290, 0.273265, -0.288745
17.7000, 0.385195, 0.230890, 9.985969, 0.004694, -0.019920, 0.082709, 0.312494, 0.341495, 74.896402, 4.472139, -7.780783, -9.210936, -11.997068, -0.431898, -2.524696, -0.556501, 0.753742, 0.330901, 10.080224, 1.323542, 2.208420, 29.702157, -95.838178, 0.025000, 26.000000, 0.000000, 0.269395, -0.292615
17.8000, 0.370430, 0.220524, 9.929782, 0.056007, -0.011521, -0.074894, 0.716874, 0.597698, 76.163588, 4.100184, -7.823674, -9.456156, -12.050958, -0.429910, -2.476368, -0.544765, 0.360586, 0.213613, 9.892324, 1.271350, 2.135897, 29.702157, -95.838178, 0.025000, 26.000000, -0.009030, 0.267675, -0.291325
17.9000, 0.152686, -0.082708, 9.853450, 0.114650, -0.010910, -0.121167, 1.201676, 0.709623, 77.098586, 2.367229, -7.861515, -9.700746, -12.104881, -0.395574, -2.456055, -0.541075, 0.007524, -0.284863, 9.802562, -0.480862, 0.887738, 29.702157, -95.838178, 0.025000, 26.000000, -0.010320, 0.263805, -0.295195
18.0000, 0.055536, 0.108369, 9.808196, 0.021951, 0.025895, -0.058400, 1.266223, 0.941455, 78.236376, 1.100250, -7.898818, -9.943501, -12.159049, -0.380545, -2.437052, -0.541479, -0.009231, 0.235754, 9.778027, 0.633015, 0.324396, 29.702157, -95.838178, 0.025000, 26.000000, -0.005590, 0.269395, -0.296915
18.1000, -0.451879, -0.049657, 10.034964, 0.005152, 0.074917, -0.067105, 1.139108, 1.096145, 78.927777, 356.010914, -7.933953, -10.191750, -12.209765, -0.361085, -2.467341, -0.518598, -0.790156, -0.155008, 10.186143, -0.283233, -2.578284, 29.702157, -95.838178, 0.025000, 26.000000, -0.004730, 0.264235, -0.295195
18.2000, -0.183059, 0.082454, 9.768780, -0.000651, 0.003293, 0.066980, 1.066898, 1.002321, 80.366669, 359.542522, -7.968622, -10.438913, -12.262220, -0.351483, -2.470203, -0.522566, -0.003846, 0.170527, 9.591323, 0.483509, -1.073513, 29.702157, -95.838179, 0.063000, 0.000000, 0.002150, 0.278855, -0.294335
18.3000, 0.299313, 0.549996, 9.597678, 0.001640, -0.037788, -0.191875, 1.300712, 0.992038, 80.601459, 2.850939, -8.007543, -10.678230, -12.317610, -0.376633, -2.418846, -0.543459, 0.620895, 0.861691, 9.483610, 3.278163, 1.783323, 29.702157, -95.838179, 0.063000, 25.800000, 0.005160, 0.267675, -0.304225
18.4000, 0.389216, 0.421052, 9.715582, -0.057614, 0.045595, -0.016862, 1.134332, 1.468271, 81.832837, 2.322536, -8.047241, -10.910151, -12.373473, -0.390199, -2.352425, -0.553574, 0.449151, 0.335090, 9.794184, 2.479536, 2.291949, 29.702157, -95.838179, 0.063000, 25.800000, 0.002580, 0.266815, -0.301645
18.5000, -0.123445, -0.006446, 9.893077, 0.053105, 0.031087, 0.113864, 1.300144, 1.513147, 83.294529, 355.717295, -8.082579, -11.143746, -12.427628, -0.365656, -2.341439, -0.545555, -0.465220, -0.291445, 10.011407, -0.037330, -0.714898, 29.702157, -95.838179, 0.063000, 25.800000, 0.005590, 0.268105, -0.298205
18.6000, -0.256342, 0.324142, 9.807890, -0.100222, -0.031069, 0.321100, 0.854121, 1.140438, 85.637821, 357.264925, -8.121875, -11.378599, -12.482111, -0.383859, -2.346169, -0.545076, -0.344939, 0.544533, 9.751099, 1.892237, -1.496341, 29.702157, -95.838179, 0.063000, 25.800000, 0.003440, 0.271115, -0.290895
18.7000, -0.459940, -0.033721, 9.896609, 0.058450, -0.009077, 0.119667, 1.058397, 0.783483, 86.543457, 354.950237, -8.157313, -11.618272, -12.535274, -0.364203, -2.379876, -0.536109, -0.595673, -0.272296, 9.955755, -0.195015, -2.660866, 29.702157, -95.838179, 0.063000, 25.800000, 0.006020, 0.271975, -0.290035
18.8000, -0.940280, 0.095650, 9.990621, 0.008359, -0.009077, -0.244714, 1.054068, 0.162149, 85.130734, 350.473600, -8.193577, -11.870003, -12.586135, -0.363161, -2.471495, -0.517778, -1.260507, 0.181897, 10.053296, 0.546117, -5.376383, 29.702157, -95.838179, 0.063000, 25.800000, 0.010750, 0.277135, -0.295195
18.9000, -0.357954, 0.122265, 9.835777, -0.015464, 0.048802, -0.002506, 0.942161, 0.212787, 85.487472, 359.195836, -8.229682, -12.122005, -12.637497, -0.361754, -2.503848, -0.515006, 0.030264, 0.140008, 9.732548, 0.711715, -2.084086, 29.702157, -95.838179, 0.063000, 25.800000, 0.004730, 0.265955, -0.301215
19.0000, -0.099890, 0.117472, 9.802205, 0.003778, -0.013354, -0.008462, 0.936757, 0.081690, 86.053232, 0.826287, -8.265305, -12.373720, -12.689104, -0.358076, -2.512714, -0.515712, 0.072153, 0.114277, 9.779823, 0.686578, -0.583814, 29.702156, -95.838181, 0.076000, 0.000000, -0.001720, 0.268535, -0.298635
19.1000, 0.002617, 0.070674, 9.732405, 0.010955, -0.019768, -0.012280, 0.939271, -0.010317, 86.605012, 359.824511, -8.299781, -12.625057, -12.741841, -0.349199, -2.513154, -0.523486, 0.070956, 0.039475, 9.685872, 0.416059, 0.015409, 29.702156, -95.838181, 0.076000, 25.700000, 0.003010, 0.272405, -0.296485
19.2000, 0.101427, 0.130586, 9.769473, -0.000193, 0.009248, -0.012280, 0.917606, 0.116503, 87.128714, 359.737279, -8.334222, -12.874575, -12.794788, -0.346006, -2.501169, -0.527477, 0.167300, 0.170527, 9.794184, 0.765771, 0.594771, 29.702156, -95.838181, 0.076000, 25.700000, 0.006450, 0.269825, -0.303795
19.3000, 0.255486, 0.326534, 9.742291, -0.021879, 0.020397, -0.000063, 0.905679, 0.384224, 87.813004, 1.901974, -8.371225, -13.119784, -12.848521, -0.362019, -2.468450, -0.534047, 0.358193, 0.457166, 9.724170, 1.919013, 1.501363, 29.702156, -95.838181, 0.076000, 25.700000, 0.001720, 0.271115, -0.304225
