Time, AccX(m/s^2), AccY(m/s^2), AccZ(m/s^2), GyrX(rad/s), GyrY(rad/s), GyrZ(rad/s), Roll(deg), Pitch(deg), Yaw(deg), Heading, X(m), Y(m), Z(m),         Vx(m/s), Vy(m/s), Vz(m/s), AccXraw(m/s^2), AccYraw(m/s^2), AccZraw(m/s^2), RollAcc(deg/s^2), PitchAcc(deg/s^2), Latitude, Longitude,             GPShspeed(m/s), GPSalt(m), MagX(uT), MagY(ut), MagZ(uT)
0.0000, -0.208400, -0.010424, 5.847069, 0.061657, -0.092155, 0.003450, -0.093723, -2.038244, 66.881402, 336.863999, -0.002440, -0.005747, -0.059611, -0.016264, -0.038314, -0.397403, -0.347333, -0.017374, 9.745115, -0.102082, -2.041254, 29.702158, -95.838178, 0.027000, 26.700000, 0.096750, 0.250905, -0.289175
0.1000, -0.109005, -0.258027, 7.989139, -0.111218, 0.064379, 0.006046, -1.370140, -1.163332, 67.278536, 337.901638, -0.004712, -0.013719, -0.126663, -0.020568, -0.065920, -0.579487, -0.042742, -0.423095, 9.417186, -1.849679, -0.781298, 29.702158, -95.838178, 0.027000, 26.700000, 0.092020, 0.243165, -0.290895
0.2000, -0.165113, -0.120816, 9.070730, -0.002636, -0.009688, 0.001159, -1.129663, -1.066842, 67.711173, 338.261075, -0.009474, -0.024617, -0.195762, -0.038605, -0.094622, -0.653817, -0.202518, -0.029342, 9.791791, -0.762968, -1.042736, 29.702158, -95.838178, 0.027000, 26.700000, 0.090730, 0.243165, -0.285735
0.3000, -0.853945, -0.284590, 10.654827, 0.013857, -0.469670, -0.496544, -1.304250, -4.130116, 64.192985, 331.195486, -0.023342, -0.056221, -0.249753, -0.105323, -0.242236, -0.577880, -1.313167, -0.393773, 11.710892, -1.525118, -4.580624, 29.702158, -95.838178, 0.027000, 26.700000, 0.094170, 0.238005, -0.288315
0.4000, -0.477091, 0.930976, 9.725539, 0.264006, -0.225476, -1.240577, 2.823142, -4.113309, 63.406249, 343.087472, -0.047818, -0.093190, -0.309187, -0.198277, -0.327205, -0.588858, -0.225856, 1.741353, 9.106013, 5.461443, -2.795664, 29.702158, -95.838178, 0.027000, 26.700000, 0.081270, 0.240155, -0.294335
0.5000, -0.261004, 0.081910, 10.067966, -0.076093, 0.126535, -0.481883, 1.867063, -2.298892, 67.739863, 346.890733, -0.068004, -0.136534, -0.364522, -0.200670, -0.398030, -0.565186, -0.116945, -0.484133, 10.296250, 0.465977, -1.484963, 29.702158, -95.838178, 0.027000, 26.700000, 0.050740, 0.246605, -0.297775
0.6000, 0.091126, 0.307782, 9.723456, 0.028518, -0.048784, 0.012154, 2.165625, -0.917119, 73.649037, 349.387098, -0.087482, -0.177520, -0.422266, -0.196743, -0.405914, -0.573350, 0.325878, 0.458362, 9.493783, 1.812928, 0.536676, 29.702158, -95.838177, 0.001000, 0.000000, 0.060630, 0.256065, -0.292185
0.7000, 0.508443, -0.290520, 9.783486, -0.100986, 0.029712, 0.358362, 0.490350, 1.212439, 79.163496, 349.643197, -0.099626, -0.208629, -0.480235, -0.146539, -0.342697, -0.577581, 0.786654, -0.689388, 9.823507, -1.698604, 2.973647, 29.702158, -95.838177, 0.001000, 26.800000, 0.065360, 0.249615, -0.294765
0.8000, 0.145059, 0.016627, 9.792418, -0.040663, -0.054892, -0.068938, 0.238290, 1.532209, 79.912539, 343.518699, -0.112855, -0.236953, -0.538368, -0.137040, -0.303064, -0.580079, -0.097197, 0.221392, 9.798373, 0.097276, 0.848680, 29.702158, -95.838177, 0.001000, 26.800000, 0.073530, 0.251765, -0.289605
0.9000, -0.023633, 0.038953, 9.809276, -0.013632, -0.016713, -0.009837, 0.214603, 1.541857, 80.379480, 344.665995, -0.125989, -0.263700, -0.596429, -0.133242, -0.279333, -0.580435, -0.136094, 0.053837, 9.820514, 0.227523, -0.138039, 29.702158, -95.838177, 0.001000, 26.800000, 0.065360, 0.251335, -0.288315
1.0000, -0.031508, 0.090969, 9.750314, 0.059367, 0.043762, 0.044072, 0.582055, 1.742467, 80.836588, 345.059412, -0.138561, -0.287729, -0.655415, -0.128224, -0.253300, -0.586717, -0.036758, 0.125646, 9.711005, 0.534544, -0.185142, 29.702158, -95.838177, 0.001000, 26.800000, 0.067080, 0.251765, -0.284015
1.1000, -0.223516, -0.104011, 9.927076, -0.005691, 0.067892, 0.065911, 0.247640, 1.633574, 80.594034, 341.800955, -0.149063, -0.312537, -0.712304, -0.112757, -0.249826, -0.574829, -0.351522, -0.233998, 10.044918, -0.600143, -1.289773, 29.702158, -95.838177, 0.001000, 26.800000, 0.072240, 0.256925, -0.287885
1.2000, -0.182552, 0.099489, 9.862421, -0.037914, -0.026029, -0.012127, 0.179699, 1.189055, 79.759862, 341.574437, -0.161292, -0.337010, -0.768971, -0.119109, -0.246427, -0.569395, -0.155243, 0.235156, 9.819318, 0.577862, -1.060364, 29.702158, -95.838177, 0.001000, 26.800000, 0.078690, 0.243165, -0.293475
1.3000, -0.132776, 0.129186, 9.783779, 0.014162, 0.007569, 0.004213, 0.401095, 1.049854, 79.319701, 343.411883, -0.173968, -0.360799, -0.826282, -0.124211, -0.240731, -0.571871, -0.099591, 0.148984, 9.731351, 0.756427, -0.777445, 29.702158, -95.838177, 0.025000, 0.000000, 0.073100, 0.250905, -0.287885
1.4000, -0.195446, 0.209284, 9.919997, 0.035695, 0.104849, 0.005740, 0.774935, 1.266078, 78.923570, 342.834039, -0.187426, -0.384304, -0.881762, -0.131123, -0.236949, -0.560489, -0.237225, 0.262682, 10.010809, 1.208365, -1.128454, 29.702158, -95.838177, 0.025000, 26.800000, 0.073530, 0.252625, -0.287885
1.5000, -0.009394, 0.171668, 9.824403, 0.016148, 0.003903, -0.003728, 0.933629, 1.210825, 78.618758, 343.639756, -0.200121, -0.405050, -0.937603, -0.128345, -0.217287, -0.559099, 0.114640, 0.146591, 9.760673, 1.001063, -0.054780, 29.702158, -95.838177, 0.025000, 26.800000, 0.076110, 0.242735, -0.300355
1.6000, -0.080029, 0.144055, 9.768213, 0.026074, -0.007092, -0.003423, 1.069495, 1.019271, 78.459152, 344.191237, -0.212112, -0.425516, -0.994126, -0.122717, -0.208866, -0.563192, -0.127118, 0.125646, 9.730753, 0.844870, -0.469349, 29.702158, -95.838177, 0.025000, 26.800000, 0.068800, 0.252625, -0.289605
1.7000, -0.140955, 0.186867, 9.792413, 0.009428, -0.008772, -0.003575, 1.151104, 0.776442, 78.129366, 342.430419, -0.224264, -0.446553, -1.050668, -0.121918, -0.209874, -0.564671, -0.181573, 0.215408, 9.808546, 1.093119, -0.824528, 29.702158, -95.838177, 0.025000, 26.800000, 0.073960, 0.244025, -0.284875
1.8000, -0.345208, 0.348328, 9.773010, 0.019202, -0.012284, -0.009531, 1.446754, 0.320672, 77.549589, 340.753514, -0.238881, -0.471467, -1.107578, -0.138089, -0.236051, -0.567625, -0.481377, 0.455969, 9.760075, 2.039991, -2.021712, 29.702158, -95.838177, 0.025000, 26.800000, 0.075250, 0.242735, -0.286595
1.9000, -0.279700, 0.337872, 9.782483, 0.004236, 0.026353, 0.007420, 1.609068, 0.188644, 77.112701, 341.559081, -0.254440, -0.498480, -1.164655, -0.149754, -0.258768, -0.569727, -0.236029, 0.330901, 9.788799, 1.977314, -1.636777, 29.702158, -95.838177, 0.025000, 26.800000, 0.078260, 0.245745, -0.283585
2.0000, -0.197845, 0.278037, 9.784477, -0.003400, 0.013066, 0.000090, 1.645580, 0.093824, 76.690314, 341.632332, -0.269998, -0.527021, -1.221947, -0.153642, -0.276532, -0.571853, -0.143275, 0.238148, 9.785807, 1.627356, -1.157914, 29.702158, -95.838177, 0.002000, 0.000000, 0.079550, 0.245315, -0.286165
2.1000, -0.338163, 0.354277, 9.742548, 0.002098, 0.009707, -0.001132, 1.780017, -0.149861, 76.046646, 339.039823, -0.287427, -0.559782, -1.280063, -0.167408, -0.310584, -0.578059, -0.431709, 0.405104, 9.714596, 2.081329, -1.986623, 29.702158, -95.838177, 0.002000, 26.800000, 0.085570, 0.244885, -0.287885
2.2000, -0.181376, 0.012802, 9.660071, -0.029514, -0.144690, -0.079170, 1.409806, -0.948837, 75.358944, 342.771716, -0.302198, -0.596646, -1.340222, -0.154277, -0.349287, -0.593746, -0.076852, -0.214849, 9.605087, 0.075916, -1.075651, 29.702158, -95.838177, 0.002000, 26.800000, 0.071810, 0.245315, -0.284445
2.3000, 0.032138, 0.053580, 9.452943, -0.104651, -0.032901, 0.076906, 0.770776, -0.879185, 75.927104, 345.954051, -0.316967, -0.633486, -1.404964, -0.149885, -0.362028, -0.629527, 0.174481, 0.080766, 9.314858, 0.324752, 0.194789, 29.702158, -95.838177, 0.002000, 26.800000, 0.069230, 0.252625, -0.287885
2.4000, 0.851075, -0.026333, 9.667741, -0.051047, -0.078869, 0.018263, 0.413875, -0.289732, 76.892293, 352.559399, -0.327822, -0.658297, -1.469994, -0.122327, -0.286081, -0.643379, 1.397032, -0.079608, 9.810940, -0.155460, 5.030898, 29.702158, -95.838177, 0.002000, 26.800000, 0.073530, 0.250905, -0.286165
2.5000, 0.463430, 0.593011, 9.596039, 0.109152, -0.087726, -0.190806, 1.440779, -0.148198, 76.527820, 347.567377, -0.343650, -0.679279, -1.537346, -0.146296, -0.235241, -0.663471, 0.205000, 1.005908, 9.548238, 3.532134, 2.759629, 29.702158, -95.838177, 0.002000, 26.800000, 0.068800, 0.253915, -0.294335
2.6000, -0.135768, 0.320132, 9.803970, -0.119464, -0.126211, -0.283199, 0.966545, -0.719305, 75.320434, 342.653434, -0.361509, -0.705971, -1.603761, -0.167822, -0.256364, -0.663921, -0.535234, 0.138213, 9.942590, 1.870055, -0.792976, 29.702158, -95.838177, 0.002000, 26.800000, 0.063210, 0.250475, -0.305515
2.7000, -0.371139, 0.560692, 10.107237, -0.027224, -0.124684, 0.145476, 1.201160, -1.387151, 76.799190, 349.466410, -0.385493, -0.739408, -1.665731, -0.215836, -0.308367, -0.634439, -0.528053, 0.721064, 10.309415, 3.173053, -2.099737, 29.702157, -95.838178, 0.094000, 26.800000, 0.036980, 0.264235, -0.316695
2.8000, -0.376603, 0.507552, 9.903607, -0.042801, -0.091392, -0.149725, 1.301846, -1.812039, 77.496396, 358.423037, -0.413453, -0.779430, -1.727889, -0.258343, -0.369602, -0.625867, -0.380245, 0.472126, 9.767854, 2.931682, -2.174876, 29.702157, -95.838178, 0.094000, 26.800000, -0.003870, 0.263375, -0.296055
2.9000, -0.183108, 0.021691, 9.892170, -0.032874, -0.009536, -0.111851, 1.068956, -1.625944, 78.849695, 0.946081, -0.438235, -0.823687, -1.789400, -0.251332, -0.418244, -0.618700, -0.054112, -0.302217, 9.884544, 0.125613, -1.060446, 29.702157, -95.838178, 0.094000, 26.800000, -0.006020, 0.278855, -0.285305
3.0000, -0.631354, -0.300833, 9.584560, -0.005232, 0.066059, 0.526503, 0.748725, -1.439896, 82.975591, 354.907265, -0.458625, -0.879273, -1.855007, -0.219709, -0.509988, -0.643608, -0.930184, -0.515849, 9.379486, -1.793882, -3.766892, 29.702157, -95.838178, 0.094000, 26.800000, -0.004300, 0.277995, -0.280575
3.1000, 0.085168, -0.492317, 9.523631, 0.068682, -0.105747, 0.077822, 0.678502, -1.597794, 85.025628, 5.088943, -0.471789, -0.933752, -1.923780, -0.160993, -0.533190, -0.673027, 0.562849, -0.619972, 9.483011, -2.959108, 0.511687, 29.702157, -95.838178, 0.094000, 26.800000, -0.005590, 0.274985, -0.290465
3.2000, 0.268012, 0.242893, 10.331887, -0.006607, 0.051704, 0.182586, 0.764458, -0.815594, 87.448693, 2.432480, -0.489381, -0.985189, -1.983178, -0.170947, -0.520646, -0.620330, 0.389908, 0.733033, 10.870724, 1.346269, 1.485525, 29.702157, -95.838178, 0.094000, 26.800000, -0.002150, 0.271545, -0.284445
3.3000, 0.331456, 0.056932, 9.929557, 0.150996, 0.016273, -0.346423, 1.508840, -0.245155, 87.002540, 3.016843, -0.503185, -1.033086, -2.043427, -0.149010, -0.492858, -0.608436, 0.373751, -0.067042, 9.661337, 0.328325, 1.911832, 29.702157, -95.838178, 0.094000, 26.800000, -0.002580, 0.269395, -0.297775
3.4000, -0.862846, -0.398041, 9.765753, 0.042262, 0.308878, 0.589269, 1.289353, 0.897924, 90.295804, 347.893386, -0.508766, -1.092972, -2.104921, -0.086876, -0.563526, -0.612771, -1.659048, -0.701356, 9.656550, -2.324970, -5.045050, 29.702157, -95.838178, 0.094000, 26.800000, 0.002580, 0.263805, -0.292615
3.5000, -0.625706, 0.023167, 9.726442, 0.075707, 0.101336, -0.139340, 1.541547, 0.993157, 89.652930, 355.983263, -0.513918, -1.156202, -2.167354, -0.063303, -0.609377, -0.620478, -0.467613, 0.303973, 9.700234, 0.136190, -3.680782, 29.702157, -95.838178, 0.023000, 26.800000, 0.005160, 0.263805, -0.290895
3.6000, -0.632820, -0.287317, 9.711435, -0.002025, 0.074764, 0.335913, 1.150460, 0.916306, 91.272340, 352.632472, -0.512857, -1.224140, -2.230863, -0.014030, -0.656050, -0.630219, -0.637562, -0.494306, 9.701431, -1.691041, -3.726629, 29.702157, -95.838178, 0.023000, 26.800000, 0.014190, 0.272405, -0.291755
3.7000, -0.593656, 0.074997, 9.856232, 0.019813, -0.021142, 0.320336, 1.148036, 0.373443, 92.325474, 349.751485, -0.512102, -1.297605, -2.293144, 0.000358, -0.708450, -0.625277, -0.567548, 0.316539, 9.952763, 0.435171, -3.446752, 29.702157, -95.838178, 0.023000, 26.800000, 0.032680, 0.265525, -0.299925
3.8000, -0.612101, -0.409485, 9.811104, 0.107319, -0.055656, 2.059317, 1.264733, -0.314086, 100.954776, 334.980353, -0.500950, -1.376471, -2.355879, 0.074463, -0.761923, -0.626660, -0.624397, -0.732473, 9.781019, -2.385330, -3.566876, 29.702157, -95.838178, 0.023000, 26.800000, 0.082990, 0.238005, -0.286165
3.9000, -0.871888, -0.200429, 9.783359, 0.076623, -0.057794, 2.137813, 1.332299, -1.122292, 107.152358, 317.131248, -0.482668, -1.466010, -2.419338, 0.146700, -0.850896, -0.631950, -1.045079, -0.061057, 9.764862, -1.169005, -5.091652, 29.702157, -95.838178, 0.023000, 26.800000, 0.148780, 0.195005, -0.295625
4.0000, -0.506170, -0.107471, 9.897568, 0.062574, -0.093988, 1.820163, 1.370027, -1.801723, 109.487101, 306.576032, -0.459045, -1.560930, -2.481613, 0.206390, -0.916432, -0.625814, -0.262359, -0.045499, 9.973707, -0.621298, -2.927433, 29.702157, -95.838178, 0.023000, 26.800000, 0.184470, 0.143835, -0.291755
4.1000, -0.712825, 0.090565, 9.775936, 0.012788, 0.037959, 2.199052, 1.267541, -1.876569, 111.471544, 289.283514, -0.430982, -1.666296, -2.545140, 0.255884, -1.007920, -0.632117, -0.850596, 0.222589, 9.694848, 0.529372, -4.170240, 29.702157, -95.838178, 0.023000, 26.800000, 0.207690, 0.075035, -0.287025
4.2000, -0.306108, 0.755742, 9.621724, 0.031267, -0.000220, 1.127442, 1.701277, -1.891035, 106.347747, 283.722728, -0.409520, -1.778054, -2.611133, 0.228373, -1.081024, -0.650660, -0.034963, 1.199194, 9.518916, 4.488839, -1.816616, 29.702156, -95.838178, 0.032000, 26.800000, 0.221020, 0.018275, -0.289605
4.3000, -0.816273, 0.498683, 9.686423, 0.015231, 0.007874, 0.573234, 1.850812, -2.188179, 96.851051, 264.977315, -0.387324, -1.904150, -2.678461, 0.224094, -1.200985, -0.665737, -1.156383, 0.327311, 9.729556, 2.936750, -4.810583, 29.702156, -95.838178, 0.032000, 26.800000, 0.211130, -0.030315, -0.290465
4.4000, -0.890364, 0.086362, 9.790934, -0.013937, 0.071404, 0.070492, 1.577447, -2.183426, 84.383920, 260.020298, -0.364034, -2.043367, -2.745956, 0.229969, -1.328441, -0.671879, -0.939759, -0.188519, 9.860608, 0.503294, -5.195850, 29.702156, -95.838178, 0.032000, 26.800000, 0.204250, -0.035475, -0.290895
4.5000, -0.438161, 0.096289, 9.788935, 0.001334, -0.012132, -0.011822, 1.412504, -2.338681, 71.849931, 257.207365, -0.342881, -2.188822, -2.813859, 0.217672, -1.412516, -0.676649, -0.136693, 0.102907, 9.787602, 0.563009, -2.562775, 29.702156, -95.838178, 0.032000, 26.800000, 0.203390, -0.050095, -0.288315
4.6000, -0.253331, 0.102414, 9.791726, 0.000571, -0.014728, -0.004492, 1.260764, -2.376201, 60.075940, 257.668789, -0.324576, -2.339488, -2.882084, 0.194592, -1.475277, -0.680381, -0.130110, 0.106497, 9.793586, 0.599048, -1.481939, 29.702156, -95.838178, 0.032000, 26.800000, 0.202960, -0.048375, -0.293045
4.7000, -0.187297, 0.095888, 9.795714, -0.004469, -0.011826, -0.006477, 1.091845, -2.349061, 49.089184, 257.629790, -0.309870, -2.494581, -2.950574, 0.162904, -1.525708, -0.683395, -0.143275, 0.091537, 9.798373, 0.560734, -1.095328, 29.702156, -95.838178, 0.032000, 26.800000, 0.203820, -0.048375, -0.295195
4.8000, 0.297977, -0.051418, 9.855475, -0.242706, -0.128654, -0.290377, -0.373375, -2.616906, 37.342329, 255.709790, -0.295513, -2.648384, -3.018180, 0.150017, -1.533929, -0.678503, 0.621493, -0.149622, 9.895316, -0.298785, 1.731767, 29.702155, -95.838178, 0.017000, 0.000000, 0.209410, -0.044075, -0.288745
4.9000, -0.398348, -0.189331, 9.723913, 0.012941, -0.179662, -0.122694, -0.459576, -3.525451, 27.448985, 257.193341, -0.292994, -2.810143, -3.087947, 0.066796, -1.589702, -0.691281, -0.862564, -0.281272, 9.636204, -1.114509, -2.345410, 29.702155, -95.838178, 0.017000, 26.900000, 0.207260, -0.044935, -0.289605
5.0000, 0.340300, -0.052406, 10.129071, 0.077387, -0.197682, 0.189305, -0.123666, -3.974640, 19.951350, 256.478125, -0.291271, -2.971400, -3.152299, 0.033753, -1.604947, -0.659442, 0.832732, 0.038877, 10.399177, -0.296269, 1.924180, 29.702155, -95.838178, 0.017000, 26.900000, 0.209410, -0.045795, -0.288745
5.1000, 0.585852, 0.092484, 9.793497, 0.003014, -0.072913, -0.039005, -0.117468, -3.547515, 11.818089, 255.604194, -0.288554, -3.130308, -3.218231, 0.029368, -1.594364, -0.659365, 0.749553, 0.189078, 9.569781, 0.540088, 3.423229, 29.702155, -95.838178, 0.017000, 26.900000, 0.199950, -0.051385, -0.288315
5.2000, 0.279068, 0.220814, 10.040574, -0.005538, 0.043915, 0.270550, -0.076801, -2.720049, 5.982461, 255.956636, -0.288933, -3.286558, -3.280685, 0.007262, -1.573125, -0.636145, 0.074546, 0.306366, 10.205292, 1.259366, 1.591688, 29.702155, -95.838178, 0.017000, 26.900000, 0.216720, -0.062565, -0.293905
5.3000, -0.213103, 0.363702, 9.813032, 0.064559, 0.036279, 0.107908, 0.416800, -2.291385, -0.057560, 257.848434, -0.297283, -3.439477, -3.344464, -0.053245, -1.543833, -0.637240, -0.541218, 0.458961, 9.661337, 2.122091, -1.243207, 29.702155, -95.838178, 0.017000, 26.900000, 0.220160, -0.064715, -0.301215
5.4000, -0.266354, 0.415472, 9.910514, 0.109457, -0.054281, 0.246269, 1.127596, -2.397214, -4.833696, 257.029333, -0.312506, -3.589706, -3.406883, -0.119237, -1.516138, -0.628545, -0.301854, 0.449985, 9.975503, 2.399700, -1.538152, 29.702155, -95.838178, 0.017000, 26.900000, 0.222740, -0.066865, -0.304225
5.5000, -1.099098, 0.084673, 9.825996, -0.003400, 0.023451, 0.615689, 0.992902, -2.593817, -7.499298, 253.638341, -0.347539, -3.739573, -3.470395, -0.273300, -1.504492, -0.632927, -1.654260, -0.135859, 9.769650, 0.490662, -6.382118, 29.702155, -95.838178, 0.041000, 0.000000, 0.225750, -0.076755, -0.308095
5.6000, -1.212100, 0.314273, 9.715352, 0.030045, 0.013219, 0.027121, 1.181610, -2.919155, -13.007229, 253.686689, -0.399411, -3.882600, -3.536156, -0.436913, -1.455011, -0.649384, -1.287435, 0.467339, 9.641590, 1.838516, -7.107870, 29.702155, -95.838178, 0.041000, 26.900000, 0.215000, -0.088365, -0.314545
5.7000, -0.465246, 0.349742, 9.947560, 0.016911, -0.174927, 0.115849, 1.304925, -3.738118, -17.844231, 248.257008, -0.458431, -4.021227, -3.599723, -0.539101, -1.409182, -0.640240, 0.032657, 0.373388, 10.102366, 2.011411, -2.676110, 29.702155, -95.838178, 0.041000, 26.900000, 0.201670, -0.091805, -0.316695
5.8000, -0.025758, 0.392653, 9.775467, -0.060058, 0.002987, 0.960065, 1.054319, -3.289775, -18.292241, 243.409801, -0.519699, -4.156352, -3.664446, -0.588159, -1.370561, -0.644896, 0.267234, 0.421261, 9.660739, 2.300168, -0.150848, 29.702155, -95.838178, 0.041000, 26.900000, 0.186190, -0.102985, -0.319705
5.9000, -0.041334, 0.267995, 9.841273, -0.070290, 0.019939, 2.382617, 0.707243, -2.792751, -12.529976, 228.814337, -0.585666, -4.289567, -3.728633, -0.635831, -1.344959, -0.642884, -0.051718, 0.184889, 9.885143, 1.559863, -0.240556, 29.702155, -95.838178, 0.041000, 26.900000, 0.155230, -0.143405, -0.325295
6.0000, -0.760271, 1.227051, 9.702434, 0.126867, -0.206540, -0.268844, 1.998264, -3.932951, -21.354193, 231.049449, -0.664327, -4.403867, -3.795108, -0.736352, -1.210313, -0.657460, -1.239562, 1.866421, 9.609874, 7.186040, -4.445208, 29.702155, -95.838178, 0.041000, 26.900000, 0.103630, -0.179095, -0.327445
6.1000, -0.290259, 0.516301, 9.723016, 0.012635, -0.012895, -0.001437, 2.166724, -3.678761, -29.545658, 209.611538, -0.748797, -4.516199, -3.862551, -0.808580, -1.152323, -0.668770, 0.023083, 0.042467, 9.736737, 3.038251, -1.707524, 29.702155, -95.838178, 0.041000, 26.900000, 0.106640, -0.187695, -0.316695
6.2000, -0.686062, 0.345100, 10.198367, 0.061046, -0.076425, 1.825661, 2.456359, -3.988301, -28.653508, 202.050515, -0.848669, -4.622619, -3.924607, -0.935344, -1.093574, -0.636634, -0.949932, 0.230967, 10.515268, 1.933712, -3.846396, 29.702155, -95.838178, 0.041000, 26.900000, 0.049880, -0.200165, -0.317985
6.3000, -1.102897, -0.229994, 9.957653, -0.139928, -0.106052, 1.089721, 1.343508, -4.673868, -32.975684, 191.234609, -0.970021, -4.722214, -3.988022, -1.120793, -1.028493, -0.634977, -1.380787, -0.613390, 9.797176, -1.315097, -6.318577, 29.702155, -95.838178, 0.041000, 0.000000, 0.001290, -0.205755, -0.311105
6.4000, -0.548308, -0.148020, 10.104800, 0.123355, -0.004038, 1.287336, 1.732545, -4.439944, -38.126633, 163.939048, -1.101972, -4.818114, -4.048325, -1.253273, -0.982160, -0.613681, -0.178581, -0.093372, 10.202898, -0.838006, -3.105610, 29.702155, -95.838178, 0.041000, 26.900000, -0.063210, -0.197585, -0.313685
6.5000, 0.447990, 0.170929, 9.727059, 0.034016, -0.056420, 0.488782, 1.799413, -3.895156, -49.304373, 144.118942, -1.230922, -4.915214, -4.110810, -1.277421, -0.974722, -0.621122, 1.112189, 0.383561, 9.475232, 1.005659, 2.636550, 29.702155, -95.838178, 0.041000, 26.900000, -0.092880, -0.191135, -0.317555
6.6000, 0.716535, 0.168893, 9.856737, -0.042037, -0.024044, 0.087749, 1.461581, -3.045669, -62.441207, 146.242801, -1.358431, -5.015809, -4.171842, -1.275870, -0.995543, -0.613923, 0.895565, 0.167535, 9.943189, 0.979069, 4.157192, 29.702155, -95.838178, 0.041000, 26.900000, -0.098470, -0.193715, -0.311965
6.7000, 0.347858, -0.128494, 9.961029, 0.023478, -0.079327, 0.029870, 1.314053, -2.751433, -74.694548, 152.302449, -1.491698, -5.114890, -4.230974, -1.313736, -0.992382, -0.598855, 0.102073, -0.326751, 10.030556, -0.738605, 1.999897, 29.702155, -95.838178, 0.041000, 26.900000, -0.100190, -0.186835, -0.314115
6.8000, 0.412583, 0.110161, 9.923755, -0.027835, 0.075069, 0.088971, 1.049451, -1.628472, -85.995769, 145.427476, -1.624007, -5.216154, -4.289032, -1.319970, -1.005890, -0.586672, 0.455733, 0.269265, 9.898906, 0.635453, 2.380572, 29.702155, -95.838178, 0.041000, 26.900000, -0.105350, -0.182535, -0.318415
6.9000, 0.212633, 0.097551, 9.844217, 0.026991, 0.043915, 0.024524, 1.084430, -0.878071, -96.412130, 151.942881, -1.757431, -5.317515, -4.347153, -1.329482, -1.011034, -0.583032, 0.079333, 0.089143, 9.791192, 0.567618, 1.237325, 29.702155, -95.838178, 0.041000, 26.900000, -0.096320, -0.188555, -0.322715
7.0000, 0.217029, -0.265822, 9.630725, 0.005305, 0.135392, 0.117223, 0.778342, 0.281614, -105.103775, 154.878759, -1.897156, -5.420896, -4.408231, -1.374662, -1.026220, -0.601528, 0.219960, -0.508070, 9.488397, -1.580642, 1.290456, 29.702155, -95.838178, 0.026000, 0.000000, -0.089870, -0.190705, -0.315835
7.1000, -0.384769, -0.143322, 9.935970, 0.031725, 0.038112, -0.029232, 0.704691, 0.462720, -113.215023, 161.325938, -2.036482, -5.517750, -4.466490, -1.387059, -0.987767, -0.588904, -0.785967, -0.061656, 10.139467, -0.825791, -2.217431, 29.702155, -95.838178, 0.026000, 27.000000, -0.089440, -0.190275, -0.313255
7.2000, -1.083990, -0.245840, 9.927735, -0.076856, 0.082705, -0.352227, 0.011783, 0.421985, -121.111048, 174.291072, -2.170536, -5.601624, -4.523500, -1.356051, -0.888414, -0.576364, -1.550137, -0.314185, 9.922244, -1.410144, -6.229433, 29.702155, -95.838178, 0.026000, 27.000000, -0.068370, -0.201885, -0.300785
7.3000, -0.661025, -0.005714, 9.772923, -0.049215, -0.057336, -0.017472, -0.332309, -0.126249, -126.439520, 166.375160, -2.299445, -5.682683, -4.581716, -1.311409, -0.836530, -0.580233, -0.379049, 0.154370, 9.669715, -0.033422, -3.869501, 29.702155, -95.838178, 0.026000, 27.000000, -0.058480, -0.197155, -0.302075
7.4000, -0.310162, -0.220956, 9.708485, -0.083118, -0.088337, 0.113864, -0.944919, -0.586085, -130.594231, 164.160125, -2.427282, -5.761078, -4.641283, -1.289383, -0.801480, -0.590520, -0.076253, -0.364451, 9.665526, -1.303110, -1.829362, 29.702155, -95.838178, 0.026000, 27.000000, -0.060630, -0.194145, -0.300355
7.5000, -1.470999, -0.573465, 9.907832, -0.130307, 0.077055, -0.271745, -1.943229, -0.841768, -135.269691, 179.482780, -2.541497, -5.821633, -4.699001, -1.191226, -0.670859, -0.581630, -2.244891, -0.808472, 10.040729, -3.276747, -8.431013, 29.702155, -95.838178, 0.026000, 27.000000, -0.068370, -0.193285, -0.297775
7.6000, -1.105579, -0.431541, 9.903553, 0.101363, -0.085130, -0.063440, -1.573135, -1.732056, -138.507570, 168.482442, -2.646422, -5.872967, -4.756209, -1.096578, -0.565850, -0.575258, -0.861965, -0.336924, 9.900701, -2.479664, -6.363828, 29.702155, -95.838178, 0.026000, 27.000000, -0.068800, -0.201885, -0.292615
7.7000, -0.924583, -0.106205, 9.895379, 0.078151, 0.023451, 0.315754, -1.171853, -1.892114, -139.367329, 168.240544, -2.740902, -5.918429, -4.812991, -0.995391, -0.491697, -0.570302, -0.803920, 0.110686, 9.889930, -0.612251, -5.337678, 29.702155, -95.838179, 0.047000, 0.000000, -0.064930, -0.198875, -0.296485
7.8000, -0.767450, -0.168878, 9.805939, -0.002178, -0.061765, 0.613093, -1.260091, -2.403005, -138.904266, 161.262022, -2.826664, -5.956514, -4.870674, -0.903541, -0.417794, -0.574654, -0.662695, -0.210660, 9.746312, -0.983643, -4.474404, 29.702155, -95.838179, 0.047000, 26.900000, -0.090300, -0.199735, -0.296915
7.9000, -0.648945, -0.322845, 9.928861, -0.021573, 0.014441, -0.056873, -1.528032, -2.404796, -142.150931, 157.953101, -2.904935, -5.987803, -4.926820, -0.822986, -0.347858, -0.565858, -0.569941, -0.425489, 10.010809, -1.858398, -3.737533, 29.702155, -95.838179, 0.047000, 26.900000, -0.099330, -0.191135, -0.293905
8.0000, -0.298149, 0.107821, 10.041940, -0.016534, -0.017324, -0.018083, -1.487261, -2.365502, -144.911647, 156.515833, -2.975316, -6.020970, -4.980332, -0.743538, -0.337069, -0.545368, -0.064285, 0.394931, 10.117326, 0.614893, -1.700536, 29.702155, -95.838179, 0.047000, 26.900000, -0.086430, -0.206185, -0.290465
8.1000, 0.250046, -0.009663, 9.592765, 0.220635, -0.016866, -0.515175, -0.290893, -1.992461, -150.081748, 152.808818, -3.048291, -6.054559, -5.038085, -0.734343, -0.336282, -0.566810, 0.615509, -0.087986, 9.293315, -0.057697, 1.493137, 29.702155, -95.838179, 0.047000, 26.900000, -0.089010, -0.208335, -0.296915
8.2000, -0.371921, 0.167029, 9.822767, 0.010497, 0.003293, -0.200274, -0.189312, -1.915096, -152.116640, 167.799851, -3.111045, -6.085922, -5.094853, -0.663145, -0.321180, -0.567385, -0.786566, 0.284824, 9.976101, 0.973481, -2.168052, 29.702155, -95.838179, 0.047000, 26.900000, -0.067510, -0.211345, -0.299065
8.3000, 0.019471, -0.010036, 9.636148, 0.060436, -0.081007, 0.382033, 0.057438, -2.042855, -151.048578, 156.948964, -3.173249, -6.115428, -5.154281, -0.635744, -0.303770, -0.585315, 0.280399, -0.128079, 9.511735, -0.059674, 0.115773, 29.702155, -95.838179, 0.047000, 26.900000, -0.082990, -0.211775, -0.300785
8.4000, -0.107259, 0.198835, 9.803856, 0.094949, -0.019615, 0.194803, 0.581963, -1.906969, -150.985751, 156.415242, -3.230415, -6.143954, -5.213017, -0.593021, -0.291424, -0.586678, -0.191746, 0.338082, 9.915662, 1.161803, -0.626692, 29.702155, -95.838180, 0.030000, 0.000000, -0.095030, -0.214785, -0.297775
8.5000, -0.036953, 0.158153, 9.840780, -0.057156, 0.102253, 0.113405, 0.249279, -1.109443, -151.150016, 157.168754, -3.285894, -6.172965, -5.271252, -0.567530, -0.290549, -0.583796, 0.009918, 0.131032, 9.865395, 0.920727, -0.215122, 29.702155, -95.838180, 0.030000, 26.900000, -0.092450, -0.224245, -0.295625
8.6000, -0.482412, 0.145830, 9.840469, 0.017828, 0.053078, -0.057331, 0.332416, -0.911224, -151.886422, 158.372544, -3.333567, -6.198678, -5.329298, -0.507000, -0.268272, -0.581573, -0.779385, 0.137615, 9.840262, 0.848010, -2.806273, 29.702155, -95.838180, 0.030000, 26.900000, -0.109650, -0.220375, -0.299495
8.7000, -0.456658, 0.210915, 9.767099, -0.074260, 0.092173, 0.107144, -0.022727, -0.530113, -151.709157, 154.134333, -3.375516, -6.224453, -5.388170, -0.448654, -0.261260, -0.586336, -0.439488, 0.254305, 9.718186, 1.235727, -2.676274, 29.702155, -95.838180, 0.030000, 26.900000, -0.114380, -0.216505, -0.289175
8.8000, -0.561969, 0.097998, 9.597724, 0.076471, 0.099962, 0.357599, 0.372429, -0.230813, -150.182801, 153.631489, -3.412299, -6.246563, -5.450016, -0.394772, -0.234484, -0.607754, -0.632176, 0.022720, 9.484806, 0.584000, -3.350799, 29.702155, -95.838180, 0.030000, 26.900000, -0.124270, -0.210915, -0.297775
8.9000, -0.712525, -0.394899, 9.624043, 0.012330, -0.205623, -0.341384, 0.094464, -1.640745, -152.259169, 153.963166, -3.441530, -6.257661, -5.513956, -0.326468, -0.152150, -0.628851, -0.812896, -0.723497, 9.641590, -2.343269, -4.230674, 29.702155, -95.838180, 0.030000, 26.900000, -0.129430, -0.188125, -0.307235
9.0000, -0.294498, -0.173769, 9.715716, 0.001487, -0.013659, -0.093220, -0.087195, -1.674283, -152.912524, 149.543198, -3.467540, -6.266804, -5.578443, -0.282225, -0.111665, -0.639529, -0.015814, -0.026350, 9.776831, -1.024179, -1.735914, 29.702155, -95.838180, 0.049000, 0.000000, -0.118680, -0.200165, -0.305085
9.1000, 0.112555, 0.639596, 9.760643, -0.080674, -0.208678, 1.068646, -0.181610, -2.457362, -148.328633, 134.959055, -3.486576, -6.284121, -5.643230, -0.220979, -0.152668, -0.645088, 0.383924, 1.181840, 9.790594, 3.748875, 0.659265, 29.702155, -95.838180, 0.049000, 0.000000, -0.138460, -0.186835, -0.302505
9.2000, 0.163713, 0.262290, 9.761738, -0.175664, -0.001136, 2.174770, -0.961097, -2.044504, -139.711165, 122.484385, -3.502432, -6.302473, -5.708555, -0.179364, -0.173236, -0.650528, 0.197819, 0.010752, 9.762469, 1.538902, 0.960466, 29.702155, -95.838180, 0.049000, 26.900000, -0.213280, -0.139965, -0.300355
9.3000, -0.440204, -0.170125, 9.844398, 0.094949, 0.085454, 2.813735, -0.518395, -1.578329, -130.009874, 109.851495, -3.514440, -6.310843, -5.773312, -0.139846, -0.113550, -0.648561, -0.842816, -0.458402, 9.899505, -0.989066, -2.559965, 29.702155, -95.838180, 0.049000, 26.900000, -0.286810, -0.079765, -0.291755
9.4000, -0.443006, 0.271955, 9.830068, -0.294935, 0.140737, 1.561920, -1.859238, -0.884277, -130.198162, 82.125092, -3.515902, -6.321107, -5.838198, -0.056357, -0.106274, -0.648754, -0.444874, 0.566675, 9.820514, 1.583112, -2.579384, 29.702155, -95.838180, 0.049000, 26.900000, -0.322070, 0.024295, -0.304225
9.5000, -1.758594, -0.345423, 10.234725, 0.140153, -0.180120, 0.883248, -1.169398, -2.663266, -98.186700, 72.052022, -3.518795, -6.298297, -5.898020, -0.038075, 0.116643, -0.615067, -2.635653, -0.757008, 10.504497, -1.905107, -9.744268, 29.702155, -95.838180, 0.049000, 26.900000, -0.339700, 0.110295, -0.298635
9.6000, -0.401633, 0.223737, 10.026053, 0.504687, -0.572906, 1.288099, 1.646830, -5.541129, -66.748664, 68.705096, -3.531593, -6.268160, -5.957536, -0.098008, 0.239796, -0.601798, 0.503008, 0.603178, 9.886938, 1.277353, -2.293411, 29.702155, -95.838180, 0.049000, 26.900000, -0.360340, 0.130075, -0.281435
9.7000, 0.015126, -2.679480, 9.034557, 0.306767, -0.350704, 0.372870, 1.304788, -6.713198, -40.930892, 88.013199, -3.581455, -6.266710, -6.031194, -0.365083, 0.089594, -0.691652, 0.292966, -4.614958, 8.373559, -16.519344, 0.091969, 29.702155, -95.838180, 0.049000, 26.900000, -0.367650, 0.151145, -0.258645
9.8000, 0.505690, -1.654535, 9.298603, -0.237819, 0.281694, -0.016098, -1.230265, -4.169104, -19.232496, 71.794783, -3.627615, -6.277491, -6.107348, -0.429432, -0.042005, -0.738246, 0.832732, -0.971239, 9.474633, -10.074679, 3.064827, 29.702155, -95.838180, 0.051000, 26.900000, -0.349160, 0.146415, -0.263805
9.9000, 0.408215, -0.679778, 9.167969, 0.151607, -0.065735, -0.014571, -0.946683, -3.686232, 0.617919, 65.648492, -3.673213, -6.289643, -6.190545, -0.447131, -0.095020, -0.800726, 0.343232, -0.029940, 9.080880, -4.236373, 2.542511, 29.702155, -95.838180, 0.051000, 26.900000, -0.347010, 0.162325, -0.265955
10.0000, 0.992170, -0.113943, 9.379614, 0.003014, -0.104220, 0.400817, -1.106293, -3.052883, 21.207718, 66.239951, -3.711422, -6.295541, -6.276474, -0.403768, -0.070988, -0.839766, 1.381474, 0.263281, 9.520711, -0.692129, 6.037818, 29.702155, -95.838180, 0.051000, 26.900000, -0.334110, 0.156305, -0.261225
10.1000, 0.199599, 0.593872, 10.069624, -0.094877, -0.040842, -0.318171, -1.327487, -2.617317, 36.501606, 63.579003, -3.762309, -6.294985, -6.356823, -0.473836, -0.019959, -0.815587, -0.328782, 1.065749, 10.529630, 3.374538, 1.133592, 29.702155, -95.838180, 0.051000, 26.900000, -0.331530, 0.133515, -0.265095
10.2000, 0.760079, 0.341301, 9.792338, 0.235907, 0.080720, 0.252072, 0.055792, -1.238686, 53.799813, 65.128121, -3.808852, -6.287406, -6.438430, -0.468230, 0.043874, -0.815907, 1.133732, 0.172921, 9.607480, 1.990193, 4.435701, 29.702155, -95.838180, 0.051000, 26.900000, -0.325510, 0.160175, -0.263375
10.3000, 0.804389, 0.740783, 10.008873, -0.078689, -0.004343, 0.882179, -0.077530, -0.392497, 72.923232, 62.493251, -3.863250, -6.269145, -6.516974, -0.518730, 0.136362, -0.795593, 0.833928, 1.007104, 10.153230, 4.219339, 4.582365, 29.702155, -95.838180, 0.051000, 26.900000, -0.316910, 0.153295, -0.258645
10.4000, 0.081042, 0.222697, 9.769115, 0.030503, 0.021619, -0.021290, 0.085641, 0.101074, 85.786577, 61.638790, -3.918127, -6.253810, -6.597144, -0.538761, 0.147692, -0.799665, -0.401190, -0.122694, 9.609276, 1.305845, 0.475174, 29.702155, -95.838180, 0.020000, 0.000000, -0.311750, 0.165765, -0.262085
10.5000, 1.113710, -0.105895, 9.937469, -0.061738, -0.069859, -0.026330, -0.433366, 0.690229, 97.830842, 64.489152, -3.974068, -6.220650, -6.675403, -0.552521, 0.270295, -0.788280, 1.802156, -0.324956, 10.049705, -0.606730, 6.394199, 29.702155, -95.838180, 0.020000, 26.800000, -0.307020, 0.173505, -0.266815
10.6000, 0.466874, -0.193528, 9.877709, -0.074108, -0.140719, 0.015972, -1.016402, 0.503880, 109.114089, 63.097125, -4.031780, -6.185683, -6.753254, -0.568926, 0.323215, -0.781770, 0.035650, -0.251950, 9.837868, -1.121167, 2.705575, 29.702155, -95.838180, 0.020000, 26.800000, -0.319490, 0.169205, -0.257785
10.7000, -1.461066, -1.396199, 9.852009, -0.777213, -0.024349, 0.351490, -5.861801, -0.201009, 121.038885, 64.154105, -4.072184, -6.169627, -6.829513, -0.459000, 0.214774, -0.768980, -2.746359, -2.197980, 9.834876, -7.979951, -8.353284, 29.702155, -95.838180, 0.020000, 26.800000, -0.309600, 0.188985, -0.264665
10.8000, -0.460708, -0.948774, 9.847115, 0.078456, -0.023586, -0.005713, -5.564865, -0.284801, 130.189380, 63.497480, -4.113270, -6.154095, -6.905206, -0.426907, 0.175140, -0.760950, 0.206196, -0.650491, 9.843852, -5.497511, -2.666364, 29.702155, -95.838180, 0.020000, 26.800000, -0.322930, 0.180815, -0.260365
10.9000, -0.051589, -0.772677, 9.817870, 0.009123, -0.018240, -0.006171, -5.550831, -0.100360, 138.559468, 63.625231, -4.156980, -6.139295, -6.980754, -0.433701, 0.157044, -0.757304, 0.221157, -0.655279, 9.798373, -4.499902, -0.300138, 29.702155, -95.838180, 0.020000, 26.800000, -0.325940, 0.182105, -0.264665
11.0000, 0.103441, -0.783741, 9.744416, -0.066930, -0.002969, -0.004339, -5.933001, 0.236301, 146.215712, 64.355312, -4.204041, -6.125230, -7.057044, -0.458309, 0.146113, -0.761031, 0.206795, -0.791118, 9.695447, -4.598131, 0.606239, 29.702155, -95.838180, 0.020000, 26.800000, -0.324650, 0.179525, -0.258645
11.1000, 0.783731, -0.672554, 9.887377, 0.133434, 0.114623, 0.348283, -5.164459, 1.550359, 154.926644, 63.523721, -4.265558, -6.106927, -7.132053, -0.562882, 0.170730, -0.753737, 1.237257, -0.598430, 9.982684, -3.879221, 4.521713, 29.702155, -95.838180, 0.020000, 26.800000, -0.310460, 0.183825, -0.268105
11.2000, 0.002405, -0.665420, 10.307915, 0.119995, -0.166681, 1.507094, -4.518128, 0.832476, 168.160964, 55.571905, -4.324542, -6.091567, -7.199669, -0.580854, 0.159309, -0.702019, -0.518478, -0.660664, 10.588274, -3.693564, 0.013342, 29.702156, -95.838181, 0.048000, 26.700000, -0.296270, 0.211775, -0.265525
11.3000, 0.083749, -0.796491, 9.931458, 0.309669, -0.187297, 1.099495, -3.052795, 0.127198, 176.862608, 43.334880, -4.383994, -6.071558, -7.267627, -0.589965, 0.186494, -0.687062, 0.137978, -0.883871, 9.680487, -4.585076, 0.481599, 29.702156, -95.838181, 0.048000, 26.700000, -0.227900, 0.270255, -0.263375
11.4000, -0.554771, 0.250121, 9.216455, -0.401531, -0.342304, 2.152779, -4.763174, -1.706212, 188.341319, 24.088101, -4.428504, -6.066166, -7.346334, -0.493385, 0.098113, -0.753734, -0.980451, 0.947862, 8.739786, 1.551733, -3.443414, 29.702156, -95.838181, 0.048000, 26.700000, -0.163400, 0.263805, -0.278855
11.5000, -1.142296, -0.358465, 9.380697, -0.058072, -0.288090, 1.020540, -4.883096, -3.443512, 191.371668, 17.209013, -4.451486, -6.057807, -7.429483, -0.317680, 0.088432, -0.805572, -1.533980, -0.764189, 9.490192, -2.172352, -6.937765, 29.702156, -95.838181, 0.048000, 26.700000, -0.124700, 0.281865, -0.271975
11.6000, -1.064936, -0.442483, 9.573855, -0.059141, -0.104983, 1.676610, -5.028166, -4.018097, 196.062616, 9.511558, -4.456617, -6.047511, -7.515026, -0.140095, 0.098113, -0.838809, -1.013363, -0.498495, 9.702628, -2.630008, -6.340423, 29.702156, -95.838181, 0.048000, 26.700000, -0.074820, 0.290895, -0.271115
11.7000, -0.508349, 0.363000, 9.538378, -0.106636, -0.099638, 1.192499, -4.889540, -4.177088, 196.576110, 4.516937, -4.448391, -6.049466, -7.604899, 0.008142, 0.019676, -0.878755, -0.137291, 0.899989, 9.514727, 2.176356, -3.048497, 29.702156, -95.838181, 0.048000, 26.700000, -0.028380, 0.285735, -0.270685
11.8000, 0.083385, 0.869384, 9.856305, -0.089379, -0.269764, 1.195706, -4.339251, -4.820188, 195.999215, 0.995663, -4.430279, -6.067703, -7.693903, 0.123457, -0.115022, -0.886280, 0.477875, 1.206973, 10.068256, 5.040599, 0.482840, 29.702156, -95.838181, 0.048000, 26.700000, 0.007310, 0.280575, -0.269825
11.9000, -0.143450, -0.088499, 9.326781, -0.220410, 0.134476, 1.677526, -5.045259, -3.432278, 196.724391, 352.450761, -4.404719, -6.086700, -7.790584, 0.211551, -0.164992, -0.939964, -0.294673, -0.727088, 8.973764, -0.543582, -0.881123, 29.702157, -95.838181, 0.025000, 26.600000, 0.023650, 0.268965, -0.274125
12.0000, 0.053053, 0.234232, 9.322858, 0.048829, -0.052143, 0.030786, -4.064101, -3.006911, 187.715572, 348.479521, -4.375313, -6.115620, -7.892638, 0.266561, -0.247794, -0.993682, 0.184055, 0.449386, 9.320244, 1.439202, 0.325945, 29.702157, -95.838181, 0.025000, 26.600000, 0.060630, 0.256925, -0.281005
12.1000, -0.774937, 0.157232, 9.558619, 0.022256, 0.009248, -0.005102, -3.341862, -2.806397, 177.946062, 337.526986, -4.330441, -6.151772, -7.996898, 0.387999, -0.323612, -1.026300, -1.326930, 0.105899, 9.715793, 0.939307, -4.634324, 29.702157, -95.838181, 0.025000, 26.600000, 0.066650, 0.251765, -0.290895
12.2000, -0.727339, 0.113866, 10.020945, 0.257440, -0.049242, 0.038116, -1.492745, -2.887260, 168.683037, 341.127254, -4.274641, -6.193270, -8.097200, 0.501335, -0.384524, -1.010777, -0.695607, 0.084955, 10.329163, 0.649303, -4.151089, 29.702157, -95.838181, 0.025000, 26.600000, 0.068800, 0.254345, -0.284015
12.3000, -0.338124, 0.186999, 9.881657, 0.001029, -0.010910, -0.004186, -1.094960, -2.542584, 159.843449, 345.845681, -4.215524, -6.241025, -8.197654, 0.561225, -0.446540, -1.006621, -0.078647, 0.235754, 9.788799, 1.083491, -1.959392, 29.702157, -95.838181, 0.025000, 26.600000, 0.060630, 0.242735, -0.289175
12.4000, -0.180283, 0.219483, 9.829174, 0.003472, -0.011674, -0.002048, -0.693253, -2.139953, 151.537280, 345.717667, -4.154606, -6.294052, -8.298283, 0.593191, -0.502361, -1.006400, -0.075056, 0.241140, 9.794184, 1.278974, -1.050520, 29.702157, -95.838181, 0.025000, 26.600000, 0.062350, 0.246605, -0.292185
12.5000, -0.121097, 0.232836, 9.806744, 0.003014, -0.014575, -0.003270, -0.315984, -1.752197, 143.608745, 344.401592, -4.092759, -6.351498, -8.399118, 0.610047, -0.550426, -1.007697, -0.081639, 0.241738, 9.791791, 1.359983, -0.707270, 29.702157, -95.838181, 0.004000, 0.000000, 0.067080, 0.241875, -0.293045
12.6000, -0.097781, 0.236741, 9.801722, 0.002861, -0.010146, -0.004644, 0.033304, -1.361910, 136.194609, 346.124125, -4.030573, -6.412476, -8.500086, 0.617922, -0.589993, -1.009021, -0.082237, 0.239344, 9.798373, 1.383528, -0.571391, 29.702157, -95.838181, 0.004000, 26.700000, 0.060630, 0.248325, -0.294335
12.7000, -0.090250, 0.237585, 9.798635, 0.002403, -0.013964, -0.005102, 0.352211, -1.022697, 129.146759, 344.642720, -3.968333, -6.476239, -8.601187, 0.620907, -0.621753, -1.010347, -0.085229, 0.238148, 9.796578, 1.388905, -0.527551, 29.702157, -95.838181, 0.004000, 26.700000, 0.066650, 0.244885, -0.289175
12.8000, -0.086519, 0.237204, 9.798478, 0.003625, -0.012590, -0.002506, 0.649950, -0.706562, 122.630641, 346.513070, -3.906157, -6.542053, -8.702391, 0.621474, -0.646013, -1.011474, -0.084032, 0.236951, 9.798373, 1.386708, -0.505754, 29.702157, -95.838181, 0.004000, 26.700000, 0.059340, 0.250905, -0.294765
12.9000, -0.092926, 0.231667, 9.798415, 0.004847, -0.011063, -0.005561, 0.923884, -0.418147, 116.541185, 346.416166, -3.843896, -6.609355, -8.803689, 0.622234, -0.664016, -1.012481, -0.097197, 0.227975, 9.798373, 1.354346, -0.543214, 29.702157, -95.838181, 0.004000, 26.700000, 0.058910, 0.249185, -0.298635
13.0000, -0.074305, 0.239864, 9.782233, 0.003167, -0.010605, -0.002812, 1.168417, -0.146803, 110.867432, 346.192521, -3.781707, -6.677365, -8.905314, 0.622004, -0.674738, -1.014994, -0.061891, 0.245328, 9.771445, 1.404590, -0.435076, 29.702157, -95.838181, 0.004000, 26.700000, 0.061490, 0.250475, -0.285305
13.1000, -0.094503, 0.271148, 9.752063, -0.004927, -0.012590, 0.000090, 1.366862, 0.072097, 105.622709, 346.552192, -3.719729, -6.746182, -9.007626, 0.620516, -0.683693, -1.020407, -0.107969, 0.292004, 9.731950, 1.592577, -0.554999, 29.702157, -95.838181, 0.004000, 26.700000, 0.057190, 0.244025, -0.289175
13.2000, -0.089657, 0.244167, 9.785953, 0.009276, -0.013048, -0.001437, 1.601962, 0.265500, 100.669901, 345.156385, -3.657120, -6.815122, -9.109978, 0.624236, -0.687499, -1.022481, -0.086426, 0.226179, 9.808546, 1.429216, -0.524755, 29.702157, -95.838181, 0.004000, 26.700000, 0.065360, 0.249615, -0.287455
13.3000, -0.091309, 0.242710, 9.799868, 0.000571, -0.011826, -0.002354, 1.765885, 0.439688, 96.107142, 346.016931, -3.593785, -6.884017, -9.212329, 0.630313, -0.688466, -1.023170, -0.092410, 0.241738, 9.809145, 1.418671, -0.533667, 29.702157, -95.838180, 0.057000, 0.000000, 0.061490, 0.250905, -0.295195
13.4000, -0.082994, 0.242845, 9.798971, -0.004774, -0.013659, -0.003881, 1.883471, 0.585896, 91.861248, 345.330035, -3.529572, -6.952567, -9.314766, 0.638187, -0.686486, -1.023971, -0.077450, 0.242935, 9.798373, 1.419601, -0.485113, 29.702157, -95.838180, 0.057000, 26.600000, 0.065360, 0.251335, -0.293045
13.5000, -0.084335, 0.234641, 9.799331, 0.002556, -0.011521, -0.002354, 2.018876, 0.721010, 88.008946, 346.153836, -3.464073, -7.020688, -9.417286, 0.649388, -0.682972, -1.024791, -0.085229, 0.229171, 9.799570, 1.371610, -0.492945, 29.702157, -95.838180, 0.057000, 26.600000, 0.060200, 0.247895, -0.301215
13.6000, -0.076973, 0.214843, 9.798756, 0.003930, -0.009077, -0.002659, 2.131607, 0.852213, 84.567030, 347.201052, -3.396800, -7.088171, -9.519915, 0.664949, -0.677541, -1.025788, -0.072064, 0.201645, 9.798373, 1.256001, -0.449960, 29.702157, -95.838180, 0.057000, 26.600000, 0.057190, 0.255205, -0.288745
13.7000, -0.066488, 0.191126, 9.778420, 0.027907, -0.002511, -0.001590, 2.336633, 1.002396, 81.426624, 346.424197, -3.326991, -7.154838, -9.622978, 0.687047, -0.670296, -1.029013, -0.059498, 0.175315, 9.764862, 1.119717, -0.389498, 29.702157, -95.838180, 0.057000, 26.600000, 0.059340, 0.247895, -0.290895
13.8000, -0.077015, 0.388091, 9.804754, -0.008134, -0.007550, -0.004797, 2.447447, 1.096959, 78.622397, 347.381143, -3.257503, -7.220329, -9.725848, 0.692269, -0.660040, -1.028807, -0.084032, 0.519400, 9.822310, 2.266621, -0.449686, 29.702157, -95.838180, 0.057000, 26.600000, 0.055900, 0.245745, -0.294335
13.9000, -0.124311, 0.442461, 9.889251, -0.009509, -0.015492, 0.010169, 2.569292, 1.104141, 76.057781, 345.106914, -3.188017, -7.285370, -9.827383, 0.693996, -0.653620, -1.019837, -0.155842, 0.478708, 9.945582, 2.561596, -0.719467, 29.702157, -95.838180, 0.057000, 26.600000, 0.063640, 0.242735, -0.291755
14.0000, -0.077883, 0.403172, 9.851958, 0.001029, -0.031679, -0.003423, 2.709899, 1.044802, 73.645029, 345.202322, -3.117279, -7.349532, -9.928620, 0.702917, -0.645616, -1.014859, -0.046931, 0.376979, 9.827097, 2.343334, -0.452554, 29.702157, -95.838180, 0.057000, 26.600000, 0.066650, 0.246605, -0.290465
14.1000, -0.056439, 0.281537, 9.768823, -0.001415, -0.020073, 0.009253, 2.749396, 1.055344, 71.605631, 346.246705, -3.043736, -7.413222, -10.030699, 0.724596, -0.639807, -1.018812, -0.042144, 0.200448, 9.713399, 1.650779, -0.330886, 29.702157, -95.838180, 0.021000, 0.000000, 0.061920, 0.252195, -0.290465
14.2000, -0.064737, 0.269147, 9.812404, 0.032488, -0.029389, 0.002075, 2.944374, 1.004206, 69.831393, 347.005206, -2.967409, -7.476909, -10.132537, 0.750375, -0.637849, -1.018522, -0.070269, 0.260887, 9.841459, 1.571154, -0.377860, 29.702157, -95.838180, 0.021000, 26.500000, 0.055900, 0.243595, -0.287885
14.3000, -0.084572, 0.347490, 9.798241, 0.015537, -0.016102, -0.002201, 3.072007, 1.006672, 68.197325, 345.588090, -2.889403, -7.540465, -10.234498, 0.770168, -0.636325, -1.019246, -0.097796, 0.399718, 9.788799, 2.031040, -0.494219, 29.702157, -95.838180, 0.021000, 26.500000, 0.061920, 0.240585, -0.298205
14.4000, -0.116204, 0.291220, 9.841406, 0.025158, -0.024960, -0.001895, 3.194984, 0.935986, 66.761950, 345.709602, -2.808570, -7.605008, -10.335928, 0.795609, -0.642397, -1.015954, -0.137291, 0.253706, 9.870182, 1.694842, -0.676199, 29.702157, -95.838180, 0.021000, 26.500000, 0.061060, 0.248325, -0.295195
14.5000, -0.097619, 0.229935, 9.883087, -0.036081, -0.031221, 0.021776, 2.944633, 0.842791, 65.664021, 346.075204, -2.724913, -7.670314, -10.436441, 0.822913, -0.649506, -1.008732, -0.085229, 0.189078, 9.910874, 1.332708, -0.565761, 29.702157, -95.838180, 0.021000, 26.500000, 0.060200, 0.247465, -0.295625
14.6000, 0.026864, 0.423721, 9.753987, -0.045702, -0.057336, 0.047585, 2.781563, 0.692265, 65.007539, 348.163542, -2.641023, -7.733614, -10.538033, 0.833575, -0.638497, -1.013530, 0.109852, 0.552911, 9.667920, 2.487399, 0.157651, 29.702157, -95.838180, 0.021000, 26.500000, 0.059340, 0.250905, -0.293045
14.7000, 0.012029, 0.234105, 9.733225, -0.028445, -0.030000, -0.001132, 2.607189, 0.685677, 64.243831, 347.379192, -2.554006, -7.797089, -10.640542, 0.857973, -0.636000, -1.021235, 0.002139, 0.107694, 9.719383, 1.377819, 0.070788, 29.702157, -95.838180, 0.021000, 26.500000, 0.056760, 0.250045, -0.287455
14.8000, 0.121707, -0.116771, 9.772314, -0.204069, -0.025265, 0.053082, 1.328057, 0.767302, 63.987850, 348.571020, -2.461920, -7.859543, -10.743348, 0.899892, -0.628361, -1.025787, 0.194827, -0.350688, 9.798373, -0.684550, 0.713492, 29.702157, -95.838179, 0.040000, 0.000000, 0.054180, 0.250045, -0.289605
14.9000, 0.242415, 0.388444, 9.678800, -0.049368, -0.017171, 0.167314, 1.274172, 0.956453, 64.625905, 351.204307, -2.371680, -7.915790, -10.847882, 0.901564, -0.584435, -1.038822, 0.322886, 0.725253, 9.616457, 2.297524, 1.433574, 29.702157, -95.838179, 0.040000, 26.600000, 0.053320, 0.263375, -0.280145
15.0000, 0.183343, 0.016415, 9.677657, 0.089604, -0.020226, -0.007393, 1.716898, 1.076851, 64.296002, 348.463049, -2.275451, -7.971079, -10.953885, 0.942048, -0.563401, -1.052957, 0.143962, -0.231604, 9.676896, 0.097165, 1.085336, 29.702157, -95.838179, 0.040000, 26.600000, 0.056760, 0.264235, -0.284015
15.1000, 0.048051, 0.062565, 9.717055, -0.023864, -0.005870, -0.012280, 1.550033, 1.175264, 63.837416, 345.540893, -2.176914, -8.025414, -11.060648, 0.970930, -0.550036, -1.062741, -0.042144, 0.093332, 9.743320, 0.368902, 0.283320, 29.702157, -95.838179, 0.040000, 26.600000, 0.064930, 0.253915, -0.291325
15.2000, 0.177048, 0.455870, 9.401773, 0.124729, 0.208543, -0.013807, 2.406582, 2.441820, 63.672216, 349.918602, -2.076792, -8.072244, -11.173124, 0.991122, -0.495548, -1.104088, 0.263045, 0.718072, 9.191586, 2.775470, 1.077561, 29.702157, -95.838179, 0.040000, 26.600000, 0.057190, 0.253485, -0.288315
15.3000, 0.078924, 0.209983, 9.637220, -0.002025, -0.013201, -0.003270, 2.366918, 2.367380, 63.612219, 347.882438, -1.971972, -8.116645, -11.286290, 1.029180, -0.461186, -1.122469, 0.013508, 0.046058, 9.794184, 1.248162, 0.469102, 29.702157, -95.838179, 0.040000, 26.600000, 0.055470, 0.255205, -0.283585
15.4000, 0.000898, 0.321311, 9.456728, -0.339376, 0.202587, -0.034424, 0.665205, 3.349796, 63.410787, 347.071690, -1.868173, -8.153917, -11.404033, 1.035047, -0.402210, -1.159109, -0.051120, 0.395529, 9.336401, 1.945987, 0.005436, 29.702157, -95.838179, 0.040000, 26.600000, 0.059770, 0.255205, -0.292615
15.5000, 0.040060, 0.068193, 9.912329, -0.024169, -0.016102, -0.096732, 0.604864, 3.111774, 63.033131, 348.225407, -1.760249, -8.186658, -11.518658, 1.064511, -0.352340, -1.150538, 0.066168, -0.100553, 10.216063, 0.394162, 0.231551, 29.702157, -95.838178, 0.030000, 0.000000, 0.056330, 0.264235, -0.283155
15.6000, 0.291259, -0.652409, 9.823131, -0.059447, -0.009994, -0.041907, -0.066704, 3.065328, 63.348921, 352.444580, -1.639713, -8.215262, -11.633948, 1.158408, -0.308146, -1.152113, 0.458725, -1.132810, 9.763666, -3.798087, 1.694611, 29.702157, -95.838178, 0.030000, 26.600000, 0.045580, 0.281005, -0.272405
15.7000, 0.495862, -0.380538, 9.613673, 0.206127, -0.249300, -0.171869, 0.833186, 1.917455, 63.231801, 353.321712, -1.511385, -8.238650, -11.752532, 1.241660, -0.258631, -1.174597, 0.632264, -0.199290, 9.474035, -2.263747, 2.950328, 29.702157, -95.838178, 0.030000, 26.600000, 0.048590, 0.263375, -0.275415
15.8000, 0.218298, -0.183823, 9.724852, 0.006985, -0.012437, -0.005561, 0.722111, 1.938068, 63.895246, 349.295509, -1.379482, -8.259168, -11.871510, 1.293238, -0.222995, -1.184715, 0.033256, -0.052680, 9.798972, -1.082625, 1.285701, 29.702157, -95.838178, 0.030000, 26.600000, 0.049880, 0.260365, -0.278855
15.9000, 0.116249, -0.084312, 9.767170, 0.002251, -0.012437, -0.004797, 0.649047, 1.890160, 64.441295, 348.127474, -1.244684, -8.276798, -11.990785, 1.329735, -0.191866, -1.190071, 0.048216, -0.017972, 9.795381, -0.494542, 0.681878, 29.702157, -95.838178, 0.030000, 26.600000, 0.055470, 0.257785, -0.281005
16.0000, 0.074711, -0.048458, 9.783738, 0.006069, -0.010910, -0.003575, 0.618553, 1.822839, 65.055368, 349.628828, -1.107174, -8.291711, -12.110312, 1.359978, -0.163378, -1.193540, 0.047019, -0.024554, 9.794783, -0.283768, 0.437512, 29.702157, -95.838178, 0.030000, 26.600000, 0.049450, 0.263805, -0.269395
16.1000, 0.057019, -0.035911, 9.790006, -0.000498, -0.010452, -0.004797, 0.560021, 1.746213, 65.668445, 349.194455, -0.967182, -8.304006, -12.230072, 1.386607, -0.136427, -1.196249, 0.045224, -0.027546, 9.794184, -0.210163, 0.333696, 29.702157, -95.838178, 0.015000, 0.000000, 0.049880, 0.255205, -0.287025
16.2000, 0.051737, -0.031251, 9.793590, 0.001640, -0.011063, -0.002964, 0.517004, 1.663161, 66.218459, 347.905815, -0.824847, -8.313761, -12.350038, 1.411101, -0.110509, -1.198521, 0.048216, -0.028145, 9.795980, -0.182827, 0.302676, 29.702157, -95.838178, 0.015000, 26.700000, 0.057190, 0.261225, -0.282295
16.3000, 0.050702, -0.032619, 9.793588, -0.001415, -0.011674, -0.004186, 0.457964, 1.577236, 66.745311, 347.983149, -0.680312, -8.321056, -12.470222, 1.433933, -0.085466, -1.200730, 0.050011, -0.033531, 9.793586, -0.190828, 0.296618, 29.702157, -95.838178, 0.015000, 26.700000, 0.057620, 0.265095, -0.271975
16.4000, 0.045979, -0.033525, 9.796459, 0.000876, -0.012895, -0.005561, 0.412586, 1.483807, 67.277259, 348.198657, -0.533743, -8.326060, -12.590572, 1.455105, -0.061849, -1.202581, 0.042830, -0.034129, 9.798373, -0.196072, 0.268910, 29.702157, -95.838178, 0.015000, 26.700000, 0.054610, 0.256495, -0.279715
16.5000, 0.047680, -0.029938, 9.797608, 0.005763, -0.013048, -0.004339, 0.395733, 1.393421, 67.847496, 348.593811, -0.385259, -8.328825, -12.711084, 1.474926, -0.039049, -1.204270, 0.048815, -0.027546, 9.798373, -0.175072, 0.278828, 29.702157, -95.838178, 0.015000, 26.700000, 0.052890, 0.256065, -0.278425
16.6000, 0.046566, -0.027426, 9.794117, 0.007290, -0.010757, -0.003117, 0.386749, 1.317181, 68.482815, 349.357433, -0.234967, -8.329453, -12.831810, 1.493593, -0.017205, -1.206265, 0.045823, -0.025751, 9.791791, -0.160440, 0.272407, 29.702157, -95.838178, 0.015000, 26.700000, 0.049880, 0.259075, -0.285735
16.7000, 0.056532, -0.024267, 9.794876, 0.003472, -0.014575, -0.003423, 0.357903, 1.229366, 69.052224, 348.064752, -0.082980, -8.327896, -12.952721, 1.511107, 0.004644, -1.208159, 0.063176, -0.022161, 9.795381, -0.141948, 0.330684, 29.702157, -95.838178, 0.015000, 26.700000, 0.057620, 0.264665, -0.280575
16.8000, 0.056569, -0.028748, 9.796974, 0.001487, -0.009688, -0.002659, 0.316302, 1.170669, 69.635952, 348.688745, 0.070635, -8.324254, -13.073784, 1.527805, 0.025828, -1.209812, 0.056594, -0.031735, 9.798373, -0.168124, 0.330829, 29.702157, -95.838178, 0.008000, 0.000000, 0.053750, 0.261655, -0.275415
16.9000, 0.057661, -0.020846, 9.797814, 0.001487, -0.012743, -0.001285, 0.281065, 1.098271, 70.213323, 348.525757, 0.225635, -8.318557, -13.194995, 1.542598, 0.046590, -1.211343, 0.058389, -0.015578, 9.798373, -0.121902, 0.337187, 29.702157, -95.838178, 0.008000, 26.700000, 0.054180, 0.259075, -0.282295
17.0000, 0.053430, -0.015890, 9.798508, -0.000956, -0.009536, -0.000216, 0.237658, 1.042963, 70.786061, 348.589052, 0.381839, -8.310894, -13.316343, 1.555564, 0.066616, -1.212767, 0.050610, -0.012586, 9.798972, -0.092915, 0.312425, 29.702157, -95.838178, 0.008000, 26.700000, 0.053320, 0.257355, -0.280575
17.1000, 0.049584, -0.016780, 9.798427, 0.000876, -0.011215, -0.003423, 0.205749, 0.978286, 71.375575, 349.354609, 0.539173, -8.301399, -13.437829, 1.567414, 0.085507, -1.214164, 0.047019, -0.017374, 9.798373, -0.098120, 0.289935, 29.702157, -95.838178, 0.008000, 26.700000, 0.049450, 0.256495, -0.277135
17.2000, 0.046250, -0.021086, 9.798395, 0.003472, -0.009077, -0.004339, 0.186144, 0.925367, 71.884291, 348.111777, 0.697623, -8.290180, -13.559452, 1.578802, 0.103297, -1.215539, 0.044027, -0.023956, 9.798373, -0.123296, 0.270442, 29.702157, -95.838178, 0.008000, 26.700000, 0.056760, 0.264235, -0.284875
17.3000, 0.049584, -0.023167, 9.796228, 0.002251, -0.011674, -0.004644, 0.159277, 0.862920, 72.390738, 348.714054, 0.857118, -8.277261, -13.681242, 1.589569, 0.120560, -1.217112, 0.051807, -0.024554, 9.794783, -0.135496, 0.290001, 29.702157, -95.838178, 0.008000, 26.700000, 0.052460, 0.256065, -0.283585
17.4000, 0.053072, -0.026872, 9.797515, 0.001487, -0.013659, -0.002048, 0.127356, 0.795620, 72.856922, 348.036017, 1.017608, -8.262709, -13.803167, 1.599792, 0.137197, -1.218537, 0.055397, -0.029342, 9.798373, -0.157143, 0.310359, 29.702157, -95.838178, 0.008000, 26.700000, 0.056760, 0.261225, -0.280145
17.5000, 0.054467, -0.023686, 9.798030, 0.004541, -0.013354, -0.004033, 0.114751, 0.734963, 73.353276, 349.212059, 1.178984, -8.246587, -13.925224, 1.609102, 0.153215, -1.219892, 0.055397, -0.021562, 9.798373, -0.138507, 0.318501, 29.702157, -95.838178, 0.008000, 26.700000, 0.049450, 0.251765, -0.282295
17.6000, 0.051076, -0.025284, 9.797159, 0.003167, -0.016102, -0.004644, 0.093986, 0.662065, 73.850276, 349.213461, 1.341175, -8.229071, -14.047425, 1.617644, 0.167844, -1.221306, 0.048815, -0.026350, 9.796578, -0.147865, 0.298696, 29.702157, -95.838178, 0.039000, 26.700000, 0.050310, 0.257355, -0.286165
17.7000, 0.050078, -0.027360, 9.797169, 0.003320, -0.013506, -0.004186, 0.073528, 0.607395, 74.300316, 348.622288, 1.504141, -8.210226, -14.169765, 1.625653, 0.181583, -1.222701, 0.049413, -0.028743, 9.797176, -0.160002, 0.292862, 29.702157, -95.838178, 0.039000, 26.700000, 0.053320, 0.258645, -0.285735
17.8000, 0.050756, -0.023163, 9.794660, 0.004847, -0.013048, -0.004492, 0.064252, 0.559386, 74.666857, 347.826914, 1.667781, -8.190085, -14.292280, 1.632817, 0.194797, -1.224334, 0.051208, -0.020366, 9.792988, -0.135496, 0.296904, 29.702157, -95.838178, 0.039000, 26.700000, 0.057620, 0.260795, -0.284875
17.9000, 0.052464, -0.023280, 9.795452, 0.004389, -0.012895, -0.003575, 0.052382, 0.516687, 74.998387, 347.860658, 1.832077, -8.168691, -14.414945, 1.639575, 0.207562, -1.225879, 0.053602, -0.023358, 9.795980, -0.136167, 0.306867, 29.702157, -95.838178, 0.039000, 26.700000, 0.057190, 0.259505, -0.276275
18.0000, 0.049197, -0.026558, 9.794332, 0.003167, -0.010299, -0.004492, 0.032408, 0.488580, 75.378440, 349.138325, 1.997003, -8.146130, -14.537780, 1.646031, 0.219593, -1.227525, 0.047019, -0.028743, 9.793586, -0.155359, 0.287794, 29.702157, -95.838178, 0.039000, 26.700000, 0.050740, 0.258215, -0.281865
18.1000, 0.359183, -0.386915, 9.109902, 0.265992, -0.047257, 0.099050, 1.126891, 0.476760, 76.390177, 350.635184, 2.171392, -8.119828, -14.671224, 1.711275, 0.248543, -1.298802, 0.565841, -0.627153, 8.653615, -2.430115, 2.255845, 29.702157, -95.838178, 0.039000, 26.700000, 0.057620, 0.260365, -0.276705
18.2000, 0.462353, -0.469661, 9.648292, 0.109763, 0.025436, 0.019638, 1.248654, 0.899828, 76.891660, 349.371398, 2.354539, -8.088322, -14.803845, 1.791401, 0.292889, -1.317071, 0.531133, -0.524825, 10.007218, -2.783664, 2.740317, 29.702157, -95.838178, 0.039000, 26.700000, 0.060200, 0.257785, -0.274555
18.3000, 0.182993, -0.139764, 9.738700, 0.003778, -0.009841, -0.004339, 0.994266, 0.935576, 77.139850, 348.243967, 2.539335, -8.055064, -14.936744, 1.829110, 0.319351, -1.325018, -0.003247, 0.080167, 9.798972, -0.822074, 1.076367, 29.702157, -95.838177, 0.017000, 0.000000, 0.053320, 0.254345, -0.284445
18.4000, 0.243232, 0.015533, 9.694078, 0.138932, -0.174469, -0.023887, 1.544819, 0.160534, 77.310640, 349.424264, 2.726734, -8.019982, -15.071042, 1.859030, 0.340330, -1.336993, 0.283391, 0.119064, 9.664329, 0.091776, 1.437292, 29.702157, -95.838177, 0.017000, 26.700000, 0.055900, 0.251335, -0.283155
18.5000, 0.158178, 0.137253, 9.783583, -0.054407, 0.047428, 0.034909, 1.111096, 0.559547, 77.852307, 350.399149, 2.914208, -7.982394, -15.205155, 1.869500, 0.364029, -1.339754, 0.101475, 0.218400, 9.843254, 0.803640, 0.926166, 29.702157, -95.838177, 0.017000, 26.700000, 0.046440, 0.251335, -0.279715
18.6000, 0.041934, 0.207125, 9.851341, -0.133056, 0.002987, -0.014571, 0.358399, 0.620205, 78.072215, 349.519587, 3.099483, -7.943359, -15.338509, 1.858335, 0.381574, -1.335612, -0.035561, 0.253706, 9.896513, 1.204459, 0.243836, 29.702157, -95.838177, 0.017000, 26.700000, 0.048160, 0.258645, -0.287885
18.7000, 0.202247, -0.191832, 9.803044, 0.014773, -0.008772, -0.066953, 0.206359, 0.709394, 78.022519, 349.836292, 3.289657, -7.901161, -15.472235, 1.887270, 0.408515, -1.336709, 0.309123, -0.457803, 9.770846, -1.120817, 1.181680, 29.702157, -95.838177, 0.017000, 26.700000, 0.052460, 0.255635, -0.287455
18.8000, 0.125627, -0.063460, 9.761106, -0.038830, -0.000983, -0.053972, -0.135005, 0.785880, 78.102599, 350.555549, 3.479780, -7.856626, -15.606677, 1.896579, 0.433073, -1.341850, 0.074546, 0.022122, 9.733147, -0.372461, 0.737348, 29.702157, -95.838177, 0.017000, 26.700000, 0.046010, 0.262945, -0.282295
18.9000, -0.037510, 0.069751, 9.714170, 0.018591, -0.006481, -0.065731, -0.066071, 0.726421, 78.068090, 349.337214, 3.668515, -7.811810, -15.742305, 1.890429, 0.443126, -1.351472, -0.146267, 0.158559, 9.682880, 0.411396, -0.221231, 29.702157, -95.838177, 0.017000, 26.700000, 0.045580, 0.259935, -0.279285
19.0000, -0.146209, 0.163608, 9.693960, -0.032416, -0.010757, -0.072450, -0.205846, 0.579080, 77.955225, 348.780706, 3.854496, -7.767584, -15.879188, 1.870016, 0.442550, -1.363043, -0.218675, 0.226179, 9.680487, 0.966798, -0.863972, 29.702157, -95.838177, 0.017000, 26.700000, 0.047300, 0.263375, -0.274985
19.1000, -0.045352, 0.119288, 9.757326, 0.039666, 0.111721, -0.114295, 0.018031, 1.129783, 77.692024, 349.883418, 4.040265, -7.720803, -16.016297, 1.861796, 0.459394, -1.368407, 0.021886, 0.089742, 9.799570, 0.700428, -0.266287, 29.702157, -95.838177, 0.020000, 26.700000, 0.048590, 0.266385, -0.274555
19.2000, -0.011113, 0.011440, 9.784468, 0.006832, -0.013048, -0.059775, -0.011802, 0.995608, 77.889149, 351.907836, 4.226747, -7.672490, -16.153540, 1.863814, 0.475213, -1.371089, 0.011713, -0.060459, 9.802562, 0.066990, -0.065074, 29.702157, -95.838177, 0.020000, 26.700000, 0.037410, 0.262515, -0.270255
19.3000, 0.037410, -0.096328, 9.719566, -0.002025, -0.004343, -0.057179, -0.149465, 0.943678, 78.154115, 351.889741, 4.414779, -7.622288, -16.292031, 1.874814, 0.493084, -1.380304, 0.069759, -0.168173, 9.676298, -0.567819, 0.220517, 29.702157, -95.838177, 0.020000, 26.700000, 0.039130, 0.265525, -0.274125
