Time, AccX(m/s^2), AccY(m/s^2), AccZ(m/s^2), GyrX(rad/s), GyrY(rad/s), GyrZ(rad/s), Roll(deg), Pitch(deg), Yaw(deg), Heading, X(m), Y(m), Z(m),         Vx(m/s), Vy(m/s), Vz(m/s), AccXraw(m/s^2), AccYraw(m/s^2), AccZraw(m/s^2), RollAcc(deg/s^2), PitchAcc(deg/s^2), Latitude, Longitude,             GPShspeed(m/s), GPSalt(m), MagX(uT), MagY(ut), MagZ(uT)
0.0000, -0.068372, 0.139298, 5.865021, -0.000040, -0.014728, -0.001743, 1.360225, -0.667936, 89.252998, 359.240307, -0.000027, -0.002051, -0.059168, -0.000182, -0.013675, -0.394452, -0.113953, 0.232163, 9.775035, 1.360464, -0.667710, 29.702174, -95.838167, 0.029000, 28.900000, 0.000860, 0.285735, -0.258215
0.1000, -0.093925, 0.191786, 8.204926, 0.002861, -0.013506, -0.004339, 1.355158, -0.694168, 89.340276, 359.478050, -0.000044, -0.006319, -0.122682, -0.000173, -0.033011, -0.554909, -0.110961, 0.226778, 9.764862, 1.338928, -0.655681, 29.702174, -95.838167, 0.029000, 28.900000, -0.000430, 0.278855, -0.266385
0.2000, -0.105583, 0.205241, 9.136220, 0.004847, -0.011368, -0.001285, 1.329382, -0.701590, 88.937831, 358.059048, -0.000020, -0.012884, -0.188274, 0.000101, -0.054767, -0.622255, -0.113355, 0.214211, 9.757083, 1.286821, -0.661943, 29.702174, -95.838167, 0.029000, 28.900000, 0.006450, 0.275415, -0.265095
0.3000, -0.115273, 0.210623, 9.522023, 0.002709, -0.014728, -0.005713, 1.292738, -0.723081, 88.831161, 359.063202, -0.000018, -0.021893, -0.254818, 0.000046, -0.078317, -0.651041, -0.121732, 0.214211, 9.779224, 1.267059, -0.693413, 29.702174, -95.838167, 0.029000, 28.900000, 0.001290, 0.275845, -0.266385
0.4000, -0.116635, 0.213853, 9.668804, 0.001640, -0.008467, -0.004186, 1.267822, -0.710396, 88.945980, 359.368589, -0.000077, -0.033272, -0.322037, -0.000376, -0.101966, -0.665143, -0.117543, 0.216006, 9.766658, 1.266960, -0.690958, 29.702174, -95.838168, 0.116000, 0.000000, 0.000000, 0.283155, -0.264665
0.5000, -0.121130, 0.216940, 9.730747, 0.003014, -0.011368, -0.004186, 1.263478, -0.721076, 89.362469, 0.348731, -0.000190, -0.047122, -0.389739, -0.000880, -0.126323, -0.673056, -0.124126, 0.218998, 9.772043, 1.277059, -0.713011, 29.702174, -95.838168, 0.116000, 28.800000, -0.005160, 0.279715, -0.269395
0.6000, -0.114669, 0.216021, 9.752293, 0.005763, -0.014423, -0.004950, 1.267190, -0.719496, 89.324685, 358.721363, -0.000325, -0.063311, -0.457907, -0.001189, -0.150036, -0.678809, -0.110363, 0.215408, 9.766658, 1.268851, -0.673498, 29.702174, -95.838168, 0.116000, 28.800000, 0.003440, 0.282295, -0.264665
0.7000, -0.113521, 0.219962, 9.768811, 0.002556, -0.013964, -0.002812, 1.266733, -0.712008, 89.289066, 359.117936, -0.000547, -0.081838, -0.526401, -0.001875, -0.173523, -0.682897, -0.112756, 0.222589, 9.779823, 1.289809, -0.665624, 29.702174, -95.838168, 0.116000, 28.800000, 0.001290, 0.276275, -0.265095
0.8000, -0.114498, 0.221179, 9.765365, 0.002709, -0.018393, -0.004797, 1.270434, -0.724207, 89.094509, 358.405703, -0.000860, -0.102758, -0.595356, -0.002713, -0.197308, -0.687332, -0.115150, 0.221990, 9.763067, 1.297400, -0.671587, 29.702174, -95.838168, 0.116000, 28.800000, 0.004730, 0.275415, -0.262945
0.9000, -0.114530, 0.218434, 9.766140, 0.005916, -0.015339, -0.004033, 1.280213, -0.719576, 89.131056, 359.546792, -0.001188, -0.126046, -0.664744, -0.003091, -0.221025, -0.691695, -0.114551, 0.216605, 9.766658, 1.281205, -0.671724, 29.702174, -95.838168, 0.116000, 28.800000, -0.000860, 0.278425, -0.265095
1.0000, -0.115979, 0.222004, 9.779735, 0.000723, -0.011521, -0.006477, 1.272467, -0.702861, 89.339525, 0.229418, -0.001609, -0.151687, -0.734362, -0.003840, -0.244615, -0.694686, -0.116945, 0.224384, 9.788799, 1.300324, -0.679271, 29.702174, -95.838168, 0.116000, 28.800000, -0.004300, 0.278425, -0.264665
1.1000, -0.107942, 0.216251, 9.777274, 0.000418, -0.014270, -0.002964, 1.256438, -0.688194, 89.681445, 0.812481, -0.002039, -0.179530, -0.804315, -0.004146, -0.267153, -0.697919, -0.102583, 0.212416, 9.775634, 1.266970, -0.632368, 29.702174, -95.838168, 0.116000, 28.800000, -0.006880, 0.279715, -0.269825
1.2000, -0.109035, 0.216822, 9.777726, 0.007138, -0.013659, -0.004492, 1.273820, -0.676017, 89.636022, 358.582188, -0.002466, -0.209611, -0.874585, -0.004229, -0.289595, -0.701103, -0.109764, 0.217203, 9.778027, 1.270255, -0.638743, 29.702174, -95.838169, 0.087000, 0.000000, 0.003870, 0.273695, -0.271975
1.3000, -0.119526, 0.222437, 9.778266, 0.005305, -0.012437, -0.002659, 1.287280, -0.677019, 89.575816, 359.118886, -0.002956, -0.242097, -0.945165, -0.004674, -0.313101, -0.704233, -0.126520, 0.226179, 9.778626, 1.303046, -0.700146, 29.702174, -95.838169, 0.087000, 28.700000, 0.000860, 0.274555, -0.267245
1.4000, -0.118695, 0.221451, 9.770224, 0.007443, -0.011674, -0.004033, 1.305818, -0.673640, 89.706403, 0.481296, -0.003422, -0.276911, -1.016178, -0.004668, -0.336460, -0.708167, -0.118142, 0.220794, 9.764862, 1.298342, -0.695856, 29.702174, -95.838169, 0.087000, 28.700000, -0.005590, 0.278425, -0.264665
1.5000, -0.119081, 0.215312, 9.775624, 0.006527, -0.011368, -0.005102, 1.307680, -0.670289, 89.789288, 359.859199, -0.003784, -0.314059, -1.087506, -0.003970, -0.359809, -0.711574, -0.119339, 0.211219, 9.779224, 1.261664, -0.697742, 29.702174, -95.838169, 0.087000, 28.700000, -0.002580, 0.277565, -0.268535
1.6000, -0.113491, 0.218601, 9.778861, 0.001640, -0.015644, -0.004797, 1.290907, -0.679964, 89.732326, 358.937922, -0.004171, -0.353483, -1.159124, -0.003901, -0.382765, -0.714647, -0.109764, 0.220794, 9.781019, 1.280515, -0.664764, 29.702174, -95.838169, 0.087000, 28.700000, 0.002150, 0.271975, -0.267675
1.7000, -0.114845, 0.216326, 9.782310, 0.001792, -0.012132, -0.002659, 1.275375, -0.673136, 89.730306, 359.619735, -0.004555, -0.395207, -1.230999, -0.003864, -0.405745, -0.717379, -0.115748, 0.214810, 9.784610, 1.266746, -0.672463, 29.702174, -95.838169, 0.087000, 28.700000, -0.001290, 0.280575, -0.269825
1.8000, -0.115746, 0.221520, 9.779741, 0.005305, -0.013659, -0.002964, 1.285033, -0.675743, 89.798870, 0.129266, -0.004986, -0.439248, -1.303184, -0.004159, -0.428855, -0.720359, -0.116347, 0.224983, 9.778027, 1.297489, -0.677907, 29.702174, -95.838169, 0.087000, 28.700000, -0.003870, 0.272835, -0.272405
1.9000, -0.113952, 0.218571, 9.777635, -0.000498, -0.013506, -0.006171, 1.262749, -0.675225, 89.716023, 358.779007, -0.005465, -0.485571, -1.375699, -0.004577, -0.451773, -0.723553, -0.112756, 0.216605, 9.776232, 1.280499, -0.667549, 29.702174, -95.838169, 0.087000, 28.700000, 0.003010, 0.279715, -0.266815
2.0000, -0.119697, 0.223495, 9.782897, 0.003472, -0.013354, -0.000216, 1.268274, -0.680008, 89.713456, 359.587265, -0.006044, -0.534285, -1.448454, -0.005386, -0.475351, -0.726220, -0.123528, 0.226778, 9.786405, 1.308624, -0.700817, 29.702174, -95.838170, 0.023000, 0.000000, -0.001290, 0.273265, -0.261655
2.1000, -0.120559, 0.221515, 9.785720, -0.000804, -0.012743, -0.003881, 1.250715, -0.682013, 89.682621, 359.340129, -0.006720, -0.585375, -1.521434, -0.006304, -0.499053, -0.728610, -0.121134, 0.220195, 9.787602, 1.296660, -0.705663, 29.702174, -95.838170, 0.023000, 28.600000, 0.000000, 0.278425, -0.264665
2.2000, -0.114082, 0.220723, 9.788285, 0.003320, -0.012590, -0.002048, 1.255177, -0.676752, 89.700457, 359.744734, -0.007462, -0.638726, -1.594614, -0.007049, -0.522021, -0.730736, -0.109764, 0.220195, 9.789996, 1.291698, -0.667581, 29.702174, -95.838170, 0.023000, 28.600000, -0.001720, 0.274985, -0.265095
2.3000, -0.115082, 0.218970, 9.787157, 0.004999, -0.011674, -0.001743, 1.265564, -0.668830, 89.720854, 359.642603, -0.008225, -0.694368, -1.668024, -0.007436, -0.544954, -0.732976, -0.115748, 0.217802, 9.786405, 1.281589, -0.673510, 29.702174, -95.838170, 0.023000, 28.600000, -0.001290, 0.281005, -0.260365
2.4000, -0.117995, 0.216833, 9.789219, 0.008207, -0.011826, -0.001895, 1.287972, -0.665510, 89.621691, 358.380828, -0.008943, -0.752339, -1.741628, -0.007264, -0.568127, -0.735017, -0.119937, 0.215408, 9.790594, 1.268812, -0.690415, 29.702174, -95.838170, 0.023000, 28.600000, 0.004730, 0.277995, -0.268965
2.5000, -0.113415, 0.226031, 9.791839, 0.006985, -0.010910, -0.001437, 1.308996, -0.654293, 89.501552, 358.488856, -0.009733, -0.812530, -1.815392, -0.007688, -0.590650, -0.736766, -0.110363, 0.232163, 9.793586, 1.322271, -0.663431, 29.702174, -95.838170, 0.023000, 28.600000, 0.004300, 0.271545, -0.268965
2.6000, -0.109788, 0.222889, 9.790374, 0.003014, -0.018393, -0.002964, 1.304937, -0.678320, 89.476143, 359.662109, -0.010531, -0.874981, -1.889354, -0.007881, -0.613220, -0.738674, -0.107370, 0.220794, 9.789397, 1.304095, -0.642317, 29.702174, -95.838170, 0.023000, 28.600000, -0.001290, 0.274555, -0.268535
2.7000, -0.114441, 0.219477, 9.790506, 0.001792, -0.010757, -0.006324, 1.292615, -0.665071, 89.407221, 358.905802, -0.011333, -0.939725, -1.963507, -0.007974, -0.636031, -0.740576, -0.117543, 0.217203, 9.790594, 1.284118, -0.669533, 29.702174, -95.838171, 0.024000, 0.000000, 0.002150, 0.275415, -0.268535
2.8000, -0.111276, 0.213445, 9.784814, 0.001029, -0.011368, -0.006171, 1.273426, -0.654189, 89.418897, 359.921975, -0.012103, -1.006673, -2.037936, -0.007794, -0.658336, -0.743053, -0.109166, 0.209424, 9.781019, 1.249567, -0.651403, 29.702174, -95.838171, 0.024000, 0.000000, -0.002580, 0.271975, -0.265095
2.9000, -0.114677, 0.223240, 9.792950, -0.002484, -0.011979, -0.006630, 1.246822, -0.650379, 89.303750, 358.039023, -0.013075, -1.075893, -2.112488, -0.009078, -0.680907, -0.744697, -0.116945, 0.229770, 9.798373, 1.305799, -0.670740, 29.702174, -95.838171, 0.024000, 28.500000, 0.006450, 0.276705, -0.271545
3.0000, -0.111370, 0.218541, 9.796204, 0.004847, -0.021447, -0.003270, 1.256802, -0.691738, 89.261278, 359.202280, -0.014082, -1.147427, -2.187159, -0.009736, -0.703867, -0.746039, -0.109166, 0.215408, 9.798373, 1.277901, -0.651190, 29.702174, -95.838171, 0.024000, 28.500000, 0.000860, 0.275415, -0.274555
3.1000, -0.111125, 0.214148, 9.791761, 0.002251, -0.016102, -0.007393, 1.249407, -0.700777, 89.193528, 358.863694, -0.015113, -1.221277, -2.262033, -0.010120, -0.726954, -0.747838, -0.110961, 0.211219, 9.788799, 1.252790, -0.650055, 29.702174, -95.838171, 0.024000, 28.500000, 0.002580, 0.277995, -0.268965
3.2000, -0.103486, 0.218494, 9.785675, 0.019966, -0.022058, -0.005866, 1.335008, -0.732742, 89.240770, 0.248613, -0.016027, -1.297404, -2.337177, -0.009468, -0.749830, -0.750239, -0.098394, 0.221392, 9.781618, 1.279015, -0.605747, 29.702174, -95.838171, 0.024000, 28.500000, -0.003870, 0.271545, -0.265095
3.3000, -0.099713, 0.220233, 9.781445, 0.014773, -0.016102, -0.004797, 1.385058, -0.727604, 89.322440, 0.153279, -0.016770, -1.375749, -2.412623, -0.008107, -0.772243, -0.753054, -0.097197, 0.221392, 9.778626, 1.289752, -0.583911, 29.702174, -95.838171, 0.024000, 28.500000, -0.003440, 0.271115, -0.271545
3.4000, -0.097127, 0.229187, 9.772573, 0.005152, -0.016561, -0.002659, 1.386664, -0.722989, 89.453810, 0.599563, -0.017501, -1.456281, -2.488480, -0.007580, -0.794295, -0.756728, -0.095402, 0.235156, 9.766658, 1.343389, -0.569270, 29.702174, -95.838171, 0.024000, 28.500000, -0.005590, 0.278425, -0.267245
3.5000, -0.140973, 0.236358, 9.767587, 0.005610, -0.012284, -0.003881, 1.395275, -0.727279, 89.433449, 358.478822, -0.018275, -1.539685, -2.564784, -0.007687, -0.820793, -0.760941, -0.170204, 0.241140, 9.764264, 1.386042, -0.826634, 29.702174, -95.838171, 0.016000, 28.400000, 0.003010, 0.279715, -0.263375
3.6000, -0.113630, 0.239227, 9.783546, 0.004083, -0.011979, -0.002506, 1.396819, -0.711050, 89.512149, 0.519778, -0.019084, -1.625290, -2.641264, -0.007953, -0.844299, -0.763511, -0.095402, 0.241140, 9.794184, 1.400622, -0.665230, 29.702174, -95.838171, 0.016000, 28.400000, -0.005160, 0.275415, -0.267245
3.7000, -0.110233, 0.237502, 9.769463, 0.002556, -0.009077, -0.005866, 1.389529, -0.679594, 89.526659, 359.415952, -0.019915, -1.713112, -2.718210, -0.008193, -0.866911, -0.767475, -0.107969, 0.236352, 9.760075, 1.392536, -0.646277, 29.702174, -95.838171, 0.016000, 28.400000, 0.000000, 0.277135, -0.261225
3.8000, -0.106361, 0.301441, 9.748391, -0.000651, -0.007550, -0.006630, 1.410017, -0.641372, 89.586805, 0.385124, -0.021680, -1.803029, -2.795841, -0.014495, -0.888419, -0.773370, -0.103780, 0.344066, 9.734343, 1.771035, -0.624811, 29.702174, -95.838171, 0.016000, 28.400000, -0.004730, 0.269395, -0.268105
3.9000, -0.078602, 0.209967, 9.754683, -0.004622, -0.012437, -0.008768, 1.348998, -0.613804, 89.589096, 359.473268, -0.022853, -1.894620, -2.873995, -0.012653, -0.906744, -0.778818, -0.060096, 0.148984, 9.758878, 1.233046, -0.461566, 29.702174, -95.838171, 0.016000, 28.400000, 0.000860, 0.273265, -0.274555
4.0000, -0.104480, 0.201024, 9.757200, 0.006832, -0.015797, -0.003881, 1.346635, -0.622640, 89.561357, 358.895049, -0.023718, -1.988456, -2.952664, -0.009981, -0.927818, -0.784066, -0.121732, 0.195062, 9.758878, 1.180209, -0.613370, 29.702174, -95.838171, 0.016000, 28.400000, 0.002150, 0.276275, -0.262945
4.1000, -0.165816, 0.230838, 9.773287, 0.012177, -0.018699, 0.015514, 1.390063, -0.684886, 89.588539, 358.525477, -0.024651, -2.085478, -3.031621, -0.009552, -0.956088, -0.787733, -0.206707, 0.250714, 9.784011, 1.352839, -0.971730, 29.702174, -95.838171, 0.016000, 28.400000, 0.001720, 0.277565, -0.265095
4.2000, -0.095562, 0.249586, 9.765001, 0.008970, -0.013812, 0.000090, 1.424383, -0.671672, 89.619506, 0.165798, -0.025729, -2.184237, -3.111048, -0.010369, -0.977089, -0.792093, -0.048726, 0.262084, 9.759477, 1.464045, -0.560507, 29.702173, -95.838172, 0.045000, 0.000000, -0.002150, 0.277995, -0.265525
4.3000, -0.295814, 0.211486, 9.571392, 0.059672, -0.114299, -0.009684, 1.692388, -1.304067, 89.418387, 356.833218, -0.025775, -2.289660, -3.193944, -0.003762, -1.028520, -0.816668, -0.429315, 0.186086, 9.442319, 1.265176, -1.769791, 29.702173, -95.838172, 0.045000, 28.300000, 0.003870, 0.278855, -0.260795
4.4000, -0.154742, 0.252616, 9.678139, -0.003094, -0.001442, 0.003144, 1.633373, -1.201363, 89.422969, 359.924316, -0.025855, -2.397881, -3.277620, -0.001787, -1.064311, -0.830065, -0.060694, 0.280036, 9.749304, 1.494988, -0.915703, 29.702173, -95.838172, 0.045000, 28.300000, -0.001290, 0.272835, -0.266815
4.5000, -0.117702, 0.270145, 9.729814, 0.001487, -0.018088, -0.003117, 1.613668, -1.169406, 89.411517, 359.411150, -0.026023, -2.509057, -3.361840, -0.001717, -1.095946, -0.838151, -0.093009, 0.281831, 9.764264, 1.590275, -0.692809, 29.702173, -95.838172, 0.045000, 28.300000, 0.000430, 0.277565, -0.262515
4.6000, -0.079548, 0.273567, 9.740431, 0.009581, -0.010757, -0.004797, 1.639338, -1.076831, 89.529116, 1.437961, -0.026149, -2.622592, -3.446689, -0.001413, -1.122215, -0.845046, -0.054112, 0.275847, 9.747508, 1.608714, -0.467727, 29.702173, -95.838172, 0.045000, 28.300000, -0.008600, 0.277995, -0.259505
4.7000, -0.063568, 0.255188, 9.745395, 0.002403, -0.008467, -0.000979, 1.613790, -0.969188, 89.625258, 0.058850, -0.026022, -2.738243, -3.532150, 0.000374, -1.145073, -0.851421, -0.052915, 0.242935, 9.748705, 1.499941, -0.373602, 29.702173, -95.838172, 0.045000, 28.300000, -0.001720, 0.276705, -0.263375
4.8000, 0.207800, 0.230961, 9.724761, 0.007748, 0.118441, -0.024345, 1.602915, -0.050439, 89.769263, 3.143325, -0.025355, -2.849764, -3.618528, 0.004570, -1.125166, -0.859662, 0.388711, 0.214810, 9.711005, 1.360195, 1.223770, 29.702173, -95.838172, 0.045000, 28.300000, -0.004300, 0.271545, -0.273695
4.9000, 0.116358, 0.135817, 9.816323, 0.043942, -0.016561, -0.005561, 1.717406, 0.028691, 89.881618, 359.952143, -0.022518, -2.960466, -3.704405, 0.020439, -1.113072, -0.859069, 0.055397, 0.072388, 9.877363, 0.792629, 0.679060, 29.702174, -95.838173, 0.050000, 0.000000, 0.001720, 0.271545, -0.265955
5.0000, 0.094861, 0.104222, 9.811298, -0.008592, -0.038246, 0.035367, 1.526200, -0.021372, 90.160713, 0.187151, -0.018121, -3.070399, -3.790303, 0.036126, -1.103908, -0.859006, 0.080530, 0.083159, 9.807948, 0.608584, 0.553921, 29.702174, -95.838173, 0.050000, 28.100000, 0.001290, 0.276705, -0.268105
5.1000, 0.209775, 0.052449, 9.747891, -0.028598, -0.092002, -0.017625, 1.215986, -0.267387, 90.255807, 2.299941, -0.012203, -3.178315, -3.877138, 0.051495, -1.087410, -0.865238, 0.286383, 0.017933, 9.705620, 0.308206, 1.232797, 29.702174, -95.838173, 0.050000, 28.100000, -0.002580, 0.265955, -0.275415
5.2000, 0.166337, 0.535122, 9.375690, 0.052647, -0.024502, 0.012154, 1.660141, -0.156103, 90.408741, 0.164231, -0.011018, -3.284973, -3.969997, 0.025068, -1.073522, -0.907471, 0.137379, 0.856904, 9.127556, 3.266124, 1.014747, 29.702174, -95.838173, 0.050000, 28.100000, 0.003440, 0.268105, -0.285735
5.3000, -0.117809, 0.573801, 10.114371, 0.013857, 0.113096, -0.049085, 1.865591, 0.479921, 90.050739, 357.657133, -0.012174, -3.392823, -4.055969, 0.000649, -1.076841, -0.875638, -0.307239, 0.599587, 10.606825, 3.246761, -0.666260, 29.702174, -95.838173, 0.050000, 28.100000, 0.002580, 0.262085, -0.305515
5.4000, 0.356650, 0.399696, 9.639331, -0.124962, -0.083756, -0.032744, 1.253595, 0.323963, 90.560505, 11.534087, -0.015000, -3.494367, -4.146029, -0.018624, -1.035909, -0.892279, 0.672956, 0.283627, 9.322637, 2.372797, 2.117130, 29.702174, -95.838173, 0.050000, 28.100000, -0.031820, 0.257785, -0.316695
5.5000, -0.239159, -0.103673, 9.896327, -0.132903, 0.110041, -0.037478, 0.360688, 0.823336, 91.154651, 8.338563, -0.014344, -3.599362, -4.233938, -0.001835, -1.045267, -0.883489, -0.636365, -0.439253, 10.067658, -0.600028, -1.384289, 29.702174, -95.838173, 0.050000, 28.100000, -0.057620, 0.275845, -0.302505
5.6000, -0.282520, 0.093161, 9.900388, 0.005152, 0.035821, -0.326265, 0.382788, 0.851376, 90.317794, 8.564963, -0.014921, -3.705921, -4.320879, -0.004462, -1.058820, -0.874100, -0.311428, 0.224384, 9.903095, 0.538910, -1.634494, 29.702174, -95.838173, 0.032000, 0.000000, -0.052460, 0.283585, -0.279285
5.7000, 0.248757, -0.059690, 9.757317, -0.060516, 0.008027, 1.069104, -0.026229, 1.042304, 96.860372, 9.456203, -0.015309, -3.805357, -4.409171, -0.004070, -1.015844, -0.879980, 0.602942, -0.161590, 9.661936, -0.350385, 1.460379, 29.702174, -95.838173, 0.032000, 28.000000, -0.030530, 0.293045, -0.281865
5.8000, 1.519377, -0.818815, 8.798883, 0.026074, -0.067262, -0.746082, -0.458885, 1.692654, 94.282132, 22.780611, -0.006515, -3.879496, -4.512972, 0.057271, -0.832873, -0.985336, 2.366456, -1.324899, 8.159927, -5.239478, 9.755792, 29.702174, -95.838173, 0.032000, 28.000000, -0.020640, 0.278425, -0.282295
5.9000, 0.820153, -0.193973, 9.304866, -0.032111, -0.026334, 0.775125, -0.750778, 2.039762, 98.940442, 3.527406, -0.002403, -3.945562, -4.619583, 0.046501, -0.718064, -1.039184, 0.354004, 0.222589, 9.642188, -1.189626, 5.036079, 29.702174, -95.838173, 0.032000, 28.000000, -0.006880, 0.274555, -0.284875
6.0000, -0.343149, 0.119515, 9.538137, 0.060588, 0.016732, -0.219669, -0.340586, 1.850821, 97.476039, 0.107502, -0.000305, -4.018232, -4.727501, 0.029485, -0.723821, -1.065847, -1.118683, 0.328507, 9.693652, 0.717429, -2.060252, 29.702174, -95.838173, 0.032000, 28.000000, -0.034830, 0.273265, -0.297345
6.1000, -0.450142, 0.253528, 9.528400, 0.087924, -0.065888, 0.070645, 0.256963, 1.168380, 97.790879, 5.810906, 0.000030, -4.094843, -4.838186, 0.012067, -0.752016, -1.093184, -0.521470, 0.342869, 9.521908, 1.522446, -2.703807, 29.702174, -95.838173, 0.032000, 28.000000, -0.045580, 0.278425, -0.294765
6.2000, -1.285353, 0.312518, 9.713363, -0.003094, 0.044221, 0.477481, 0.363905, 0.598264, 99.607520, 356.088257, 0.000491, -4.188181, -4.948734, 0.007095, -0.872926, -1.101379, -1.842161, 0.351845, 9.836672, 1.826888, -7.534207, 29.702174, -95.838174, 0.016000, 0.000000, -0.035690, 0.274125, -0.296485
6.3000, -0.935455, 0.649921, 9.761497, 0.006069, 0.059034, 2.094136, 0.719238, 0.332715, 109.324623, 356.811991, -0.001902, -4.290529, -5.059409, -0.013590, -0.973297, -1.104964, -0.702190, 0.874856, 9.793586, 3.791813, -5.461984, 29.702174, -95.838174, 0.016000, 28.000000, -0.004730, 0.262515, -0.290895
6.4000, -0.120131, 0.295502, 9.785059, -0.008592, -0.033817, 1.682871, 0.765549, 0.079609, 115.424938, 352.113901, -0.004807, -4.390363, -5.170232, -0.023894, -0.989991, -1.107135, 0.423419, 0.059223, 9.800767, 1.729638, -0.703061, 29.702174, -95.838174, 0.016000, 28.000000, 0.047300, 0.248755, -0.290895
6.5000, -0.071902, 0.122857, 9.832184, -0.054102, -0.041148, 0.895618, 0.473541, -0.159767, 115.547412, 335.936961, -0.007116, -4.490975, -5.280606, -0.023363, -1.000746, -1.104872, -0.039750, 0.007760, 9.863600, 0.715875, -0.418961, 29.702174, -95.838174, 0.016000, 28.000000, 0.098470, 0.222955, -0.296485
6.6000, 0.640707, 0.509787, 9.872217, 0.127936, -0.155074, 2.192333, 1.379965, -0.531937, 121.512771, 334.841054, -0.017234, -4.586162, -5.389936, -0.075235, -0.968159, -1.097157, 1.115780, 0.767740, 9.898906, 2.949850, 3.708361, 29.702174, -95.838174, 0.016000, 28.000000, 0.131150, 0.182535, -0.299925
6.7000, 0.395799, 0.716980, 9.995226, -0.013632, -0.078258, 2.481424, 1.593731, -0.597205, 126.603505, 314.870145, -0.032646, -4.683392, -5.496578, -0.127831, -0.970922, -1.076669, 0.232526, 0.855108, 10.077232, 4.099724, 2.261852, 29.702174, -95.838174, 0.016000, 28.000000, 0.163830, 0.130935, -0.300355
6.8000, 0.750233, 0.392340, 9.783044, 0.124729, -0.201347, 1.695699, 2.321940, -1.051224, 125.097491, 295.816117, -0.050297, -4.773446, -5.604350, -0.160277, -0.923998, -1.077366, 0.986523, 0.175913, 9.641590, 2.289846, 4.381755, 29.702174, -95.838174, 0.016000, 28.000000, 0.189630, 0.070305, -0.305945
6.9000, 0.428838, 0.518842, 9.820965, -0.010883, -0.011063, 0.581328, 2.354010, -0.645985, 115.811181, 281.948929, -0.069954, -4.862304, -5.711663, -0.184475, -0.900384, -1.074547, 0.214574, 0.603178, 9.846246, 3.021256, 2.496786, 29.702174, -95.838174, 0.016000, 28.000000, 0.200810, 0.022575, -0.299495
7.0000, -2.011259, -0.596020, 9.951029, -0.001567, 0.135698, -0.075505, 1.771539, -0.955632, 101.274400, 263.263532, -0.068730, -4.981711, -5.817874, -0.053329, -1.096178, -1.066254, -3.637989, -1.339261, 10.037737, -3.359873, -11.406536, 29.702174, -95.838174, 0.016000, 28.000000, 0.211130, -0.007955, -0.296055
7.1000, -0.791013, -0.143991, 9.823890, -0.002484, -0.019309, -0.001437, 1.477736, -1.381723, 88.036035, 269.830989, -0.068635, -5.106937, -5.924725, -0.017145, -1.200229, -1.067756, 0.022485, 0.157362, 9.739131, -0.837026, -4.602992, 29.702174, -95.838174, 0.040000, 28.000000, 0.210270, -0.005375, -0.293905
7.2000, -0.354617, -0.021344, 9.786678, 0.004083, -0.010452, -0.003881, 1.308975, -1.473826, 75.561549, 268.300704, -0.069059, -5.236680, -6.032081, -0.008541, -1.265035, -1.071628, -0.063687, 0.060420, 9.761870, -0.124878, -2.075181, 29.702174, -95.838174, 0.040000, 28.000000, 0.218870, -0.008385, -0.297775
7.3000, -0.182572, 0.026637, 9.782206, 0.003930, -0.013812, -0.005713, 1.177978, -1.472540, 63.820378, 267.044071, -0.070435, -5.370179, -6.139803, -0.012025, -1.311667, -1.075352, -0.067875, 0.058625, 9.779224, 0.155989, -1.069222, 29.702174, -95.838174, 0.040000, 28.000000, 0.217580, -0.013115, -0.297345
7.4000, -0.018607, -0.073015, 9.733023, 0.034016, -0.028625, 0.007878, 1.148395, -1.445465, 52.948372, 267.080588, -0.070815, -5.506929, -6.248597, -0.006540, -1.348892, -1.083748, 0.090703, -0.139449, 9.700234, -0.429810, -0.109531, 29.702174, -95.838174, 0.040000, 28.000000, 0.216720, -0.006665, -0.293475
7.5000, 0.384482, -0.043579, 9.704373, 0.004999, 0.053994, 0.020554, 0.981869, -0.742355, 43.183983, 271.243590, -0.066485, -5.641458, -6.358527, 0.026689, -1.346487, -1.094111, 0.653209, -0.023956, 9.685274, -0.257095, 2.268821, 29.702174, -95.838174, 0.040000, 28.000000, 0.212850, 0.004945, -0.297345
7.6000, 0.432260, 0.020256, 9.813912, 0.004083, 0.057049, 0.302468, 0.859867, -0.053174, 35.575193, 268.667508, -0.057545, -5.773963, -6.467885, 0.068496, -1.332201, -1.093760, 0.464111, 0.062813, 9.886938, 0.118146, 2.521992, 29.702174, -95.838174, 0.040000, 28.000000, 0.217580, -0.006665, -0.293905
7.7000, -0.558267, 0.157813, 9.868499, -0.007065, -0.080701, 0.009864, 0.771819, -0.726436, 27.123046, 269.979893, -0.059988, -5.911525, -6.576483, 0.006542, -1.361142, -1.088575, -1.218618, 0.249517, 9.904890, 0.914710, -3.237392, 29.702174, -95.838175, 0.072000, 0.000000, 0.219730, -0.006665, -0.290035
7.8000, -0.239617, -0.030957, 9.615305, -0.029514, 0.007874, 0.333928, 0.464300, -0.701268, 20.928995, 267.633691, -0.063756, -6.051079, -6.688324, -0.022939, -1.384073, -1.108466, -0.027184, -0.156803, 9.446508, -0.184407, -1.427529, 29.702174, -95.838175, 0.072000, 27.900000, 0.226180, -0.004515, -0.293905
7.9000, -0.312505, 0.093524, 9.790851, 0.049898, 0.054911, 0.266885, 0.668744, -0.482936, 14.754202, 266.056276, -0.071701, -6.191296, -6.799497, -0.060610, -1.396141, -1.110637, -0.361096, 0.176511, 9.907882, 0.547005, -1.828063, 29.702174, -95.838175, 0.072000, 27.900000, 0.223600, -0.021285, -0.296485
8.0000, -1.271230, 0.651367, 9.624459, 0.011414, -0.175386, -0.805947, 0.995535, -2.067242, 3.979876, 271.653269, -0.102476, -6.325351, -6.913977, -0.225373, -1.359082, -1.133417, -1.910380, 1.023261, 9.513530, 3.838536, -7.507281, 29.702174, -95.838175, 0.072000, 27.900000, 0.220590, -0.018705, -0.296915
8.1000, -0.412780, 0.226785, 9.720549, -0.046008, -0.044813, -0.438359, 0.749722, -2.320257, -3.979442, 267.652742, -0.136972, -6.458930, -7.028999, -0.305094, -1.343555, -1.144617, 0.159520, -0.056270, 9.784610, 1.335289, -2.430923, 29.702174, -95.838175, 0.072000, 27.900000, 0.219300, -0.007095, -0.291755
8.2000, 0.480300, 0.059106, 9.726312, -0.015312, 0.034752, 0.184877, 0.587811, -1.593018, -8.050106, 266.156106, -0.164452, -6.594331, -7.144571, -0.284898, -1.350519, -1.152017, 1.075686, -0.052680, 9.730155, 0.347754, 2.827003, 29.702174, -95.838175, 0.072000, 27.900000, 0.215430, -0.010535, -0.291755
8.3000, 0.716892, 0.009987, 9.637420, -0.022948, 0.011539, 0.002686, 0.372179, -0.887162, -12.714494, 265.608355, -0.184810, -6.732026, -7.262214, -0.230689, -1.368144, -1.168294, 0.874620, -0.022759, 9.578158, 0.059210, 4.254184, 29.702175, -95.838175, 0.049000, 0.000000, 0.218010, -0.013975, -0.283585
8.4000, 0.790704, -0.120965, 9.786413, 0.002251, -0.048020, 0.185793, 0.227090, -0.493338, -16.185127, 261.776772, -0.198371, -6.874096, -7.379309, -0.167300, -1.403177, -1.170064, 0.839913, -0.208266, 9.885741, -0.705869, 4.618893, 29.702175, -95.838175, 0.049000, 27.800000, 0.224030, -0.022145, -0.292615
8.5000, 0.278429, 0.009050, 9.848523, -0.046008, -0.104678, 0.133106, -0.077250, -0.713778, -19.516202, 263.556832, -0.212787, -7.014878, -7.495697, -0.151877, -1.406275, -1.165943, -0.063088, 0.095726, 9.889930, 0.052627, 1.619385, 29.702175, -95.838175, 0.049000, 27.800000, 0.233920, -0.029455, -0.293475
8.6000, 0.040846, 0.242374, 9.861160, 0.096018, -0.081923, 0.274063, 0.520742, -0.924764, -21.794161, 262.149800, -0.228773, -7.152719, -7.611507, -0.157195, -1.387699, -1.160710, -0.117543, 0.397923, 9.869584, 1.407955, 0.237249, 29.702175, -95.838175, 0.049000, 27.800000, 0.234780, -0.044505, -0.291325
8.7000, -0.003203, 0.306262, 9.792251, 0.029740, -0.006481, 0.486186, 0.761177, -0.746458, -22.892921, 259.111495, -0.245272, -7.288291, -7.727809, -0.162393, -1.366382, -1.162252, -0.032569, 0.348853, 9.746312, 1.791393, -0.018734, 29.702175, -95.838175, 0.049000, 27.800000, 0.237790, -0.056545, -0.296485
8.8000, -0.367661, 0.182813, 9.767919, 0.014926, 0.026200, 0.796505, 0.831677, -0.636573, -22.335747, 258.461367, -0.267884, -7.421646, -7.844711, -0.204880, -1.344493, -1.166767, -0.610633, 0.100513, 9.751697, 1.071442, -2.155200, 29.702175, -95.838175, 0.049000, 27.800000, 0.229190, -0.053535, -0.302935
8.9000, -0.227644, 0.250841, 9.854410, -0.018519, -0.100860, 1.207160, 0.764602, -1.112711, -20.295595, 248.800506, -0.293647, -7.552237, -7.960779, -0.240041, -1.318768, -1.162707, -0.134299, 0.296193, 9.912071, 1.457743, -1.322909, 29.702175, -95.838176, 0.076000, 0.000000, 0.211130, -0.092235, -0.296055
9.0000, -0.080439, 0.177879, 9.891161, -0.012257, -0.079327, 1.611705, 0.696189, -1.341052, -17.431607, 235.707276, -0.321856, -7.681886, -8.075880, -0.268075, -1.303919, -1.154907, 0.017697, 0.129237, 9.915662, 1.030239, -0.465868, 29.702175, -95.838176, 0.076000, 27.700000, 0.183610, -0.128785, -0.300785
9.1000, -0.154404, 0.148694, 9.855236, -0.048146, -0.120102, 1.668210, 0.435272, -1.794898, -15.722395, 225.430573, -0.355049, -7.809330, -8.190824, -0.310646, -1.284266, -1.151266, -0.203714, 0.129237, 9.831286, 0.864294, -0.897491, 29.702175, -95.838176, 0.076000, 27.700000, 0.154370, -0.161895, -0.294765
9.2000, 0.058007, 0.033973, 9.787368, 0.162755, -0.231585, 1.748386, 1.217709, -2.640521, -15.463036, 206.887461, -0.392489, -7.938702, -8.306428, -0.353152, -1.290564, -1.154450, 0.199614, -0.042507, 9.742123, 0.198878, 0.339568, 29.702175, -95.838176, 0.076000, 27.700000, 0.101480, -0.186835, -0.296055
9.3000, -0.178734, -0.690153, 9.839211, 0.063490, -0.061459, 2.057331, 0.966275, -2.650915, -16.062108, 184.125015, -0.440482, -8.077469, -8.421912, -0.437665, -1.355307, -1.154710, -0.336561, -1.172903, 9.873773, -4.011671, -1.038142, 29.702175, -95.838176, 0.076000, 27.700000, 0.007310, -0.207045, -0.296915
9.4000, -0.201980, -0.373015, 9.794243, -0.044786, 0.022382, 1.356516, 0.346812, -2.235354, -22.063478, 171.458310, -0.494799, -8.215720, -8.537886, -0.508004, -1.373443, -1.158063, -0.217478, -0.161590, 9.764264, -2.180601, -1.180551, 29.702175, -95.838176, 0.076000, 27.700000, -0.039130, -0.210915, -0.300785
9.5000, -0.020266, -0.271294, 9.795285, -0.040663, 0.016273, 0.008489, -0.139840, -1.778053, -35.822093, 164.395145, -0.551714, -8.353227, -8.653984, -0.548770, -1.374527, -1.160006, 0.100876, -0.203479, 9.795980, -1.586474, -0.118499, 29.702175, -95.838176, 0.076000, 27.700000, -0.058050, -0.212635, -0.294765
9.6000, -0.018672, -0.158078, 9.740409, 0.050204, -0.076578, -0.019152, -0.049432, -1.834671, -49.051063, 164.516412, -0.611536, -8.488407, -8.771110, -0.581736, -1.359373, -1.167511, -0.017609, -0.082600, 9.703825, -0.929772, -0.109819, 29.702176, -95.838176, 0.074000, 0.000000, -0.058480, -0.206615, -0.298635
9.7000, -0.019829, -0.163417, 9.753645, 0.031419, -0.015644, 0.001922, -0.072985, -1.563426, -61.336019, 163.380880, -0.673754, -8.621667, -8.888766, -0.608701, -1.341526, -1.173543, -0.020601, -0.166976, 9.762469, -0.959865, -0.116467, 29.702176, -95.838176, 0.074000, 27.600000, -0.062780, -0.203175, -0.297345
9.8000, -0.007367, -0.186377, 9.740628, 0.020424, -0.033817, -0.002354, -0.169738, -1.397845, -72.689788, 163.712728, -0.737974, -8.753014, -9.007200, -0.631029, -1.322823, -1.180737, 0.000942, -0.201684, 9.731950, -1.096162, -0.043324, 29.702176, -95.838176, 0.074000, 27.600000, -0.064070, -0.213065, -0.307235
9.9000, 0.120412, -0.180840, 9.790714, 0.009123, -0.021447, 0.058580, -0.315784, -1.100612, -82.852856, 162.358844, -0.803091, -8.884526, -9.125542, -0.644460, -1.317685, -1.182531, 0.205598, -0.177149, 9.824105, -1.058086, 0.704502, 29.702176, -95.838176, 0.074000, 27.600000, -0.062780, -0.211775, -0.300355
10.0000, 0.451939, -0.321885, 9.800695, 0.014621, 0.039486, -0.052292, -0.507883, -0.310306, -92.976085, 158.106849, -0.871368, -9.022086, -9.243863, -0.669999, -1.356295, -1.182984, 0.672956, -0.415915, 9.807349, -1.879097, 2.638784, 29.702176, -95.838176, 0.074000, 27.600000, -0.069230, -0.211345, -0.305515
10.1000, 0.548645, -0.139537, 9.674354, 0.023325, -0.061306, -0.224098, -0.533709, -0.039862, -103.053616, 159.607559, -0.940926, -9.165467, -9.364178, -0.687053, -1.407970, -1.196422, 0.613115, -0.017972, 9.590127, -0.825017, 3.245501, 29.702176, -95.838176, 0.074000, 27.600000, -0.060200, -0.214355, -0.310675
10.2000, 0.108360, 0.000544, 9.789338, -0.038372, 0.060256, -0.221349, -0.789341, 0.574297, -111.644003, 167.520915, -1.008886, -9.309892, -9.484167, -0.682082, -1.432155, -1.198740, -0.185164, 0.093931, 9.865994, 0.003182, 0.634189, 29.702176, -95.838176, 0.074000, 27.600000, -0.051600, -0.210915, -0.295195
10.3000, -0.004203, -0.070885, 9.687045, -0.051047, 0.005125, -0.013196, -1.122874, 0.773545, -117.918853, 169.469894, -1.076406, -9.455620, -9.605905, -0.677497, -1.448909, -1.211165, -0.079245, -0.118505, 9.618850, -0.419257, -0.024860, 29.702176, -95.838175, 0.063000, 0.000000, -0.043000, -0.214785, -0.292185
10.4000, 0.656297, -0.403928, 9.647564, 0.052800, -0.088948, -0.134148, -1.089326, 0.870725, -124.411363, 162.109707, -1.153690, -9.608579, -9.729536, -0.741059, -1.502692, -1.227924, 1.096630, -0.625956, 9.621244, -2.391960, 3.888281, 29.702176, -95.838175, 0.063000, 27.600000, -0.044290, -0.220805, -0.293045
10.5000, -0.133662, -0.281863, 9.859407, 0.051425, -0.017171, -0.126207, -0.995389, 0.859310, -129.543346, 173.125123, -1.229211, -9.757957, -9.851522, -0.750492, -1.496755, -1.222553, -0.660301, -0.200487, 10.000636, -1.637391, -0.776383, 29.702176, -95.838175, 0.063000, 27.600000, -0.045580, -0.213925, -0.288315
10.6000, 0.390881, -0.012583, 9.541654, -0.043412, -0.010605, -0.045420, -1.239693, 1.197605, -134.095033, 160.698872, -1.308332, -9.916014, -9.977986, -0.777638, -1.552630, -1.250609, 0.740577, 0.166937, 9.329818, -0.075497, 2.345852, 29.702176, -95.838175, 0.063000, 27.600000, -0.052460, -0.221235, -0.295195
10.7000, 0.343262, 0.065687, 9.651882, 0.035237, -0.119949, -0.095969, -0.999890, 0.913755, -137.993769, 168.804965, -1.389287, -10.078876, -10.105558, -0.798909, -1.603292, -1.267353, 0.311517, 0.117867, 9.725367, 0.389681, 2.036778, 29.702176, -95.838175, 0.063000, 27.600000, -0.034400, -0.224675, -0.293045
10.8000, -0.955066, 0.076529, 9.694896, -0.063417, 0.068655, 0.337746, -1.277393, 0.838797, -137.987296, 184.251181, -1.457178, -10.234304, -10.233888, -0.718910, -1.570615, -1.277980, -1.820618, 0.083758, 9.723572, 0.450093, -5.626009, 29.702176, -95.838175, 0.063000, 27.600000, -0.039990, -0.228115, -0.304655
10.9000, -0.492766, -0.129894, 9.966306, -0.075940, -0.196002, -0.299845, -1.704715, -0.333881, -141.562070, 168.761032, -1.521043, -10.388187, -10.359395, -0.665405, -1.549425, -1.262708, -0.184565, -0.267509, 10.147246, -0.745798, -2.830339, 29.702176, -95.838175, 0.063000, 27.600000, -0.053320, -0.232845, -0.301215
11.0000, -0.232805, -0.272423, 10.319381, 0.095408, -0.065582, 0.012765, -1.281905, -0.569639, -143.187506, 167.723498, -1.583928, -10.539616, -10.478015, -0.641037, -1.526004, -1.211702, -0.059498, -0.367443, 10.554764, -1.511827, -1.291921, 29.702175, -95.838175, 0.027000, 27.900000, -0.056330, -0.240585, -0.303365
11.1000, -0.024338, 0.011658, 10.266366, 0.046080, 0.037654, 0.041171, -0.993896, -0.134924, -144.350980, 167.722522, -1.645782, -10.694105, -10.592367, -0.626037, -1.538595, -1.166248, 0.114640, 0.201046, 10.231024, 0.065064, -0.135829, 29.702175, -95.838175, 0.027000, 27.900000, -0.049020, -0.246605, -0.299925
11.2000, -0.382219, 0.032298, 10.097593, 0.015842, 0.053384, -0.009531, -0.872779, 0.124521, -145.214771, 171.559316, -1.702355, -10.847175, -10.704691, -0.585830, -1.533326, -1.137575, -0.620806, 0.046058, 9.985077, 0.183134, -2.167742, 29.702175, -95.838175, 0.027000, 27.900000, -0.055470, -0.247465, -0.303795
11.3000, -0.174583, 0.081844, 9.899750, -0.000040, -0.012132, -0.004797, -0.809640, 0.127749, -145.934492, 166.591272, -1.757180, -11.001981, -10.817129, -0.560776, -1.543150, -1.128778, -0.036160, 0.114875, 9.767854, 0.473598, -1.010279, 29.702175, -95.838175, 0.027000, 27.900000, -0.059770, -0.249615, -0.297775
11.4000, -0.155798, 0.061809, 9.830666, 0.001945, -0.012743, -0.002812, -0.747344, 0.131663, -146.253068, 169.103227, -1.810012, -11.157556, -10.929716, -0.539143, -1.551551, -1.126842, -0.143275, 0.048452, 9.784610, 0.360188, -0.907941, 29.702175, -95.838175, 0.027000, 27.900000, -0.052890, -0.252625, -0.310675
11.5000, -0.158338, 0.066002, 9.822062, -0.157796, -0.117048, 1.342924, -1.502900, -0.407944, -139.632453, 164.473158, -1.858175, -11.314192, -11.042317, -0.500796, -1.561423, -1.126284, -0.160031, 0.068798, 9.816326, 0.384959, -0.923542, 29.702175, -95.838175, 0.027000, 27.900000, -0.070950, -0.239725, -0.302505
11.6000, 0.210823, -0.080607, 9.683619, -0.129085, -0.136748, 1.882624, -2.111333, -0.770313, -132.470250, 138.688799, -1.906015, -11.474024, -11.156866, -0.485869, -1.586023, -1.139087, 0.456930, -0.178346, 9.591323, -0.476808, 1.247152, 29.702175, -95.838175, 0.040000, 0.000000, -0.157380, -0.189845, -0.303795
11.7000, 0.063711, 0.223386, 9.760011, -0.191088, -0.291144, 1.895299, -2.780117, -1.967052, -128.338803, 112.400409, -1.943890, -11.635924, -11.271912, -0.414453, -1.608006, -1.146673, -0.034364, 0.426048, 9.810940, 1.311124, 0.373907, 29.702175, -95.838175, 0.040000, 27.800000, -0.258000, -0.119325, -0.305945
11.8000, -0.057967, 0.589853, 10.089295, 0.238808, -0.125600, 1.768697, -0.937588, -2.249150, -127.659945, 93.139694, -1.972216, -11.798258, -11.382706, -0.326990, -1.618229, -1.120848, -0.139086, 0.834164, 10.308817, 3.345833, -0.328625, 29.702175, -95.838175, 0.040000, 27.800000, -0.335830, -0.041925, -0.287885
11.9000, -0.281494, 1.227973, 10.043639, 0.432758, -0.266099, 1.854677, 2.109889, -3.343798, -128.269760, 82.268696, -1.986744, -11.957812, -11.491214, -0.205850, -1.603101, -1.097002, -0.430512, 1.653387, 10.013202, 6.967894, -1.593554, 29.702175, -95.838175, 0.040000, 27.800000, -0.361630, -0.002795, -0.292615
12.0000, -0.513446, 0.584171, 9.918741, 0.143513, 0.076444, 0.779401, 3.009541, -2.697619, -98.073078, 77.548577, -2.004333, -12.103692, -11.599556, -0.185882, -1.506902, -1.087947, -0.668081, 0.154969, 9.835475, 3.366081, -2.958168, 29.702175, -95.838175, 0.040000, 27.800000, -0.374100, 0.073745, -0.269825
12.1000, 0.282053, 0.817465, 9.759631, 0.150691, -0.017630, -0.105437, 4.002069, -2.124764, -74.664375, 73.031617, -2.021301, -12.252674, -11.708551, -0.175076, -1.495516, -1.089286, 0.812386, 0.972995, 9.653558, 4.785921, 1.649612, 29.702175, -95.838175, 0.040000, 27.800000, -0.368080, 0.095675, -0.265955
12.2000, 0.175501, -0.184666, 9.812677, -0.202542, 0.101489, 0.057969, 2.473563, -1.043165, -51.419797, 77.028583, -2.045964, -12.407880, -11.817673, -0.222783, -1.533208, -1.090572, 0.104467, -0.852754, 9.848041, -1.077958, 1.024453, 29.702175, -95.838175, 0.014000, 0.000000, -0.348300, 0.103845, -0.265525
12.3000, 0.095540, -0.556077, 9.997621, -0.149091, 0.061936, 0.502679, 1.139460, -0.314785, -27.106920, 75.971141, -2.072858, -12.571556, -11.924105, -0.253553, -1.602249, -1.073076, 0.042232, -0.803684, 10.120916, -3.183420, 0.546671, 29.702175, -95.838175, 0.014000, 27.900000, -0.339270, 0.106425, -0.267245
12.4000, -0.365146, 0.158505, 9.692804, -0.002484, -0.040232, -0.080850, 1.099700, -0.462382, -7.660218, 68.774479, -2.104860, -12.731304, -12.033201, -0.297861, -1.599069, -1.084996, -0.672269, 0.634893, 9.489594, 0.936203, -2.157129, 29.702175, -95.838175, 0.014000, 27.900000, -0.338410, 0.105565, -0.257355
12.5000, -0.602918, 0.183312, 10.178384, 0.036306, -0.012437, 0.116002, 1.272054, -0.589475, 11.602642, 69.669148, -2.144914, -12.893973, -12.136253, -0.366319, -1.617483, -1.048676, -0.761433, 0.199849, 10.502103, 1.029975, -3.389413, 29.702175, -95.838175, 0.014000, 27.900000, -0.333680, 0.111155, -0.256065
12.6000, 0.572637, 0.202929, 10.311219, -0.175206, -0.297864, -0.141478, 0.348996, -1.503208, 28.601452, 73.940154, -2.178576, -13.051708, -12.233414, -0.346519, -1.590728, -0.997302, 1.356340, 0.216006, 10.399775, 1.125722, 3.178062, 29.702175, -95.838175, 0.014000, 27.900000, -0.328950, 0.099115, -0.259075
12.7000, -1.532937, -0.223311, 9.476791, -0.014243, 0.165783, -0.006324, 0.097519, -1.198112, 45.167502, 70.902735, -2.228985, -13.231724, -12.338660, -0.451562, -1.730349, -1.034075, -2.936653, -0.507471, 8.920506, -1.332555, -9.185897, 29.702175, -95.838175, 0.014000, 27.900000, -0.324220, 0.098685, -0.256065
12.8000, -0.732890, -0.330256, 9.750526, 0.004389, 0.129284, 0.000701, -0.102785, -0.649914, 60.852856, 73.662528, -2.276206, -13.418094, -12.443086, -0.465327, -1.819246, -1.040859, -0.199526, -0.401553, 9.933016, -1.934448, -4.296052, 29.702175, -95.838175, 0.014000, 27.900000, -0.315190, 0.101695, -0.260365
12.9000, -1.661633, 0.556536, 9.683010, 0.057228, -0.140566, -0.063593, 0.515952, -2.128128, 74.508915, 60.069162, -2.337616, -13.627341, -12.550033, -0.564512, -2.001396, -1.059935, -2.280796, 1.147731, 9.637999, 3.242198, -9.721549, 29.702175, -95.838175, 0.014000, 27.900000, -0.311750, 0.099975, -0.271545
13.0000, -0.685272, 0.465318, 9.749356, 0.156341, -0.085283, -0.014571, 1.541283, -2.619946, 87.785819, 71.535562, -2.397764, -13.844309, -12.657424, -0.589157, -2.113589, -1.069253, -0.034364, 0.404506, 9.793586, 2.725827, -4.016091, 29.702176, -95.838174, 0.085000, 27.700000, -0.302290, 0.089225, -0.276705
13.1000, -0.335659, 0.153801, 9.667103, 0.149469, -0.068790, -0.035340, 2.243242, -2.773476, 100.186085, 72.876768, -2.451232, -14.066927, -12.766927, -0.552840, -2.188646, -1.086438, -0.102583, -0.053877, 9.612268, 0.910936, -1.988359, 29.702176, -95.838174, 0.085000, 27.700000, -0.312610, 0.096965, -0.276275
13.2000, -0.534394, -0.236499, 9.955189, 0.148095, 0.228091, 0.081640, 2.622105, -1.494634, 112.432595, 74.742362, -2.492385, -14.292832, -12.873971, -0.458633, -2.235580, -1.075775, -0.666884, -0.496700, 10.147246, -1.358930, -3.071819, 29.702176, -95.838174, 0.085000, 27.700000, -0.314760, 0.095245, -0.273265
13.3000, -0.367223, -0.075941, 10.059652, -0.025391, 0.216637, 0.157846, 2.144395, -0.314454, 124.086135, 73.347602, -2.529079, -14.517834, -12.977985, -0.397502, -2.245213, -1.052015, -0.255776, 0.031098, 10.129294, -0.432235, -2.090569, 29.702176, -95.838174, 0.085000, 27.700000, -0.310890, 0.090085, -0.268535
13.4000, -0.273427, 0.129387, 9.847592, -0.035318, 0.111110, 0.360653, 1.773635, 0.243197, 135.634920, 70.760288, -2.564505, -14.742904, -13.082617, -0.368674, -2.248865, -1.048220, -0.210895, 0.266273, 9.706218, 0.752474, -1.590319, 29.702176, -95.838174, 0.085000, 27.700000, -0.307880, 0.097825, -0.270255
13.5000, -0.351162, 0.259272, 9.854683, -0.041732, 0.020397, 0.300483, 1.480852, 0.220061, 145.504679, 66.559139, -2.597537, -14.970507, -13.186698, -0.343109, -2.266980, -1.043283, -0.402985, 0.345861, 9.859411, 1.506120, -2.040108, 29.702176, -95.838174, 0.085000, 27.700000, -0.299280, 0.114595, -0.278855
13.6000, -0.289981, 0.109801, 9.993957, -0.157033, 0.178305, 0.225194, 0.535526, 1.036584, 153.654748, 62.498360, -2.630490, -15.198152, -13.288204, -0.334057, -2.273291, -1.024467, -0.249194, 0.010153, 10.086807, 0.629202, -1.661906, 29.702176, -95.838174, 0.104000, 0.000000, -0.277350, 0.140395, -0.284445
13.7000, -0.394406, -0.613864, 9.777869, -0.231558, -0.314816, 0.855759, -1.131713, -0.845866, 164.022149, 62.573273, -2.654389, -15.421640, -13.391083, -0.270674, -2.247686, -1.027348, -0.464023, -1.096307, 9.633811, -3.589457, -2.305331, 29.702176, -95.838174, 0.104000, 27.600000, -0.272620, 0.169205, -0.287455
13.8000, -1.061275, -0.574443, 9.514065, 0.056465, 0.058729, 1.351935, -1.144761, -1.043304, 174.841991, 48.147432, -2.662495, -15.642333, -13.498427, -0.144269, -2.220515, -1.058073, -1.505855, -0.548163, 9.338196, -3.433982, -6.353443, 29.702176, -95.838174, 0.104000, 27.600000, -0.261010, 0.210055, -0.278855
13.9000, -1.487080, -0.792414, 9.701884, -0.326700, -0.157518, 1.399888, -3.259613, -2.602905, 183.565146, 38.032068, -2.648289, -15.859002, -13.606579, 0.046617, -2.184628, -1.073706, -1.770950, -0.937728, 9.827097, -4.615675, -8.685849, 29.702176, -95.838174, 0.104000, 27.600000, -0.222310, 0.247035, -0.284015
14.0000, -1.031944, -0.573695, 9.892984, -0.344568, -0.235708, 1.450131, -5.117936, -4.152186, 190.767158, 35.024587, -2.617021, -16.077155, -13.714040, 0.223994, -2.182565, -1.074306, -0.728520, -0.427883, 10.020383, -3.301002, -5.945111, 29.702176, -95.838174, 0.104000, 27.600000, -0.201670, 0.271115, -0.275415
14.1000, -1.184880, -0.874337, 9.764408, 0.352124, -0.228225, 1.462196, -3.380267, -5.610649, 196.149398, 26.754970, -2.565068, -16.282214, -13.824077, 0.421020, -2.094584, -1.091687, -1.286837, -1.074764, 9.678691, -5.079736, -6.891525, 29.702176, -95.838174, 0.104000, 27.600000, -0.173290, 0.305515, -0.263375
14.2000, -0.351311, -0.175609, 9.813511, 0.378544, -0.058863, 0.943419, -1.276029, -5.552797, 197.284254, 21.278554, -2.504164, -16.486497, -13.934372, 0.546368, -2.060081, -1.099194, 0.204401, 0.290209, 9.846246, -1.024521, -2.049912, 29.702176, -95.838174, 0.104000, 27.600000, -0.116100, 0.304655, -0.268965
14.3000, -0.858051, 0.442103, 8.726931, 0.225064, -0.102387, 1.701350, 0.229051, -6.073894, 200.507555, 4.725227, -2.422424, -16.688889, -14.062609, 0.727055, -2.035974, -1.221310, -1.195878, 0.853911, 8.002545, 2.886211, -5.608254, 29.702176, -95.838175, 0.020000, 0.000000, -0.066650, 0.298205, -0.265525
14.4000, -0.383587, 0.190832, 9.398520, 0.096477, -0.053365, -0.016556, 0.753777, -5.946950, 193.548089, 5.240838, -2.329716, -16.888703, -14.192242, 0.860403, -2.010751, -1.271322, -0.067277, 0.023318, 9.846246, 1.162235, -2.336665, 29.702176, -95.838175, 0.020000, 27.600000, -0.028810, 0.293905, -0.262515
14.5000, -0.148920, 0.084220, 9.625865, 0.005763, -0.014117, -0.003423, 0.691944, -5.460598, 186.668248, 5.881868, -2.227875, -17.087447, -14.322999, 0.965739, -1.995211, -1.295489, 0.007524, 0.013145, 9.777429, 0.501229, -0.886309, 29.702176, -95.838175, 0.020000, 27.600000, -0.029670, 0.289605, -0.261655
14.6000, -0.061157, 0.036549, 9.726498, -0.001262, -0.011674, -0.004033, 0.569695, -4.931595, 179.884624, 5.350938, -2.117844, -17.286093, -14.454421, 1.055458, -1.989375, -1.307977, -0.002649, 0.004768, 9.793586, 0.215292, -0.360251, 29.702176, -95.838175, 0.020000, 27.600000, -0.027090, 0.288315, -0.269825
14.7000, -0.023898, 0.016403, 9.762083, 0.001792, -0.013964, -0.006019, 0.461451, -4.420465, 173.386401, 7.122828, -2.000624, -17.485445, -14.586404, 1.133281, -1.992135, -1.315876, 0.000942, 0.002972, 9.785807, 0.096272, -0.140261, 29.702176, -95.838175, 0.020000, 27.600000, -0.036550, 0.292615, -0.266385
14.8000, -0.005404, 0.011217, 9.752620, 0.016759, -0.018393, -0.002964, 0.436065, -3.949554, 167.126576, 6.432432, -1.877184, -17.686000, -14.719208, 1.200695, -2.001079, -1.323987, 0.006926, 0.007760, 9.746312, 0.065899, -0.031746, 29.702176, -95.838175, 0.020000, 27.600000, -0.032680, 0.291325, -0.264665
14.9000, 0.537691, 0.007347, 9.946310, 0.092659, -0.123615, 0.382797, 0.798493, -3.721083, 163.366094, 10.808844, -1.754986, -17.884688, -14.849366, 1.214886, -1.991619, -1.309049, 0.899754, 0.004768, 10.075437, 0.042263, 3.094358, 29.702176, -95.838175, 0.020000, 27.600000, -0.031390, 0.288745, -0.268535
15.0000, 0.626749, -0.137819, 10.221980, -0.023711, -0.012895, 0.027273, 0.437049, -2.866118, 157.676271, 6.935685, -1.633862, -18.080201, -14.973833, 1.212453, -1.967293, -1.266131, 0.686121, -0.234596, 10.405759, -0.771001, 3.508315, 29.702176, -95.838175, 0.020000, 27.600000, -0.016770, 0.287885, -0.266815
15.1000, 0.232594, -0.204502, 10.045011, -0.009203, 0.082858, 0.125623, 0.139758, -1.798513, 152.422978, 2.720826, -1.509926, -18.274461, -15.096894, 1.230391, -1.950825, -1.242447, -0.030176, -0.248958, 9.927031, -1.165989, 1.326184, 29.702175, -95.838175, 0.039000, 0.000000, -0.014190, 0.288745, -0.255635
15.2000, -0.095974, 0.065755, 9.912467, -0.029820, 0.123633, 0.224736, -0.079479, -0.809836, 147.401796, 356.898684, -1.384547, -18.472456, -15.219638, 1.245995, -1.970241, -1.232445, -0.315019, 0.245927, 9.824105, 0.380053, -0.554714, 29.702175, -95.838175, 0.039000, 27.800000, 0.007310, 0.279715, -0.255635
15.3000, 0.142058, -0.295415, 9.932336, 0.069140, -0.114452, -0.237231, 0.018532, -1.002268, 140.044159, 357.397002, -1.256706, -18.666351, -15.341034, 1.267603, -1.949386, -1.220125, 0.300745, -0.536195, 9.945582, -1.703457, 0.819057, 29.702175, -95.838175, 0.039000, 27.800000, 0.020210, 0.283585, -0.264235
15.4000, -0.011549, -0.042060, 9.839751, 0.044706, -0.007856, 0.074005, 0.122516, -0.709023, 134.617833, 356.321577, -1.127868, -18.862049, -15.462616, 1.281457, -1.954443, -1.217251, -0.113953, 0.126843, 9.778027, -0.244909, -0.067246, 29.702175, -95.838175, 0.039000, 27.800000, 0.015050, 0.277995, -0.260795
15.5000, -0.179987, 0.009734, 9.781533, -0.090143, -0.028931, -0.014113, -0.447470, -0.653228, 128.866042, 354.506465, -0.997984, -19.061708, -15.584814, 1.293043, -1.982543, -1.220403, -0.292279, 0.044263, 9.742721, 0.057006, -1.054162, 29.702175, -95.838175, 0.039000, 27.800000, 0.019350, 0.282295, -0.264235
15.6000, -0.228692, 0.055225, 9.790201, 0.006527, -0.015033, -0.003728, -0.431422, -0.563616, 123.514274, 355.493810, -0.867601, -19.265094, -15.707202, 1.300236, -2.016757, -1.222725, -0.261162, 0.085553, 9.795980, 0.323107, -1.338123, 29.702175, -95.838175, 0.039000, 27.800000, 0.015050, 0.274555, -0.253915
15.7000, -0.243147, 0.074499, 9.785769, 0.002251, -0.013201, -0.002506, -0.422988, -0.487136, 118.411549, 353.971670, -0.737184, -19.472123, -15.829887, 1.302856, -2.052442, -1.225472, -0.252784, 0.087348, 9.782815, 0.436050, -1.423295, 29.702174, -95.838176, 0.061000, 0.000000, 0.023220, 0.282295, -0.265095
15.8000, -0.283757, 0.091185, 9.794050, 0.003778, -0.014423, -0.008004, -0.392624, -0.454698, 113.615381, 354.527535, -0.606902, -19.683286, -15.952725, 1.302832, -2.091903, -1.227408, -0.310830, 0.102308, 9.799570, 0.533197, -1.659458, 29.702174, -95.838176, 0.061000, 27.900000, 0.018920, 0.284015, -0.270255
15.9000, -0.274149, 0.073444, 9.793412, 0.004847, -0.014423, -0.000674, -0.365428, -0.426655, 109.203229, 354.774542, -0.476832, -19.898063, -16.075759, 1.301413, -2.129148, -1.229365, -0.267744, 0.061617, 9.792988, 0.429503, -1.603431, 29.702174, -95.838176, 0.061000, 27.900000, 0.018920, 0.282725, -0.259505
16.0000, -0.296158, 0.093635, 9.794594, 0.010803, -0.023738, -0.003881, -0.293711, -0.469370, 105.078954, 354.446812, -0.347305, -20.116990, -16.198977, 1.297316, -2.169232, -1.231242, -0.310830, 0.107096, 9.795381, 0.547473, -1.731837, 29.702174, -95.838176, 0.061000, 27.900000, 0.019350, 0.281435, -0.261655
16.1000, -0.285572, 0.084118, 9.783577, 0.002251, -0.013964, -0.001437, -0.274290, -0.458411, 101.311823, 355.076041, -0.218429, -20.339650, -16.322544, 1.291612, -2.207477, -1.234196, -0.278516, 0.077774, 9.776232, 0.492402, -1.671868, 29.702174, -95.838176, 0.061000, 27.900000, 0.017200, 0.283155, -0.259075
16.2000, -0.286365, 0.085697, 9.778452, -0.010578, -0.007550, -0.004186, -0.317415, -0.423118, 97.819219, 354.717408, -0.090615, -20.566012, -16.446482, 1.282633, -2.244903, -1.237651, -0.286893, 0.086750, 9.775035, 0.501905, -1.677381, 29.702174, -95.838176, 0.061000, 27.900000, 0.018490, 0.282725, -0.268535
16.3000, -0.271961, 0.069813, 9.787532, 0.004999, -0.013201, -0.002048, -0.281118, -0.418723, 94.672088, 355.532429, 0.036306, -20.795781, -16.570625, 1.273687, -2.280097, -1.240169, -0.262359, 0.059223, 9.793586, 0.408516, -1.591599, 29.702174, -95.838176, 0.061000, 27.900000, 0.014190, 0.272405, -0.269825
16.4000, -0.278407, 0.067408, 9.790446, -0.000956, -0.010757, -0.002201, -0.276726, -0.412764, 91.788358, 355.080062, 0.162119, -21.029076, -16.694976, 1.263312, -2.315330, -1.242394, -0.282705, 0.065805, 9.792389, 0.394322, -1.628821, 29.702174, -95.838176, 0.061000, 27.900000, 0.016340, 0.276275, -0.263375
16.5000, -0.280627, 0.067883, 9.784431, -0.000804, -0.012284, -0.005102, -0.267882, -0.423623, 89.237324, 356.501443, 0.286675, -21.265880, -16.819640, 1.251480, -2.350472, -1.245228, -0.282106, 0.068199, 9.780421, 0.397339, -1.642806, 29.702174, -95.838178, 0.069000, 28.000000, 0.009890, 0.284875, -0.265095
16.6000, -0.280078, 0.070586, 9.791719, 0.003778, -0.011063, -0.003881, -0.231042, -0.433547, 86.895530, 355.261652, 0.409887, -21.506143, -16.944478, 1.238571, -2.385239, -1.247332, -0.279713, 0.072388, 9.796578, 0.412854, -1.638375, 29.702174, -95.838178, 0.069000, 28.000000, 0.015480, 0.274125, -0.259505
16.7000, -0.275909, 0.062691, 9.795712, 0.000876, -0.016408, -0.002354, -0.214076, -0.474134, 84.726850, 354.415197, 0.531769, -21.749861, -17.069470, 1.225404, -2.419872, -1.249053, -0.273130, 0.057428, 9.798373, 0.366534, -1.613352, 29.702174, -95.838178, 0.069000, 28.000000, 0.019350, 0.272405, -0.267245
16.8000, -0.281064, 0.063842, 9.792641, 0.000571, -0.012895, -0.005255, -0.196431, -0.502122, 82.720411, 354.090311, 0.652163, -21.997122, -17.194682, 1.211092, -2.455028, -1.251101, -0.284500, 0.064609, 9.790594, 0.373372, -1.643989, 29.702174, -95.838178, 0.069000, 28.000000, 0.021070, 0.276705, -0.267245
16.9000, -0.287434, 0.060711, 9.794644, 0.003472, -0.012743, -0.005408, -0.164390, -0.536737, 81.004172, 355.579264, 0.771067, -22.248034, -17.320073, 1.196391, -2.491091, -1.252970, -0.291681, 0.058625, 9.795980, 0.354986, -1.680889, 29.702174, -95.838178, 0.069000, 28.000000, 0.013330, 0.274125, -0.268535
17.0000, -0.282442, 0.061614, 9.791496, 0.006985, -0.012437, -0.003728, -0.114129, -0.569717, 79.546555, 355.879678, 0.888476, -22.502525, -17.445699, 1.181523, -2.526967, -1.255164, -0.279114, 0.062215, 9.789397, 0.360382, -1.652243, 29.702174, -95.838178, 0.069000, 28.000000, 0.012900, 0.278855, -0.256495
17.1000, -0.280445, 0.066642, 9.782697, 0.007138, -0.011368, -0.003881, -0.062516, -0.598873, 78.216253, 354.652813, 1.004320, -22.760604, -17.571678, 1.166140, -2.562850, -1.258248, -0.279114, 0.069994, 9.776831, 0.390146, -1.642038, 29.702172, -95.838179, 0.126000, 0.000000, 0.018920, 0.279715, -0.260795
17.2000, -0.282160, 0.088042, 9.765174, 0.001945, -0.016866, -0.001437, -0.027252, -0.660504, 77.082325, 355.125880, 1.118256, -23.022349, -17.698234, 1.148282, -2.599250, -1.263125, -0.283303, 0.102308, 9.753493, 0.516344, -1.655006, 29.702172, -95.838179, 0.126000, 0.000000, 0.015910, 0.274555, -0.266815
17.3000, -0.270279, 0.089780, 9.785094, -0.000804, -0.016866, -0.003881, -0.005727, -0.713823, 76.108704, 355.236112, 1.230350, -23.287657, -17.824982, 1.130056, -2.635140, -1.266030, -0.262359, 0.090939, 9.798373, 0.525484, -1.582128, 29.702172, -95.838179, 0.126000, 28.300000, 0.016770, 0.283585, -0.264235
17.4000, -0.270913, 0.096579, 9.803833, -0.005385, -0.012895, 0.001464, -0.002926, -0.746220, 75.348814, 355.713817, 1.340435, -23.556587, -17.951743, 1.110583, -2.671246, -1.267083, -0.271335, 0.101112, 9.816326, 0.564196, -1.582794, 29.702172, -95.838179, 0.126000, 28.300000, 0.013760, 0.281005, -0.271975
17.5000, -0.271884, 0.090681, 9.784759, 0.010039, -0.012437, -0.000826, 0.078538, -0.778564, 74.673984, 354.861060, 1.448770, -23.829262, -18.078897, 1.092431, -2.708246, -1.270055, -0.272532, 0.086750, 9.772043, 0.530776, -1.591570, 29.702172, -95.838179, 0.126000, 28.300000, 0.018060, 0.280575, -0.265095
17.6000, -0.276222, 0.085091, 9.787901, 0.004236, -0.012895, -0.002812, 0.120903, -0.817103, 74.196655, 356.379336, 1.555385, -24.105824, -18.206306, 1.074908, -2.746497, -1.272743, -0.279114, 0.081364, 9.789996, 0.497890, -1.616441, 29.702172, -95.838179, 0.126000, 28.300000, 0.009890, 0.277995, -0.275415
17.7000, -0.275444, 0.078546, 9.783772, -0.000498, -0.011979, -0.002964, 0.132748, -0.851076, 73.770370, 354.844946, 1.660307, -24.386299, -18.334049, 1.057783, -2.785332, -1.275867, -0.274925, 0.074183, 9.781019, 0.459792, -1.612579, 29.702172, -95.838179, 0.126000, 28.300000, 0.018060, 0.280145, -0.263375
17.8000, -0.278005, 0.075210, 9.781402, -0.002789, -0.011979, -0.003270, 0.131442, -0.887445, 73.497573, 355.990054, 1.763496, -24.670784, -18.462145, 1.040524, -2.825011, -1.279260, -0.279713, 0.072986, 9.779823, 0.440368, -1.627963, 29.702172, -95.838179, 0.126000, 28.300000, 0.012040, 0.276275, -0.261225
17.9000, -0.280466, 0.072799, 9.773992, 0.000723, -0.016102, -0.005713, 0.148630, -0.947042, 73.278189, 355.181318, 1.864960, -24.959430, -18.590698, 1.023264, -2.865975, -1.283442, -0.282106, 0.071191, 9.769051, 0.426568, -1.643612, 29.702172, -95.838179, 0.034000, 0.000000, 0.015480, 0.273265, -0.267675
18.0000, -0.276782, 0.070039, 9.776054, -0.000346, -0.008925, -0.003423, 0.158436, -0.965279, 73.175951, 355.609570, 1.964752, -25.252179, -18.719640, 1.006371, -2.906985, -1.287426, -0.274327, 0.068199, 9.777429, 0.410315, -1.621699, 29.702172, -95.838179, 0.034000, 28.400000, 0.013760, 0.277995, -0.275845
