Time, AccX(m/s^2), AccY(m/s^2), AccZ(m/s^2), GyrX(rad/s), GyrY(rad/s), GyrZ(rad/s), Roll(deg), Pitch(deg), Yaw(deg), Heading, X(m), Y(m), Z(m),         Vx(m/s), Vy(m/s), Vz(m/s), AccXraw(m/s^2), AccYraw(m/s^2), AccZraw(m/s^2), RollAcc(deg/s^2), PitchAcc(deg/s^2), Latitude, Longitude,             GPShspeed(m/s), GPSalt(m), MagX(uT), MagY(ut), MagZ(uT)
0.0000, -0.191095, -0.036617, 5.728584, -0.002523, -0.026271, -0.005237, -0.352467, -1.909264, 61.231566, 331.344090, -0.002739, -0.005031, -0.061363, -0.018257, -0.033538, -0.409085, -0.318491, -0.061028, 9.547639, -0.366023, -1.910533, 29.702598, -95.840475, 0.010000, 39.795000, 0.128140, 0.265525, -0.462895
0.1000, -0.129300, -0.051264, 8.155018, 0.004960, -0.026729, -0.007528, -0.346531, -1.404428, 62.523533, 334.426241, -0.006816, -0.012778, -0.127178, -0.033271, -0.062829, -0.575129, -0.088104, -0.061028, 9.772642, -0.360119, -0.908347, 29.702598, -95.840475, 0.010000, 39.795000, 0.116960, 0.256065, -0.465475
0.2000, -0.185368, -0.076152, 9.062041, 0.002975, -0.017871, -0.003404, -0.414391, -1.252519, 62.703235, 332.031535, -0.012639, -0.024245, -0.195999, -0.049911, -0.097388, -0.650515, -0.222746, -0.092744, 9.666723, -0.481365, -1.171803, 29.702598, -95.840475, 0.010000, 39.795000, 0.119540, 0.250045, -0.471925
0.3000, -0.282835, -0.000654, 9.335089, -0.001301, -0.021384, -0.004626, -0.218102, -1.473266, 62.936937, 333.097058, -0.021664, -0.040728, -0.268330, -0.076801, -0.142352, -0.699048, -0.347814, 0.049678, 9.517121, -0.004012, -1.735421, 29.702598, -95.840475, 0.010000, 39.795000, 0.115240, 0.258215, -0.467625
0.4000, -0.336543, 0.093455, 9.883062, 0.006487, -0.020009, -0.004168, 0.208405, -1.725490, 63.227608, 333.448966, -0.034398, -0.063065, -0.337354, -0.110493, -0.196364, -0.693176, -0.372348, 0.156195, 10.248378, 0.541465, -1.950224, 29.702598, -95.840475, 0.010000, 39.795000, 0.113950, 0.255205, -0.474075
0.5000, -0.259289, 0.046364, 9.934218, 0.002059, -0.013595, -0.005695, 0.322251, -1.645928, 63.624362, 334.131433, -0.048948, -0.090083, -0.404980, -0.133832, -0.245570, -0.681899, -0.207786, 0.014970, 9.968322, 0.267313, -1.495096, 29.702598, -95.840475, 0.010000, 39.795000, 0.114810, 0.256495, -0.476655
0.6000, -0.116723, 0.018552, 9.871382, 0.007709, -0.027340, -0.005848, 0.332919, -1.282874, 64.173407, 334.991735, -0.064014, -0.119453, -0.472326, -0.145051, -0.277658, -0.676275, -0.021680, 0.000010, 9.829491, 0.107670, -0.677457, 29.702598, -95.840475, 0.010000, 39.795000, 0.120830, 0.261225, -0.465905
0.7000, -0.238502, 0.008863, 9.725967, 0.004808, -0.019398, -0.007069, 0.298365, -1.301141, 64.156077, 332.979144, -0.080958, -0.153692, -0.541334, -0.161311, -0.320815, -0.685479, -0.319688, 0.002403, 9.629023, 0.052195, -1.404738, 29.702598, -95.840475, 0.010000, 39.795000, 0.114380, 0.254775, -0.472355
0.8000, -0.290086, 0.004628, 9.769770, -0.007104, -0.014664, -0.004626, 0.216838, -1.406529, 63.881477, 332.440349, -0.100152, -0.193123, -0.610638, -0.181731, -0.369809, -0.690514, -0.324476, 0.001805, 9.798972, 0.027130, -1.700740, 29.702599, -95.840475, 0.019000, 39.691000, 0.119110, 0.258215, -0.476225
0.9000, -0.274456, 0.114957, 9.979740, 0.007862, -0.027798, -0.005237, 0.428538, -1.490528, 63.733367, 333.136752, -0.122412, -0.237019, -0.677292, -0.208976, -0.415908, -0.674534, -0.264036, 0.188509, 10.119719, 0.659711, -1.575209, 29.702599, -95.840475, 0.019000, 39.691000, 0.119540, 0.251335, -0.465905
1.0000, -0.280412, 0.096973, 10.082757, 0.001448, -0.016650, -0.004626, 0.518922, -1.511406, 63.510892, 332.474353, -0.147040, -0.285905, -0.740811, -0.233847, -0.464548, -0.648302, -0.284382, 0.084984, 10.151435, 0.550824, -1.592970, 29.702599, -95.840475, 0.019000, 39.691000, 0.124700, 0.260365, -0.465905
1.1000, -0.303978, 0.091575, 10.115347, 0.007404, -0.022606, -0.006153, 0.598274, -1.588893, 63.204786, 331.953308, -0.174188, -0.340279, -0.801239, -0.258936, -0.517342, -0.618958, -0.319688, 0.087976, 10.137073, 0.518454, -1.721215, 29.702599, -95.840475, 0.019000, 39.691000, 0.123410, 0.255205, -0.468055
1.2000, -0.313404, 0.011503, 9.785494, 0.002364, -0.020162, -0.003099, 0.511364, -1.667518, 62.922525, 331.885574, -0.203152, -0.400518, -0.863706, -0.279405, -0.574041, -0.622764, -0.319688, -0.041879, 9.565592, 0.067315, -1.834407, 29.702599, -95.840475, 0.019000, 39.691000, 0.121260, 0.257785, -0.462895
1.3000, -0.301018, 0.016096, 9.759830, 0.008778, -0.019246, -0.005542, 0.476248, -1.706606, 62.750672, 332.418984, -0.234288, -0.466257, -0.926937, -0.300708, -0.629608, -0.629131, -0.292760, 0.019159, 9.742721, 0.094450, -1.766582, 29.702599, -95.840475, 0.019000, 39.691000, 0.123840, 0.262945, -0.467625
1.4000, -0.276315, -0.009713, 9.622462, 0.001600, -0.018940, -0.005695, 0.378188, -1.706227, 62.600460, 332.176937, -0.267268, -0.537217, -0.992855, -0.320102, -0.682934, -0.649161, -0.259847, -0.026919, 9.530884, -0.057809, -1.644833, 29.702599, -95.840475, 0.019000, 39.691000, 0.124270, 0.260795, -0.466765
1.5000, -0.238429, -0.044451, 9.604138, 0.005418, -0.020315, -0.003099, 0.268595, -1.660850, 62.507115, 332.326555, -0.301666, -0.613005, -1.061028, -0.336017, -0.732898, -0.670873, -0.213171, -0.067611, 9.591922, -0.265102, -1.422097, 29.702599, -95.840475, 0.019000, 39.691000, 0.126850, 0.264665, -0.462465
1.6000, -0.166904, -0.034650, 9.657487, 0.008778, -0.023675, -0.004321, 0.206639, -1.545394, 62.664392, 334.134934, -0.337285, -0.692467, -1.130526, -0.349466, -0.774046, -0.686945, -0.119221, -0.028115, 9.693053, -0.205538, -0.990101, 29.702599, -95.840475, 0.019000, 39.691000, 0.119970, 0.260795, -0.472785
1.7000, -0.165941, 0.064059, 9.816341, 0.013207, -0.020467, -0.007680, 0.293679, -1.430835, 62.727265, 332.930848, -0.375240, -0.775257, -1.199230, -0.369521, -0.809948, -0.687011, -0.165299, 0.129865, 9.922244, 0.373839, -0.968446, 29.702599, -95.840475, 0.019000, 39.691000, 0.124270, 0.252195, -0.462035
1.8000, -0.177763, 0.130471, 10.014525, 0.013512, -0.021536, -0.005390, 0.438491, -1.350222, 62.964257, 334.566686, -0.415732, -0.861412, -1.264958, -0.393121, -0.844351, -0.667185, -0.185644, 0.174746, 10.146648, 0.746299, -1.016836, 29.702599, -95.840475, 0.019000, 39.691000, 0.119110, 0.260365, -0.464185
1.9000, -0.197931, 0.127235, 9.925765, 0.008167, -0.015428, -0.007528, 0.530835, -1.277801, 63.157681, 334.036927, -0.458355, -0.951220, -1.330032, -0.415198, -0.880166, -0.656222, -0.211376, 0.125078, 9.866592, 0.734268, -1.142297, 29.702599, -95.840475, 0.019000, 39.691000, 0.119110, 0.259075, -0.462035
2.0000, -0.180865, 0.111220, 10.020954, 0.008015, -0.016497, -0.006306, 0.589331, -1.203222, 63.231934, 333.150876, -0.502627, -1.044421, -1.392570, -0.433547, -0.914733, -0.635666, -0.169487, 0.100543, 10.084413, 0.635779, -1.033936, 29.702599, -95.840475, 0.019000, 39.691000, 0.128140, 0.263805, -0.459455
2.1000, -0.213892, 0.094401, 10.031742, 0.004960, -0.014359, -0.005084, 0.606826, -1.162795, 63.226027, 332.766896, -0.548644, -1.141565, -1.452900, -0.451293, -0.952535, -0.614088, -0.235911, 0.083189, 10.038934, 0.539029, -1.221396, 29.702599, -95.840475, 0.019000, 39.691000, 0.120830, 0.251765, -0.455585
2.2000, -0.267676, 0.048538, 9.975379, -0.002981, -0.011457, -0.006459, 0.539935, -1.167876, 63.023988, 331.168147, -0.596370, -1.243423, -1.511941, -0.468603, -0.996567, -0.598302, -0.303531, 0.017962, 9.937803, 0.278684, -1.537067, 29.702599, -95.840475, 0.019000, 39.691000, 0.129000, 0.259075, -0.462895
2.3000, -0.295293, 0.046349, 9.862713, -0.005272, -0.015275, -0.002793, 0.469961, -1.220737, 62.952984, 332.817848, -0.646216, -1.350067, -1.571108, -0.488505, -1.043146, -0.593879, -0.313704, 0.044891, 9.787602, 0.269137, -1.714923, 29.702599, -95.840475, 0.019000, 39.691000, 0.119110, 0.258645, -0.463755
2.4000, -0.310648, 0.013519, 9.878684, 0.000684, -0.014206, -0.005848, 0.409220, -1.275853, 62.926067, 333.008819, -0.697926, -1.461856, -1.629608, -0.507573, -1.092981, -0.587962, -0.320885, -0.008368, 9.889332, 0.078371, -1.801146, 29.702599, -95.840475, 0.019000, 39.691000, 0.118680, 0.262945, -0.465905
2.5000, -0.270832, -0.011103, 9.616865, -0.002828, -0.021078, -0.002641, 0.317336, -1.330374, 63.101691, 334.855867, -0.751175, -1.578200, -1.691438, -0.524183, -1.139951, -0.608185, -0.244289, -0.027517, 9.442319, -0.066121, -1.613150, 29.702599, -95.840475, 0.019000, 39.691000, 0.111370, 0.264665, -0.473645
2.6000, -0.201408, -0.016284, 9.668323, 0.009084, -0.027034, -0.007069, 0.291035, -1.346362, 63.136273, 332.889146, -0.805623, -1.698372, -1.754496, -0.537713, -1.181133, -0.623113, -0.155126, -0.019738, 9.702628, -0.096478, -1.193398, 29.702599, -95.840475, 0.019000, 39.691000, 0.124700, 0.259075, -0.467195
2.7000, -0.216724, 0.019344, 9.960704, 0.006487, -0.014817, -0.006306, 0.283337, -1.306808, 63.194866, 333.621696, -0.861996, -1.822630, -1.814660, -0.555058, -1.222096, -0.608799, -0.226935, 0.043095, 10.155624, 0.111242, -1.246438, 29.702599, -95.840475, 0.019000, 39.691000, 0.119540, 0.259935, -0.464185
2.8000, -0.326256, -0.004464, 9.803345, -0.006188, -0.016039, -0.005848, 0.194432, -1.369198, 63.073570, 331.379974, -0.920804, -1.952591, -1.875800, -0.577072, -1.273770, -0.610531, -0.399277, -0.020336, 9.698439, -0.026077, -1.906102, 29.702599, -95.840475, 0.019000, 39.691000, 0.121690, 0.259075, -0.468055
2.9000, -0.291796, 0.022276, 9.771279, 0.002364, -0.024438, -0.006153, 0.179938, -1.440967, 62.996499, 332.646791, -0.982059, -2.087208, -1.937590, -0.600724, -1.322035, -0.615444, -0.268823, 0.040103, 9.749902, 0.130563, -1.710491, 29.702599, -95.840475, 0.019000, 39.691000, 0.121690, 0.258215, -0.468915
3.0000, -0.235286, -0.038119, 9.779637, 0.000073, -0.018177, -0.005848, 0.109380, -1.429792, 62.987127, 333.236053, -1.044637, -2.226203, -1.999725, -0.617431, -1.367310, -0.619381, -0.197613, -0.078382, 9.785208, -0.223259, -1.378190, 29.702599, -95.840475, 0.019000, 39.691000, 0.122980, 0.265955, -0.461605
3.1000, -0.219504, 0.008815, 9.893925, 0.007709, -0.015581, -0.004931, 0.119714, -1.393117, 62.986668, 332.966389, -1.109356, -2.369161, -2.060528, -0.637267, -1.408828, -0.611815, -0.208982, 0.040103, 9.970117, 0.051032, -1.270939, 29.702599, -95.840475, 0.019000, 39.691000, 0.123410, 0.259075, -0.465905
3.2000, -0.308338, 0.053080, 9.714877, 0.000990, -0.023675, -0.006306, 0.127653, -1.469714, 62.914394, 332.074841, -1.177309, -2.517274, -2.123301, -0.665446, -1.457025, -0.622428, -0.367561, 0.082590, 9.595512, 0.312891, -1.817860, 29.702599, -95.840475, 0.019000, 39.691000, 0.121260, 0.258215, -0.464615
3.3000, -0.171889, 0.101664, 9.902490, 0.015803, -0.029936, -0.008597, 0.243738, -1.468463, 63.036059, 335.075721, -1.247545, -2.668261, -2.184266, -0.690051, -1.492259, -0.613911, -0.080923, 0.134054, 10.027564, 0.588120, -0.994396, 29.702599, -95.840475, 0.019000, 39.691000, 0.122120, 0.264665, -0.461175
3.4000, -0.210661, 0.065087, 9.985074, 0.002364, -0.011457, -0.006000, 0.253640, -1.398114, 63.151711, 333.928080, -1.319906, -2.823425, -2.243150, -0.712428, -1.531843, -0.597195, -0.236509, 0.040702, 10.040131, 0.373388, -1.208599, 29.702599, -95.840475, 0.019000, 39.691000, 0.117820, 0.261225, -0.464615
3.5000, -0.173390, 0.032144, 10.026725, 0.001753, -0.009625, -0.005848, 0.237237, -1.300109, 63.197771, 333.130419, -1.393735, -2.982039, -2.299716, -0.729667, -1.568044, -0.576170, -0.148543, 0.010183, 10.054493, 0.183655, -0.990701, 29.702599, -95.840475, 0.019000, 39.691000, 0.124700, 0.259075, -0.461175
3.6000, -0.202645, 0.070670, 10.040872, 0.000379, -0.008403, -0.004626, 0.241294, -1.225408, 63.172687, 332.422176, -1.469907, -3.144238, -2.353966, -0.751034, -1.604004, -0.553725, -0.222147, 0.096354, 10.050304, 0.403172, -1.156156, 29.702599, -95.840475, 0.019000, 39.691000, 0.125130, 0.254775, -0.465045
3.7000, -0.170543, 0.044072, 10.078127, 0.001753, -0.011915, -0.004626, 0.234941, -1.155240, 63.227296, 333.984725, -1.547572, -3.309624, -2.405397, -0.768112, -1.637245, -0.527451, -0.149141, 0.026340, 10.102964, 0.250519, -0.969461, 29.702599, -95.840475, 0.019000, 39.691000, 0.119110, 0.256925, -0.466765
3.8000, -0.119643, 0.008659, 9.800766, 0.006335, -0.023064, -0.005237, 0.229818, -1.117974, 63.424164, 335.752686, -1.626058, -3.477724, -2.458345, -0.779277, -1.666416, -0.528799, -0.085710, -0.014950, 9.615858, 0.050614, -0.699404, 29.702599, -95.840475, 0.019000, 39.691000, 0.111800, 0.258215, -0.468915
3.9000, -0.241106, -0.010174, 9.686949, 0.002517, -0.024133, -0.005695, 0.192521, -1.170347, 63.408122, 331.941463, -1.706360, -3.650540, -2.513176, -0.795104, -1.707576, -0.541807, -0.322082, -0.022730, 9.611071, -0.060161, -1.425786, 29.702599, -95.840475, 0.019000, 39.691000, 0.118250, 0.252625, -0.474075
4.0000, -0.275689, 0.013529, 9.803352, 0.000379, -0.014359, -0.005695, 0.162846, -1.189012, 63.330338, 332.190940, -1.788903, -3.827815, -2.567574, -0.815325, -1.751029, -0.543255, -0.298744, 0.029332, 9.880954, 0.079041, -1.610840, 29.702599, -95.840475, 0.019000, 39.691000, 0.121260, 0.255635, -0.475365
4.1000, -0.273365, 0.149395, 10.076112, 0.011527, -0.024438, -0.006153, 0.278052, -1.252715, 63.322836, 333.523064, -1.875107, -4.008857, -2.618024, -0.846466, -1.790622, -0.517422, -0.271815, 0.239972, 10.257952, 0.849130, -1.553882, 29.702599, -95.840475, 0.019000, 39.691000, 0.117390, 0.250045, -0.480095
4.2000, -0.253406, 0.087410, 10.005693, 0.005266, -0.012832, -0.005695, 0.313226, -1.240387, 63.372938, 334.010593, -1.963351, -4.194001, -2.666944, -0.870452, -1.831167, -0.498603, -0.240100, 0.046087, 9.958747, 0.500367, -1.450717, 29.702601, -95.840477, 0.018000, 39.488000, 0.113090, 0.253055, -0.471495
4.3000, -0.155302, 0.128681, 10.029946, 0.014887, -0.027340, -0.007375, 0.420165, -1.243153, 63.490707, 334.889285, -2.053633, -4.381754, -2.713581, -0.892029, -1.862075, -0.477114, -0.089899, 0.156195, 10.046115, 0.734959, -0.887012, 29.702601, -95.840477, 0.018000, 39.488000, 0.117390, 0.252195, -0.473645
4.4000, -0.206180, 0.014497, 9.799087, 0.004808, -0.015428, -0.005695, 0.395308, -1.217381, 63.503251, 332.764827, -2.144896, -4.573879, -2.761557, -0.905760, -1.901524, -0.478878, -0.240100, -0.061626, 9.645180, 0.084743, -1.205369, 29.702601, -95.840477, 0.018000, 39.488000, 0.118680, 0.256065, -0.467195
4.5000, -0.280389, 0.032015, 9.663298, 0.002364, -0.022758, -0.005848, 0.370332, -1.280891, 63.545235, 333.910316, -2.238379, -4.770900, -2.811775, -0.925146, -1.947316, -0.494416, -0.329861, 0.043694, 9.572773, 0.189743, -1.662011, 29.702601, -95.840477, 0.018000, 39.488000, 0.109220, 0.253915, -0.471065
4.6000, -0.350285, 0.076004, 9.929611, 0.003433, -0.014817, -0.005390, 0.379140, -1.337253, 63.462186, 331.818304, -2.334932, -4.973372, -2.859581, -0.952067, -1.998918, -0.483514, -0.396883, 0.105330, 10.107153, 0.438276, -2.020318, 29.702601, -95.840477, 0.018000, 39.488000, 0.122120, 0.257785, -0.477085
4.7000, -0.253655, 0.038666, 10.103996, 0.003128, -0.018177, -0.006917, 0.362436, -1.346405, 63.459148, 333.871642, -2.433091, -5.180022, -2.903653, -0.971747, -2.043972, -0.454985, -0.189235, 0.013773, 10.220252, 0.219187, -1.438066, 29.702601, -95.840477, 0.018000, 39.488000, 0.119110, 0.259935, -0.471065
4.8000, -0.243727, 0.151191, 10.055624, 0.011222, -0.014817, -0.003252, 0.456263, -1.332583, 63.552012, 334.535626, -2.534411, -5.390357, -2.945580, -0.999383, -2.083560, -0.431173, -0.237108, 0.226209, 10.023375, 0.861154, -1.388298, 29.702601, -95.840477, 0.018000, 39.488000, 0.115670, 0.255635, -0.468055
4.9000, -0.139222, -0.038973, 9.825156, 0.015345, -0.026271, -0.008444, 0.448475, -1.318309, 63.544565, 333.018494, -2.635234, -5.604392, -2.988566, -1.005279, -2.121419, -0.430298, -0.069553, -0.165750, 9.671510, -0.227250, -0.811820, 29.702601, -95.840477, 0.018000, 39.488000, 0.120400, 0.251335, -0.474505
5.0000, -0.249656, 0.019603, 9.805496, 0.003891, -0.018482, -0.003557, 0.415171, -1.331011, 63.431660, 331.419024, -2.738274, -5.823283, -3.031792, -1.022028, -2.166415, -0.431605, -0.323279, 0.058654, 9.792389, 0.114508, -1.458481, 29.702601, -95.840477, 0.018000, 39.488000, 0.125990, 0.256925, -0.471925
5.1000, -0.311423, -0.037393, 9.643242, -0.006341, -0.019551, -0.004473, 0.295916, -1.389647, 63.396458, 333.445432, -2.842969, -6.047823, -3.077614, -1.038646, -2.219066, -0.449352, -0.352601, -0.075390, 9.535073, -0.222053, -1.849678, 29.702602, -95.840477, 0.012000, 39.395000, 0.111800, 0.261655, -0.465905
5.2000, -0.327513, 0.049318, 9.896814, 0.006487, -0.016497, -0.003862, 0.305333, -1.433762, 63.407931, 333.585324, -2.950649, -6.277465, -3.121415, -1.064081, -2.270641, -0.441787, -0.338239, 0.107125, 10.065863, 0.285359, -1.895358, 29.702602, -95.840477, 0.012000, 39.395000, 0.115670, 0.259505, -0.468915
5.3000, -0.291940, 0.088670, 10.029121, 0.007098, -0.020315, -0.006764, 0.339913, -1.471510, 63.432694, 333.797591, -3.061134, -6.511705, -3.162464, -1.091261, -2.318475, -0.420921, -0.268225, 0.114905, 10.117326, 0.506338, -1.667300, 29.702602, -95.840477, 0.012000, 39.395000, 0.116100, 0.255635, -0.464615
5.4000, -0.221341, 0.081432, 10.064810, 0.006946, -0.017871, -0.007833, 0.366532, -1.451276, 63.624198, 336.410816, -3.173663, -6.749838, -3.200861, -1.113943, -2.360380, -0.396292, -0.174275, 0.076606, 10.088602, 0.463443, -1.259779, 29.702602, -95.840477, 0.012000, 39.395000, 0.107500, 0.261225, -0.471065
5.5000, -0.146425, -0.029895, 9.734401, 0.004197, -0.020467, -0.004321, 0.310082, -1.403884, 63.748261, 334.095012, -3.286500, -6.991601, -3.241727, -1.123561, -2.398549, -0.404533, -0.096481, -0.104114, 9.514129, -0.175941, -0.861776, 29.702602, -95.840477, 0.012000, 39.395000, 0.116100, 0.253915, -0.467625
5.6000, -0.273003, -0.074785, 9.765963, -0.000843, -0.020467, -0.005848, 0.203572, -1.435500, 63.757662, 333.041750, -3.400816, -7.239145, -3.282994, -1.136626, -2.449812, -0.409960, -0.357388, -0.104712, 9.787003, -0.438577, -1.601213, 29.702602, -95.840477, 0.012000, 39.395000, 0.113090, 0.260795, -0.468485
5.7000, -0.336201, -0.039602, 9.732270, -0.007563, -0.018635, -0.002335, 0.091492, -1.494635, 63.788016, 333.712323, -3.517645, -7.492431, -3.325338, -1.157735, -2.505174, -0.418948, -0.378332, -0.016147, 9.709809, -0.233007, -1.978476, 29.702602, -95.840477, 0.012000, 39.395000, 0.107930, 0.256065, -0.468915
5.8000, -0.286080, 0.025814, 9.920577, 0.010458, -0.022300, -0.006611, 0.121527, -1.535135, 63.830321, 334.256628, -3.637132, -7.750345, -3.365742, -1.182498, -2.554483, -0.409010, -0.252666, 0.069425, 10.046115, 0.149026, -1.651777, 29.702602, -95.840477, 0.012000, 39.395000, 0.111800, 0.253055, -0.469775
5.9000, -0.264596, 0.080705, 10.097151, 0.006335, -0.012832, -0.006459, 0.159546, -1.507790, 63.907168, 334.601092, -3.759589, -8.012589, -3.402490, -1.210540, -2.599786, -0.381322, -0.250273, 0.117298, 10.214867, 0.457787, -1.501043, 29.702602, -95.840477, 0.012000, 39.395000, 0.115670, 0.262515, -0.471925
6.0000, -0.157623, 0.002128, 9.890238, 0.002669, -0.022758, -0.004168, 0.130152, -1.473069, 63.989638, 334.400668, -3.883077, -8.278253, -3.439529, -1.226772, -2.637689, -0.374032, -0.086308, -0.050257, 9.752296, 0.012325, -0.913060, 29.702602, -95.840478, 0.012000, 39.379000, 0.117390, 0.256065, -0.468055
6.1000, -0.235474, 0.020246, 9.711966, 0.009084, -0.024285, -0.006000, 0.147210, -1.496102, 63.887534, 331.685652, -4.008919, -8.548638, -3.478544, -1.247870, -2.681801, -0.384780, -0.287374, 0.032324, 9.593119, 0.119403, -1.388903, 29.702602, -95.840478, 0.012000, 39.379000, 0.124270, 0.255205, -0.471925
6.2000, -0.275231, -0.007694, 9.689488, -0.004814, -0.015275, -0.002183, 0.073853, -1.494626, 63.792904, 332.504507, -4.136931, -8.824056, -3.518987, -1.269371, -2.730053, -0.397880, -0.301736, -0.026320, 9.674502, -0.045477, -1.627056, 29.702602, -95.840478, 0.012000, 39.379000, 0.118250, 0.256495, -0.469775
6.3000, -0.343196, 0.105360, 9.840272, 0.004960, -0.016344, -0.006153, 0.126053, -1.538021, 63.712269, 333.066782, -4.269028, -9.104671, -3.558509, -1.303767, -2.780786, -0.396108, -0.388505, 0.180730, 9.940795, 0.613072, -1.997361, 29.702602, -95.840478, 0.012000, 39.379000, 0.115240, 0.254775, -0.477085
6.4000, -0.248665, 0.076618, 10.015121, 0.004197, -0.020620, -0.005237, 0.153500, -1.541715, 63.841056, 336.179705, -4.403501, -9.389395, -3.595196, -1.331074, -2.825088, -0.376610, -0.185644, 0.057457, 10.131688, 0.438185, -1.422260, 29.702602, -95.840478, 0.012000, 39.379000, 0.103200, 0.250475, -0.467195
6.5000, -0.199363, 0.097436, 9.963704, 0.011374, -0.020620, -0.007986, 0.229237, -1.515670, 64.002159, 335.693702, -4.540428, -9.677766, -3.630678, -1.356537, -2.864166, -0.362085, -0.166495, 0.111314, 9.929425, 0.560170, -1.146220, 29.702602, -95.840478, 0.012000, 39.379000, 0.110940, 0.257785, -0.468915
6.6000, -0.228832, 0.035749, 9.824651, 0.003280, -0.011152, -0.006917, 0.220888, -1.461151, 64.067160, 333.881692, -4.679196, -9.970662, -3.666801, -1.377305, -2.907361, -0.361516, -0.248477, -0.005376, 9.731950, 0.208424, -1.334260, 29.702602, -95.840478, 0.012000, 39.379000, 0.116530, 0.262085, -0.465475
6.7000, -0.275806, 0.059186, 9.696862, 0.003280, -0.024285, -0.005695, 0.227997, -1.509644, 64.109219, 334.056877, -4.820684, -10.268431, -3.704807, -1.402353, -2.954248, -0.373877, -0.307122, 0.074811, 9.611669, 0.349567, -1.629182, 29.702602, -95.840478, 0.012000, 39.379000, 0.113090, 0.259505, -0.468915
6.8000, -0.369277, 0.045582, 9.808035, 0.001142, -0.015275, -0.004779, 0.215410, -1.562258, 64.029882, 332.293946, -4.965218, -10.572382, -3.742428, -1.431010, -3.011093, -0.375435, -0.431591, 0.036513, 9.882151, 0.266088, -2.156170, 29.702602, -95.840478, 0.012000, 39.379000, 0.119540, 0.264665, -0.468915
6.9000, -0.287103, 0.093638, 10.027360, 0.007709, -0.020926, -0.004779, 0.266049, -1.588176, 64.088636, 335.186085, -5.112657, -10.880805, -3.776884, -1.459930, -3.059848, -0.354847, -0.232320, 0.125676, 10.173576, 0.534810, -1.639971, 29.702603, -95.840478, 0.019000, 39.425000, 0.115240, 0.266815, -0.474935
7.0000, -0.310963, 0.074084, 10.006299, 0.001906, -0.011610, -0.004626, 0.271649, -1.578406, 64.168804, 334.754292, -5.262843, -11.194534, -3.809606, -1.487882, -3.111475, -0.336430, -0.326869, 0.061048, 9.992258, 0.423990, -1.779942, 29.702603, -95.840478, 0.019000, 39.425000, 0.110080, 0.262945, -0.468055
7.1000, -0.213511, 0.051541, 9.970946, 0.012749, -0.020773, -0.005237, 0.319921, -1.560374, 64.155241, 333.235785, -5.414746, -11.512255, -3.840975, -1.508650, -3.155299, -0.321273, -0.148543, 0.036513, 9.947377, 0.296100, -1.226688, 29.702603, -95.840478, 0.019000, 39.425000, 0.123840, 0.257785, -0.472785
7.2000, -0.161964, -0.038261, 9.881046, 0.002364, -0.018024, -0.005084, 0.255925, -1.498327, 64.106207, 333.216666, -5.567252, -11.833996, -3.872155, -1.519591, -3.196705, -0.314957, -0.127599, -0.098129, 9.821113, -0.221828, -0.939063, 29.702603, -95.840478, 0.019000, 39.425000, 0.122120, 0.258645, -0.468485
7.3000, -0.306147, 0.029941, 9.681720, 0.004044, -0.018177, -0.005390, 0.245922, -1.530914, 64.051657, 333.333271, -5.722761, -12.161359, -3.905749, -1.543256, -3.247990, -0.328944, -0.402269, 0.075409, 9.548836, 0.177101, -1.811144, 29.702603, -95.840478, 0.019000, 39.425000, 0.116100, 0.266385, -0.465905
7.4000, -0.329711, 0.100667, 9.986528, 0.004044, -0.015122, -0.006000, 0.278128, -1.554309, 63.962526, 332.823164, -5.881744, -12.493907, -3.936179, -1.574304, -3.299653, -0.312516, -0.345420, 0.147817, 10.189733, 0.577222, -1.890868, 29.702603, -95.840478, 0.019000, 39.425000, 0.119540, 0.256925, -0.468915
7.5000, -0.221010, -0.005326, 10.005764, 0.000073, -0.018482, -0.004931, 0.225179, -1.529465, 63.871709, 332.892238, -6.041797, -12.830739, -3.964638, -1.591785, -3.345432, -0.293896, -0.148543, -0.075988, 10.018588, -0.030492, -1.265359, 29.702603, -95.840478, 0.019000, 39.425000, 0.119110, 0.249615, -0.464185
7.6000, -0.145216, 0.056400, 9.921543, 0.012443, -0.012526, -0.004321, 0.276783, -1.430784, 63.900430, 334.759674, -6.203682, -13.170519, -3.992452, -1.609831, -3.380343, -0.283398, -0.094686, 0.097551, 9.865395, 0.325664, -0.838531, 29.702603, -95.840478, 0.019000, 39.425000, 0.117390, 0.253915, -0.467195
7.7000, -0.266774, -0.000413, 9.746031, 0.000531, -0.020926, -0.002946, 0.228065, -1.457876, 63.736723, 330.887055, -6.367554, -13.515737, -4.021902, -1.629088, -3.428230, -0.290797, -0.347814, -0.038288, 9.629023, -0.002428, -1.567944, 29.702603, -95.840478, 0.019000, 39.425000, 0.125130, 0.256495, -0.464615
7.8000, -0.312526, -0.041809, 9.674749, 0.001295, -0.026882, -0.005542, 0.161566, -1.542676, 63.542407, 331.738085, -6.533363, -13.866714, -4.053192, -1.648426, -3.482595, -0.305530, -0.343026, -0.069406, 9.627228, -0.247469, -1.850177, 29.702603, -95.840479, 0.009000, 39.418000, 0.120400, 0.258645, -0.474505
7.9000, -0.353805, -0.057290, 9.652340, 0.002669, -0.016039, -0.007069, 0.097111, -1.590607, 63.382269, 332.418052, -6.701396, -14.223805, -4.086314, -1.669691, -3.541466, -0.322661, -0.381325, -0.067611, 9.637401, -0.339837, -2.099190, 29.702603, -95.840479, 0.009000, 39.418000, 0.115670, 0.259505, -0.462895
8.0000, -0.172841, -0.129547, 9.753245, 0.016261, -0.026729, -0.007375, 0.062925, -1.578748, 63.304594, 333.384551, -6.869460, -14.584813, -4.119561, -1.676994, -3.587209, -0.329197, -0.052199, -0.177718, 9.820514, -0.760862, -1.015167, 29.702603, -95.840479, 0.009000, 39.418000, 0.125990, 0.264665, -0.460315
8.1000, -0.272439, 0.016765, 9.900961, 0.001142, -0.010999, -0.007528, 0.039077, -1.542421, 63.271893, 333.528729, -7.040929, -14.950685, -4.151280, -1.702123, -3.634886, -0.321192, -0.338837, 0.114306, 9.999439, 0.096980, -1.576175, 29.702603, -95.840479, 0.009000, 39.418000, 0.117820, 0.262945, -0.466765
8.2000, -0.295403, 0.084625, 9.733131, 0.009694, -0.021384, -0.008291, 0.103585, -1.580221, 63.244103, 333.359062, -7.215845, -15.321271, -4.184728, -1.733485, -3.682203, -0.330050, -0.310712, 0.129865, 9.621244, 0.497917, -1.738341, 29.702603, -95.840479, 0.009000, 39.418000, 0.119540, 0.262085, -0.468915
8.3000, -0.153789, 0.041037, 9.882503, 0.008931, -0.023369, -0.005695, 0.132709, -1.537243, 63.287281, 334.202490, -7.392261, -15.694982, -4.216760, -1.753935, -3.718802, -0.323561, -0.059380, 0.011978, 9.982085, 0.237889, -0.891543, 29.702603, -95.840479, 0.009000, 39.418000, 0.122980, 0.259505, -0.457735
8.4000, -0.170748, 0.155730, 9.969899, 0.010763, -0.016955, -0.006611, 0.237032, -1.471422, 63.346248, 334.184276, -7.572061, -16.071812, -4.246824, -1.783309, -3.751804, -0.308283, -0.182054, 0.232193, 10.028163, 0.894760, -0.981052, 29.702603, -95.840479, 0.009000, 39.418000, 0.126420, 0.268105, -0.465905
8.5000, -0.192612, 0.088867, 10.019578, 0.008778, -0.020926, -0.005237, 0.283907, -1.442521, 63.400390, 333.911826, -7.753905, -16.452695, -4.274624, -1.806731, -3.789819, -0.288096, -0.207187, 0.044292, 10.052698, 0.508071, -1.101247, 29.702603, -95.840479, 0.009000, 39.418000, 0.119540, 0.261655, -0.465905
8.6000, -0.221464, 0.091923, 10.024729, 0.010153, -0.013290, -0.006764, 0.336027, -1.392533, 63.450490, 334.069010, -7.938141, -16.837694, -4.300332, -1.830480, -3.829937, -0.267420, -0.240698, 0.093960, 10.028163, 0.525238, -1.265503, 29.702603, -95.840479, 0.009000, 39.418000, 0.116530, 0.258215, -0.465045
8.7000, -0.211102, 0.014514, 10.108293, -0.003439, -0.013290, -0.006000, 0.268022, -1.339838, 63.507878, 334.134751, -8.123742, -17.226914, -4.322716, -1.847505, -3.871441, -0.238365, -0.204195, -0.037092, 10.164002, 0.082252, -1.196395, 29.702603, -95.840479, 0.009000, 39.418000, 0.115240, 0.258215, -0.456445
8.8000, -0.279485, 0.103472, 10.081757, 0.004197, -0.017566, -0.005695, 0.297724, -1.354405, 63.494803, 332.962365, -8.312644, -17.620665, -4.342612, -1.875181, -3.915491, -0.212092, -0.325074, 0.162777, 10.064067, 0.587797, -1.587857, 29.702603, -95.840479, 0.009000, 39.418000, 0.119540, 0.255635, -0.455155
8.9000, -0.273447, 0.122539, 10.020877, 0.007556, -0.018635, -0.006306, 0.354927, -1.371689, 63.488003, 333.539855, -8.504411, -18.018699, -4.360790, -1.903502, -3.958722, -0.191889, -0.269422, 0.135250, 9.980290, 0.700339, -1.562969, 29.702603, -95.840479, 0.009000, 39.418000, 0.119970, 0.259935, -0.465045
9.0000, -0.287548, 0.100365, 9.994729, 0.000531, -0.015122, -0.006459, 0.359077, -1.379044, 63.464869, 333.230747, -8.698805, -18.421404, -4.377349, -1.930466, -4.004276, -0.174355, -0.296949, 0.085582, 9.977298, 0.575096, -1.647861, 29.702603, -95.840479, 0.009000, 39.418000, 0.122550, 0.265955, -0.458165
9.1000, -0.347763, 0.095445, 9.896663, -0.000690, -0.012679, -0.003710, 0.355374, -1.412467, 63.358027, 331.716906, -8.896288, -18.829535, -4.393652, -1.960040, -4.055629, -0.166806, -0.387907, 0.092165, 9.831286, 0.552212, -2.012422, 29.702603, -95.840479, 0.009000, 39.418000, 0.122120, 0.256065, -0.457305
9.2000, -0.351743, 0.019154, 9.827995, 0.001600, -0.022911, -0.007069, 0.319188, -1.502239, 63.253638, 332.615003, -9.095928, -19.243499, -4.410253, -1.984281, -4.111639, -0.166271, -0.354396, -0.031706, 9.782216, 0.111596, -2.049732, 29.702603, -95.840479, 0.009000, 39.418000, 0.121260, 0.267675, -0.461605
9.3000, -0.237722, -0.067373, 9.763905, -0.002217, -0.018940, -0.004473, 0.213356, -1.497402, 63.304585, 334.760412, -9.296287, -19.661966, -4.427719, -1.997151, -4.160324, -0.171867, -0.161708, -0.125058, 9.721178, -0.395229, -1.394673, 29.702603, -95.840479, 0.009000, 39.418000, 0.113950, 0.263805, -0.459455
9.4000, -0.243816, 0.001062, 9.945798, 0.006487, -0.012374, -0.007528, 0.201421, -1.459764, 63.311645, 333.406264, -9.498896, -20.084889, -4.443011, -2.016449, -4.206261, -0.159237, -0.247879, 0.046686, 10.067059, 0.006118, -1.404296, 29.702603, -95.840479, 0.009000, 39.418000, 0.121690, 0.263805, -0.466765
9.5000, -0.255230, 0.085525, 9.967211, 0.007556, -0.017871, -0.005848, 0.245492, -1.460437, 63.307067, 333.224063, -9.704546, -20.512050, -4.456719, -2.043148, -4.249830, -0.144463, -0.262839, 0.141833, 9.981487, 0.491459, -1.466797, 29.702603, -95.840479, 0.009000, 39.418000, 0.122550, 0.260795, -0.472785
9.6000, -0.316166, 0.005492, 9.931973, 0.005113, -0.025965, -0.005084, 0.226104, -1.539646, 63.278735, 332.917447, -9.912341, -20.945070, -4.469518, -2.066348, -4.303411, -0.133479, -0.356790, -0.047863, 9.908481, 0.031667, -1.823288, 29.702603, -95.840479, 0.009000, 39.418000, 0.113950, 0.257785, -0.466765
9.7000, -0.357415, -0.074633, 9.746613, -0.000538, -0.017871, -0.004779, 0.129809, -1.599416, 63.172063, 331.818708, -10.121941, -21.384490, -4.484026, -2.086119, -4.363934, -0.141214, -0.384915, -0.128050, 9.623039, -0.438430, -2.100075, 29.702603, -95.840479, 0.009000, 39.418000, 0.122550, 0.268965, -0.460315
9.8000, -0.282358, 0.032268, 9.907285, 0.008015, -0.014206, -0.005542, 0.149075, -1.588463, 63.129878, 333.270208, -10.334416, -21.828291, -4.496862, -2.111867, -4.413316, -0.132644, -0.232320, 0.103535, 10.014399, 0.186533, -1.632484, 29.702603, -95.840479, 0.009000, 39.418000, 0.124700, 0.264235, -0.465905
9.9000, -0.277110, 0.143247, 10.060597, 0.011222, -0.026423, -0.007069, 0.248307, -1.635933, 63.110967, 333.313836, -10.550763, -22.276495, -4.506539, -2.146273, -4.459132, -0.108733, -0.273611, 0.217233, 10.162805, 0.815435, -1.577600, 29.702603, -95.840479, 0.009000, 39.418000, 0.122550, 0.258645, -0.459885
10.0000, -0.263162, 0.052637, 9.834685, -0.000079, -0.018635, -0.002641, 0.229603, -1.633497, 63.117105, 333.170456, -10.769253, -22.729588, -4.517213, -2.172023, -4.507002, -0.107401, -0.253863, -0.007770, 9.684077, 0.306544, -1.532764, 29.702603, -95.840479, 0.009000, 39.418000, 0.122550, 0.266815, -0.467625
10.1000, -0.251479, 0.039731, 9.668920, 0.003891, -0.024591, -0.006764, 0.226276, -1.656870, 63.151089, 333.967316, -10.990073, -23.187384, -4.530238, -2.196141, -4.554303, -0.122632, -0.243690, 0.031127, 9.558411, 0.235356, -1.489857, 29.702603, -95.840479, 0.009000, 39.418000, 0.119540, 0.267675, -0.470205
10.2000, -0.204438, -0.003131, 9.876567, 0.000226, -0.010694, -0.004168, 0.178210, -1.573948, 63.131622, 332.590352, -11.212458, -23.649408, -4.541644, -2.214617, -4.598262, -0.116916, -0.173078, -0.031706, 10.014998, -0.018160, -1.185814, 29.702603, -95.840479, 0.009000, 39.418000, 0.128570, 0.265095, -0.471495
10.3000, -0.202497, 0.032863, 10.027485, 0.005113, -0.020773, -0.004931, 0.180484, -1.546181, 63.079326, 332.523095, -11.437150, -24.115551, -4.550209, -2.236146, -4.640378, -0.096073, -0.201203, 0.056859, 10.128097, 0.187735, -1.156880, 29.702603, -95.840479, 0.009000, 39.418000, 0.130290, 0.265525, -0.461175
10.4000, -0.268503, 0.084242, 10.111190, 0.013360, -0.020315, -0.006917, 0.254955, -1.554539, 62.999279, 332.375530, -11.664985, -24.586575, -4.555459, -2.264282, -4.686952, -0.067027, -0.312507, 0.118495, 10.166994, 0.477185, -1.521083, 29.702603, -95.840479, 0.009000, 39.418000, 0.125560, 0.261655, -0.462895
10.5000, -0.313935, 0.167986, 10.131388, 0.011680, -0.022758, -0.007069, 0.363356, -1.600699, 63.021515, 334.069020, -11.896861, -25.062543, -4.557519, -2.300603, -4.735436, -0.036075, -0.344223, 0.223815, 10.144853, 0.949464, -1.774578, 29.702603, -95.840479, 0.009000, 39.418000, 0.111800, 0.252195, -0.466765
10.6000, -0.276456, 0.091974, 10.117206, 0.000379, -0.015122, -0.005695, 0.361293, -1.582109, 63.040803, 333.294151, -12.131077, -25.543325, -4.556685, -2.328307, -4.783689, -0.006465, -0.251470, 0.041300, 10.107751, 0.520661, -1.565171, 29.702603, -95.840479, 0.009000, 39.418000, 0.119970, 0.259505, -0.465045
10.7000, -0.173139, 0.089216, 9.996638, 0.013818, -0.020620, -0.005542, 0.428381, -1.534109, 63.127336, 334.450425, -12.367089, -26.027492, -4.554650, -2.349519, -4.822347, 0.011415, -0.104261, 0.087378, 9.916260, 0.511254, -0.992207, 29.702603, -95.840479, 0.009000, 39.418000, 0.121690, 0.260795, -0.472355
10.8000, -0.237012, 0.015945, 9.862599, 0.004044, -0.016344, -0.004626, 0.395332, -1.505961, 63.113092, 332.372176, -12.604710, -26.516718, -4.552865, -2.367308, -4.868953, 0.015699, -0.279595, -0.032903, 9.773240, 0.092604, -1.376633, 29.702603, -95.840479, 0.009000, 39.418000, 0.124270, 0.264665, -0.471495
10.9000, -0.267588, -0.014082, 9.621562, -0.003286, -0.019246, -0.002335, 0.308040, -1.517364, 63.080460, 332.518743, -12.844107, -27.011045, -4.554282, -2.385085, -4.918500, -0.004212, -0.287973, -0.034100, 9.460870, -0.083824, -1.593060, 29.702603, -95.840479, 0.009000, 39.418000, 0.116960, 0.253485, -0.462895
11.0000, -0.351987, 0.105318, 9.917225, 0.008320, -0.014206, -0.003710, 0.358999, -1.547760, 62.966248, 331.495165, -13.087418, -27.510881, -4.553285, -2.417099, -4.971740, 0.005245, -0.408253, 0.184919, 10.114334, 0.608061, -2.032603, 29.702603, -95.840479, 0.009000, 39.418000, 0.124700, 0.256065, -0.473215
11.1000, -0.295626, 0.061522, 10.101196, 0.001600, -0.012374, -0.003862, 0.344669, -1.531365, 62.880624, 332.358288, -13.333004, -28.015600, -4.548562, -2.442943, -5.022036, 0.033232, -0.258052, 0.032324, 10.223843, 0.348809, -1.676334, 29.702603, -95.840479, 0.009000, 39.418000, 0.124270, 0.258215, -0.466335
11.2000, -0.190501, 0.097501, 9.937095, 0.011680, -0.010235, -0.005542, 0.405740, -1.446507, 62.932915, 334.506533, -13.580673, -28.523513, -4.543446, -2.465440, -5.060098, 0.045188, -0.120418, 0.121487, 9.827695, 0.562054, -1.098213, 29.702603, -95.840481, 0.012000, 39.007000, 0.119540, 0.256925, -0.465905
11.3000, -0.115060, -0.044292, 9.800005, 0.006335, -0.023522, -0.003252, 0.348696, -1.392530, 63.086079, 335.081108, -13.828225, -29.034952, -4.539169, -2.472159, -5.096295, 0.043575, -0.064766, -0.138821, 9.708612, -0.258936, -0.672660, 29.702603, -95.840481, 0.012000, 39.007000, 0.113950, 0.258645, -0.466335
11.4000, -0.247172, -0.014839, 9.815542, 0.005571, -0.028103, -0.006000, 0.308089, -1.443502, 63.170921, 333.736019, -14.077882, -29.551656, -4.534872, -2.488436, -5.143460, 0.043172, -0.335247, 0.004797, 9.825900, -0.086590, -1.442499, 29.702603, -95.840481, 0.012000, 39.007000, 0.116530, 0.268105, -0.467625
11.5000, -0.277756, 0.114710, 9.830015, 0.002822, -0.015275, -0.006000, 0.333699, -1.441565, 63.233404, 333.685547, -14.331042, -30.072645, -4.530398, -2.517209, -5.187745, 0.044214, -0.298146, 0.201076, 9.839664, 0.668307, -1.618404, 29.702603, -95.840481, 0.012000, 39.007000, 0.116960, 0.255635, -0.468485
11.6000, -0.185148, 0.058815, 10.035434, 0.002669, -0.016802, -0.006153, 0.323246, -1.390395, 63.336221, 334.543127, -14.585677, -30.597150, -4.522704, -2.536639, -5.225949, 0.066030, -0.123410, 0.021553, 10.172380, 0.335737, -1.056938, 29.702603, -95.840481, 0.012000, 39.007000, 0.116530, 0.255635, -0.465045
11.7000, -0.142360, 0.063745, 9.948491, 0.015192, -0.027645, -0.006153, 0.381505, -1.373707, 63.523756, 335.711665, -14.841854, -31.124875, -4.514115, -2.553394, -5.260149, 0.079272, -0.113835, 0.067032, 9.890528, 0.367082, -0.819816, 29.702603, -95.840481, 0.012000, 39.007000, 0.112230, 0.257355, -0.462465
11.8000, -0.254502, 0.065358, 9.741730, 0.004655, -0.014512, -0.005542, 0.381311, -1.358401, 63.615149, 333.677750, -15.100436, -31.657409, -4.507340, -2.575011, -5.303607, 0.071590, -0.329263, 0.066433, 9.603890, 0.384265, -1.496473, 29.702603, -95.840481, 0.012000, 39.007000, 0.113090, 0.257355, -0.462895
11.9000, -0.280329, -0.031298, 9.742684, -0.005424, -0.017719, -0.003862, 0.270414, -1.377678, 63.589275, 332.338189, -15.360332, -32.195197, -4.501338, -2.590974, -5.353123, 0.063877, -0.297547, -0.095736, 9.743320, -0.183985, -1.648125, 29.702603, -95.840481, 0.012000, 39.007000, 0.116960, 0.254775, -0.466765
12.0000, -0.301431, 0.076530, 9.965315, 0.011527, -0.024438, -0.005084, 0.320238, -1.439752, 63.515973, 332.431670, -15.623399, -32.737777, -4.492777, -2.617443, -5.401577, 0.078364, -0.315499, 0.148415, 10.113735, 0.439801, -1.732506, 29.702603, -95.840481, 0.012000, 39.007000, 0.122980, 0.256495, -0.465475
12.1000, -0.269659, 0.107095, 10.084527, 0.005418, -0.021995, -0.004321, 0.351686, -1.463648, 63.535447, 334.078440, -15.889275, -33.284711, -4.480969, -2.644981, -5.446756, 0.104846, -0.248477, 0.127471, 10.164002, 0.608224, -1.531631, 29.702603, -95.840481, 0.024000, 38.932000, 0.115670, 0.255635, -0.468055
12.2000, -0.259822, 0.083416, 10.021626, 0.009389, -0.013290, -0.007069, 0.388066, -1.435920, 63.538816, 333.535572, -16.157396, -33.836144, -4.467450, -2.669137, -5.491799, 0.125076, -0.253265, 0.067630, 9.979692, 0.476736, -1.485077, 29.702603, -95.840481, 0.024000, 38.932000, 0.111800, 0.245315, -0.470205
12.3000, -0.143506, -0.037001, 9.953739, 0.002517, -0.022606, -0.004931, 0.314296, -1.390772, 63.530237, 333.190628, -16.425654, -34.391106, -4.452887, -2.678099, -5.530350, 0.138773, -0.065962, -0.117279, 9.908481, -0.212961, -0.825990, 29.702603, -95.840481, 0.024000, 38.932000, 0.125130, 0.259075, -0.458165
12.4000, -0.176688, -0.025925, 9.663762, -0.002217, -0.018635, -0.004779, 0.227033, -1.349700, 63.497936, 332.930330, -16.695308, -34.949998, -4.441309, -2.690392, -5.569393, 0.123447, -0.198809, -0.018541, 9.470445, -0.153681, -1.047452, 29.702603, -95.840481, 0.024000, 38.932000, 0.119540, 0.253915, -0.466335
12.5000, -0.252076, 0.054982, 9.693903, 0.008473, -0.022453, -0.004321, 0.251229, -1.376668, 63.352050, 331.233968, -16.967777, -35.513354, -4.430836, -2.713255, -5.612174, 0.110967, -0.302334, 0.108920, 9.713997, 0.324860, -1.489534, 29.702603, -95.840481, 0.024000, 38.932000, 0.128570, 0.255205, -0.463325
12.6000, -0.280077, 0.044260, 9.677954, 0.004044, -0.024133, -0.004168, 0.244057, -1.427552, 63.285594, 333.106498, -17.242657, -36.081533, -4.421869, -2.736952, -5.658585, 0.096774, -0.298744, 0.037111, 9.667321, 0.261916, -1.657641, 29.702603, -95.840481, 0.024000, 38.932000, 0.116530, 0.256495, -0.470205
12.7000, -0.313897, 0.042125, 9.628848, 0.002211, -0.027034, -0.007069, 0.227139, -1.511107, 63.229567, 332.998414, -17.520240, -36.654968, -4.415081, -2.762875, -5.709093, 0.077505, -0.336444, 0.040702, 9.596111, 0.250526, -1.867142, 29.702603, -95.840481, 0.024000, 38.932000, 0.116100, 0.257785, -0.465905
12.8000, -0.303369, -0.001456, 9.733795, -0.001759, -0.020315, -0.004015, 0.164827, -1.544995, 63.170812, 332.516314, -17.799963, -37.233648, -4.408650, -2.785779, -5.760903, 0.068709, -0.296350, -0.030509, 9.803759, -0.008563, -1.785135, 29.702603, -95.840481, 0.024000, 38.932000, 0.119540, 0.258215, -0.466335
12.9000, -0.343679, 0.034969, 9.806292, -0.004050, -0.015122, -0.005848, 0.118320, -1.573118, 63.175381, 333.758663, -18.082886, -37.817841, -4.402031, -2.814744, -5.814921, 0.067030, -0.370553, 0.059252, 9.854624, 0.204191, -2.007201, 29.702603, -95.840481, 0.024000, 38.932000, 0.110940, 0.257785, -0.468055
13.0000, -0.342210, 0.158689, 10.093086, 0.012291, -0.021995, -0.007528, 0.233284, -1.629271, 63.102038, 332.144885, -18.370202, -38.406951, -4.391281, -2.853689, -5.865701, 0.094014, -0.341231, 0.241169, 10.284282, 0.900245, -1.941654, 29.702603, -95.840482, 0.010000, 38.824000, 0.122980, 0.250905, -0.462035
13.1000, -0.269455, 0.049479, 10.102603, 0.009542, -0.019551, -0.006764, 0.261661, -1.625866, 62.999365, 332.034857, -18.659402, -39.000929, -4.377664, -2.879229, -5.915088, 0.122115, -0.220951, -0.023328, 10.108948, 0.280511, -1.527801, 29.702603, -95.840482, 0.010000, 38.824000, 0.122980, 0.251765, -0.464615
13.2000, -0.301031, 0.150849, 10.177860, 0.006793, -0.022911, -0.007680, 0.332068, -1.656757, 62.943159, 332.954855, -18.952613, -39.599762, -4.360119, -2.914483, -5.963914, 0.157675, -0.322082, 0.218429, 10.228032, 0.848765, -1.693960, 29.702603, -95.840482, 0.010000, 38.824000, 0.119540, 0.253055, -0.468485
13.3000, -0.265908, 0.081170, 10.109225, 0.000990, -0.020620, -0.008291, 0.327938, -1.653451, 62.876836, 332.523007, -19.248185, -40.203436, -4.340037, -2.941974, -6.012471, 0.186440, -0.242493, 0.034718, 10.063469, 0.459877, -1.506686, 29.702603, -95.840482, 0.010000, 38.824000, 0.122120, 0.254775, -0.466765
13.4000, -0.182564, 0.073764, 10.107623, 0.011527, -0.010235, -0.004779, 0.374753, -1.547342, 62.936790, 334.251681, -19.545593, -40.810715, -4.317053, -2.963377, -6.052680, 0.215367, -0.127000, 0.068827, 10.106554, 0.418062, -1.034734, 29.702603, -95.840482, 0.010000, 38.824000, 0.120400, 0.258645, -0.468485
13.5000, -0.110808, 0.068648, 9.919560, 0.009389, -0.025660, -0.006611, 0.403736, -1.487564, 63.193508, 336.983693, -19.844405, -41.420922, -4.293963, -2.979874, -6.085607, 0.225725, -0.062970, 0.065237, 9.794184, 0.396480, -0.639987, 29.702603, -95.840482, 0.010000, 38.824000, 0.108360, 0.259075, -0.471065
13.6000, -0.089645, 0.119740, 9.937327, 0.020690, -0.027645, -0.006459, 0.518199, -1.426585, 63.459764, 335.939468, -20.145052, -42.033805, -4.269550, -2.997605, -6.114425, 0.237994, -0.075537, 0.153801, 9.949173, 0.690324, -0.516817, 29.702603, -95.840482, 0.010000, 38.824000, 0.114380, 0.256925, -0.462895
13.7000, -0.118162, 0.033899, 9.755576, 0.004808, -0.017719, -0.004015, 0.489214, -1.334182, 63.603812, 333.859275, -20.446452, -42.650216, -4.246649, -3.008531, -6.147549, 0.232005, -0.137173, -0.023328, 9.634409, 0.199078, -0.693943, 29.702603, -95.840482, 0.010000, 38.824000, 0.119540, 0.258215, -0.466765
13.8000, -0.254517, 0.018592, 9.666360, 0.001753, -0.020773, -0.002030, 0.436676, -1.347942, 63.624433, 332.618387, -20.749775, -43.271813, -4.225735, -3.025002, -6.193163, 0.216761, -0.345420, 0.008388, 9.606882, 0.110163, -1.508256, 29.702603, -95.840482, 0.010000, 38.824000, 0.113520, 0.251335, -0.471495
13.9000, -0.258792, -0.035643, 9.729052, -0.001301, -0.013748, -0.005084, 0.338839, -1.326715, 63.497489, 331.400902, -21.054264, -43.898250, -4.205408, -3.038260, -6.240633, 0.207768, -0.261643, -0.071799, 9.770846, -0.209830, -1.523695, 29.702603, -95.840483, 0.021000, 38.656000, 0.124270, 0.253915, -0.462035
14.0000, -0.274864, 0.050018, 9.667239, 0.007098, -0.027340, -0.007069, 0.343709, -1.389491, 63.434695, 333.290139, -21.361399, -44.529199, -4.186913, -3.060319, -6.286534, 0.192554, -0.285579, 0.107125, 9.626031, 0.296324, -1.628604, 29.702603, -95.840483, 0.021000, 38.656000, 0.115670, 0.252195, -0.467625
14.1000, -0.279139, 0.065253, 9.743406, 0.002364, -0.023675, -0.003710, 0.332549, -1.429574, 63.433887, 333.516393, -21.671050, -45.164799, -4.168804, -3.084449, -6.332846, 0.184917, -0.281988, 0.075409, 9.794184, 0.383554, -1.640981, 29.702603, -95.840483, 0.021000, 38.656000, 0.117820, 0.259505, -0.461175
14.2000, -0.300596, 0.028620, 9.716785, 0.005266, -0.022911, -0.004321, 0.315433, -1.476367, 63.390500, 332.641334, -21.982863, -45.805638, -4.151875, -3.106898, -6.383210, 0.174499, -0.314901, 0.004199, 9.699037, 0.168681, -1.771916, 29.702603, -95.840483, 0.021000, 38.656000, 0.116960, 0.255205, -0.470205
14.3000, -0.291586, -0.020860, 9.692493, -0.005119, -0.014512, -0.005848, 0.215633, -1.471790, 63.400001, 333.861967, -22.296413, -46.451593, -4.136350, -3.125969, -6.434101, 0.161665, -0.285579, -0.053847, 9.676298, -0.123256, -1.723144, 29.702603, -95.840483, 0.021000, 38.656000, 0.111370, 0.257355, -0.464615
14.4000, -0.240947, -0.033830, 9.684930, 0.000990, -0.018940, -0.002183, 0.147660, -1.460923, 63.404503, 333.101436, -22.611497, -47.101940, -4.122200, -3.142550, -6.480350, 0.148217, -0.207187, -0.042477, 9.679888, -0.200077, -1.425131, 29.702603, -95.840483, 0.021000, 38.656000, 0.119540, 0.257355, -0.467625
14.5000, -0.314043, 0.012684, 9.703089, -0.000690, -0.014512, -0.003710, 0.104680, -1.472729, 63.312016, 331.843375, -22.929479, -47.757559, -4.109152, -3.167400, -6.530907, 0.136399, -0.362774, 0.043694, 9.715194, 0.074859, -1.853744, 29.702603, -95.840483, 0.021000, 38.656000, 0.121690, 0.257785, -0.468485
14.6000, -0.349744, 0.099868, 9.974610, 0.010916, -0.017413, -0.007528, 0.177325, -1.516392, 63.207567, 332.412749, -23.251292, -48.418398, -4.093230, -3.201217, -6.582568, 0.151611, -0.373545, 0.157990, 10.155624, 0.573285, -2.008065, 29.702603, -95.840483, 0.021000, 38.656000, 0.118250, 0.251765, -0.465475
14.7000, -0.301192, 0.142999, 10.043723, 0.006487, -0.017871, -0.007222, 0.247063, -1.530507, 63.129561, 332.687650, -23.576608, -49.083598, -4.074729, -3.235843, -6.628851, 0.173873, -0.268823, 0.171753, 10.089799, 0.815336, -1.717501, 29.702603, -95.840483, 0.021000, 38.656000, 0.126850, 0.261655, -0.463325
14.8000, -0.292901, 0.039253, 9.873893, 0.002059, -0.024591, -0.004168, 0.229049, -1.576816, 63.012562, 331.633596, -23.904031, -49.754030, -4.056560, -3.261440, -6.679163, 0.179090, -0.287374, -0.029911, 9.760673, 0.227676, -1.699122, 29.702603, -95.840483, 0.021000, 38.656000, 0.124270, 0.256495, -0.459455
14.9000, -0.298202, 0.030787, 9.749591, 0.004655, -0.016955, -0.006000, 0.221368, -1.585282, 62.900167, 332.143328, -24.233963, -50.429575, -4.039736, -3.286693, -6.730024, 0.171856, -0.301736, 0.025143, 9.666723, 0.180843, -1.751900, 29.702603, -95.840483, 0.021000, 38.656000, 0.125560, 0.263375, -0.459025
15.0000, -0.192250, 0.066178, 9.864672, 0.013970, -0.023369, -0.005695, 0.283206, -1.560792, 62.961572, 334.775196, -24.566008, -51.108616, -4.021860, -3.309195, -6.770283, 0.176454, -0.121615, 0.089771, 9.941393, 0.384293, -1.116453, 29.702603, -95.840483, 0.021000, 38.656000, 0.116530, 0.255205, -0.462895
15.1000, -0.172488, 0.106185, 10.030985, 0.007404, -0.018482, -0.007833, 0.328536, -1.497591, 63.120439, 335.445697, -24.900526, -51.791129, -4.001013, -3.333185, -6.806847, 0.197803, -0.159314, 0.132857, 10.141861, 0.606404, -0.985081, 29.702603, -95.840483, 0.021000, 38.656000, 0.114810, 0.261225, -0.465905
15.2000, -0.177510, 0.024169, 9.747082, -0.001759, -0.014512, -0.004931, 0.275487, -1.423696, 63.208395, 333.486268, -25.236378, -52.477586, -3.982287, -3.350074, -6.845328, 0.190770, -0.180857, -0.030509, 9.557812, 0.142045, -1.043328, 29.702603, -95.840483, 0.021000, 38.656000, 0.122120, 0.263805, -0.463755
15.3000, -0.210037, 0.081123, 9.943018, 0.008625, -0.018940, -0.007528, 0.314278, -1.395363, 63.173901, 332.296969, -25.574801, -53.167991, -3.961331, -3.372849, -6.884473, 0.203295, -0.231722, 0.119093, 10.073642, 0.467352, -1.210100, 29.702603, -95.840483, 0.021000, 38.656000, 0.123410, 0.249615, -0.456445
15.4000, -0.219817, 0.086671, 10.047962, 0.007251, -0.021995, -0.004473, 0.345630, -1.389075, 63.097652, 332.034107, -25.915580, -53.862459, -3.937552, -3.396137, -6.924614, 0.226297, -0.226336, 0.090370, 10.117924, 0.494089, -1.253198, 29.702603, -95.840483, 0.021000, 38.656000, 0.130720, 0.261655, -0.466335
15.5000, -0.280817, 0.088890, 9.877384, -0.002523, -0.025049, -0.005848, 0.326595, -1.437301, 62.990891, 331.945779, -26.259229, -54.561761, -3.914058, -3.423041, -6.970219, 0.232055, -0.321484, 0.090370, 9.763666, 0.515404, -1.628430, 29.702603, -95.840483, 0.021000, 38.656000, 0.119970, 0.249185, -0.459885
15.6000, -0.149391, 0.012224, 9.922611, 0.008931, -0.028103, -0.007680, 0.323250, -1.417793, 63.011586, 334.267784, -26.603636, -55.264359, -3.889266, -3.437061, -7.007390, 0.242634, -0.061774, -0.038887, 9.952763, 0.070577, -0.862556, 29.702603, -95.840483, 0.021000, 38.656000, 0.122120, 0.261225, -0.467625
15.7000, -0.183351, 0.042954, 10.052366, -0.000996, -0.009472, -0.002641, 0.285928, -1.320416, 63.089083, 333.901061, -26.950063, -55.970697, -3.861469, -3.455198, -7.044718, 0.266190, -0.205990, 0.063441, 10.138869, 0.244786, -1.044923, 29.702603, -95.840483, 0.021000, 38.656000, 0.118250, 0.257355, -0.454295
15.8000, -0.312547, 0.029395, 10.045025, -0.002370, -0.012832, -0.002335, 0.237175, -1.325357, 63.004443, 331.146239, -27.299129, -56.682533, -3.831473, -3.478842, -7.093815, 0.288704, -0.398678, 0.020356, 10.040131, 0.167586, -1.782155, 29.702603, -95.840483, 0.021000, 38.656000, 0.122550, 0.254775, -0.464615
15.9000, -0.247177, -0.070099, 9.764546, -0.001454, -0.018940, -0.005084, 0.137717, -1.329273, 62.928272, 332.494014, -27.648997, -57.398880, -3.803413, -3.492065, -7.140247, 0.283303, -0.203597, -0.136428, 9.577560, -0.411181, -1.450022, 29.702603, -95.840483, 0.021000, 38.656000, 0.120830, 0.257355, -0.460745
16.0000, -0.257652, 0.058497, 10.018222, 0.013207, -0.015275, -0.006000, 0.198140, -1.317053, 62.991082, 334.507967, -28.001845, -58.119262, -3.772086, -3.516345, -7.182629, 0.303283, -0.264635, 0.144227, 10.187340, 0.334437, -1.473199, 29.702603, -95.840483, 0.021000, 38.656000, 0.116960, 0.263805, -0.459455
16.1000, -0.284461, 0.131836, 10.174268, 0.009694, -0.021842, -0.006153, 0.277344, -1.354012, 63.004910, 332.924236, -28.358157, -58.843977, -3.736429, -3.547526, -7.225643, 0.338805, -0.302334, 0.180730, 10.278298, 0.742097, -1.601375, 29.702603, -95.840483, 0.021000, 38.656000, 0.119110, 0.251335, -0.459025
16.2000, -0.293390, 0.046996, 9.888770, 0.003280, -0.025049, -0.006764, 0.269254, -1.415182, 62.977392, 332.619050, -28.716580, -59.573720, -3.701519, -3.571995, -7.273503, 0.345667, -0.299342, -0.009565, 9.698439, 0.272172, -1.699391, 29.702603, -95.840483, 0.021000, 38.656000, 0.119110, 0.257785, -0.461175
16.3000, -0.175245, -0.060904, 9.737590, -0.001912, -0.023216, -0.007222, 0.169916, -1.392830, 62.917381, 332.376219, -29.075393, -60.307184, -3.668149, -3.582753, -7.314263, 0.337690, -0.096481, -0.132837, 9.636803, -0.358295, -1.031005, 29.702603, -95.840483, 0.021000, 38.656000, 0.124270, 0.252625, -0.460745
16.4000, -0.140553, 0.066842, 9.946043, 0.016414, -0.015122, -0.004779, 0.249144, -1.306200, 63.012010, 334.703297, -29.436483, -61.043359, -3.632423, -3.601521, -7.345918, 0.350735, -0.117426, 0.152006, 10.085012, 0.385010, -0.809608, 29.702603, -95.840483, 0.021000, 38.656000, 0.122980, 0.264665, -0.462895
16.5000, -0.226132, 0.061211, 9.965155, 0.004044, -0.014664, -0.005084, 0.253960, -1.274283, 63.040618, 332.929475, -29.799908, -61.783820, -3.595132, -3.623336, -7.385049, 0.365518, -0.283185, 0.057457, 9.977896, 0.351845, -1.299927, 29.702603, -95.840483, 0.021000, 38.656000, 0.119970, 0.257785, -0.464615
16.6000, -0.311349, 0.158774, 10.059330, 0.012138, -0.020467, -0.003252, 0.357688, -1.324686, 63.061888, 333.048167, -30.167220, -62.528945, -3.554977, -3.656529, -7.429184, 0.389542, -0.368159, 0.223815, 10.122113, 0.903832, -1.772589, 29.702603, -95.840483, 0.021000, 38.656000, 0.124270, 0.266815, -0.453865
16.7000, -0.327483, 0.089367, 9.750520, 0.006029, -0.023064, -0.008749, 0.383045, -1.401400, 62.913134, 330.860937, -30.537061, -63.279256, -3.517073, -3.684448, -7.478462, 0.382540, -0.338239, 0.043095, 9.544647, 0.524823, -1.923543, 29.702603, -95.840483, 0.021000, 38.656000, 0.126420, 0.253915, -0.462035
16.8000, -0.162672, -0.046469, 9.778873, 0.000226, -0.027645, -0.006917, 0.294043, -1.395904, 62.940282, 334.416364, -30.906950, -64.033116, -3.479394, -3.694075, -7.518555, 0.378704, -0.052797, -0.137026, 9.797775, -0.272229, -0.953017, 29.702603, -95.840483, 0.021000, 38.656000, 0.120830, 0.264235, -0.469345
16.9000, -0.222413, 0.041379, 9.982663, 0.004960, -0.014359, -0.005848, 0.288274, -1.353798, 62.940130, 332.811653, -31.279366, -64.791152, -3.439053, -3.714132, -7.559762, 0.395174, -0.262241, 0.099944, 10.118523, 0.237435, -1.276325, 29.702603, -95.840483, 0.021000, 38.656000, 0.120830, 0.253915, -0.461605
17.0000, -0.308784, 0.054975, 9.950002, -0.002370, -0.014359, -0.004779, 0.253373, -1.367643, 62.872090, 331.847816, -31.654662, -65.554345, -3.397587, -3.740014, -7.607871, 0.408169, -0.366364, 0.064040, 9.928228, 0.316413, -1.777494, 29.702603, -95.840483, 0.021000, 38.656000, 0.125560, 0.263375, -0.462035
17.1000, -0.346564, 0.069749, 9.789729, 0.010153, -0.025354, -0.005237, 0.296257, -1.464781, 62.744049, 331.308465, -32.033017, -66.322957, -3.357252, -3.769041, -7.660041, 0.404959, -0.371750, 0.079598, 9.682880, 0.407954, -2.027414, 29.702603, -95.840483, 0.021000, 38.656000, 0.125560, 0.257785, -0.460315
17.2000, -0.242472, 0.026110, 9.963667, 0.012596, -0.018635, -0.002793, 0.321106, -1.454786, 62.774233, 333.990270, -32.412924, -67.095773, -3.314591, -3.789060, -7.705448, 0.419388, -0.173078, -0.002982, 10.079626, 0.150102, -1.394049, 29.702603, -95.840483, 0.021000, 38.656000, 0.115240, 0.252625, -0.464615
17.3000, -0.213043, 0.051740, 9.953175, 0.008015, -0.017719, -0.004168, 0.334208, -1.423355, 62.852535, 333.972173, -32.794895, -67.872503, -3.270628, -3.809497, -7.746688, 0.432882, -0.193424, 0.068827, 9.946181, 0.297774, -1.226186, 29.702603, -95.840483, 0.021000, 38.656000, 0.113520, 0.247895, -0.469775
17.4000, -0.105765, 0.004545, 10.034790, 0.013512, -0.018788, -0.006917, 0.345758, -1.334959, 63.030797, 335.491608, -33.177406, -68.652092, -3.224048, -3.819902, -7.779487, 0.454827, -0.034247, -0.026919, 10.089201, 0.025949, -0.603867, 29.702603, -95.840483, 0.021000, 38.656000, 0.116530, 0.260365, -0.471065
17.5000, -0.103785, 0.059271, 9.770505, 0.011680, -0.027187, -0.005542, 0.378264, -1.295205, 63.227109, 335.057844, -33.561519, -69.434423, -3.179228, -3.834057, -7.808704, 0.450411, -0.102465, 0.095755, 9.594315, 0.347552, -0.608580, 29.702603, -95.840483, 0.021000, 38.656000, 0.112660, 0.248325, -0.468055
17.6000, -0.152901, -0.047736, 9.753117, 0.000837, -0.013290, -0.005237, 0.286366, -1.214374, 63.278054, 332.761010, -33.946058, -70.220762, -3.135127, -3.841607, -7.845159, 0.444143, -0.185644, -0.119074, 9.741524, -0.280393, -0.898149, 29.702603, -95.840483, 0.021000, 38.656000, 0.119970, 0.255635, -0.459885
17.7000, -0.135924, -0.097719, 9.702717, -0.004661, -0.015886, -0.001724, 0.141772, -1.143546, 63.351689, 333.755220, -34.330803, -71.010515, -3.092396, -3.845508, -7.880071, 0.432923, -0.124607, -0.131042, 9.669117, -0.576970, -0.802557, 29.702603, -95.840483, 0.021000, 38.656000, 0.116530, 0.254775, -0.464615
17.8000, -0.214946, -0.040877, 9.687224, 0.002975, -0.017566, -0.003862, 0.082113, -1.135392, 63.287525, 331.761379, -34.717364, -71.804342, -3.051039, -3.858905, -7.918876, 0.420023, -0.267627, -0.002982, 9.676896, -0.241710, -1.271092, 29.702603, -95.840483, 0.021000, 38.656000, 0.121260, 0.250045, -0.470205
17.9000, -0.249427, 0.039307, 9.663075, 0.008931, -0.024591, -0.004931, 0.106663, -1.186466, 63.204478, 332.263957, -35.106579, -72.602104, -3.011348, -3.881070, -7.958035, 0.404612, -0.272414, 0.092763, 9.646976, 0.232987, -1.478598, 29.702603, -95.840483, 0.021000, 38.656000, 0.123410, 0.255205, -0.466335
18.0000, -0.307023, 0.038708, 9.623974, 0.000684, -0.022453, -0.005542, 0.086760, -1.259105, 63.134490, 332.559870, -35.498523, -73.404681, -2.973812, -3.906650, -8.003191, 0.385108, -0.345420, 0.038308, 9.597906, 0.230326, -1.827207, 29.702603, -95.840483, 0.021000, 38.656000, 0.114810, 0.251765, -0.471495
18.1000, -0.267228, -0.055243, 9.681219, -0.004355, -0.020162, -0.004473, -0.013969, -1.290121, 63.088636, 332.754857, -35.891774, -74.211848, -2.937360, -3.923892, -8.048844, 0.371384, -0.240698, -0.117877, 9.719383, -0.326814, -1.581092, 29.702603, -95.840483, 0.021000, 38.656000, 0.117820, 0.256925, -0.468485
18.2000, -0.264954, -0.060868, 9.615433, 0.001600, -0.020315, -0.007375, -0.079147, -1.320072, 63.047661, 332.932027, -36.286834, -75.023559, -2.903269, -3.941696, -8.094358, 0.351069, -0.263438, -0.064618, 9.571576, -0.362555, -1.578357, 29.702603, -95.840483, 0.021000, 38.656000, 0.114810, 0.253055, -0.470205
18.3000, -0.281637, -0.027214, 9.691447, -0.005730, -0.015428, -0.003862, -0.155870, -1.332235, 63.053232, 333.219993, -36.684438, -75.839779, -2.870077, -3.964591, -8.139582, 0.338301, -0.292760, -0.004777, 9.742123, -0.160820, -1.664564, 29.702603, -95.840483, 0.021000, 38.656000, 0.112660, 0.251335, -0.470205
18.4000, -0.365147, -0.030986, 9.771401, -0.003134, -0.013137, -0.004321, -0.213479, -1.382618, 62.985968, 331.953914, -37.085063, -76.661729, -2.837000, -3.992364, -8.192862, 0.333280, -0.420820, -0.033501, 9.824703, -0.181564, -2.140075, 29.702603, -95.840483, 0.021000, 38.656000, 0.114810, 0.254775, -0.471495
18.5000, -0.354029, 0.092453, 9.980033, 0.007098, -0.020620, -0.005695, -0.138484, -1.459234, 62.930592, 332.577670, -37.490007, -77.488341, -2.801309, -4.030415, -8.241702, 0.349033, -0.346617, 0.174746, 10.119121, 0.530427, -2.031554, 29.702603, -95.840483, 0.021000, 38.656000, 0.120400, 0.255205, -0.475795
18.6000, -0.285671, 0.087613, 10.037275, 0.007098, -0.022147, -0.005542, -0.070642, -1.497329, 62.938248, 333.496099, -37.898123, -78.319147, -2.763162, -4.064243, -8.285939, 0.370660, -0.240100, 0.084386, 10.075437, 0.499903, -1.630196, 29.702603, -95.840483, 0.021000, 38.656000, 0.107070, 0.233275, -0.471925
18.7000, -0.236068, 0.112246, 10.103258, 0.009236, -0.013748, -0.006153, 0.018540, -1.458809, 62.935056, 332.952222, -38.309369, -79.153585, -2.721836, -4.096388, -8.324900, 0.399061, -0.202998, 0.128668, 10.147246, 0.636348, -1.338418, 29.702603, -95.840483, 0.021000, 38.656000, 0.119970, 0.247465, -0.471495
18.8000, -0.247822, 0.103788, 10.150476, 0.002517, -0.013290, -0.005084, 0.062208, -1.427490, 63.043419, 334.695190, -38.723652, -79.992137, -2.676961, -4.127351, -8.365317, 0.432186, -0.255658, 0.098149, 10.181954, 0.585649, -1.398515, 29.702603, -95.840483, 0.021000, 38.656000, 0.108790, 0.250475, -0.469775
18.9000, -0.212670, 0.072040, 10.041183, 0.013970, -0.020315, -0.006306, 0.144998, -1.416103, 63.144777, 334.109044, -39.140133, -80.834519, -2.630397, -4.152325, -8.404317, 0.454487, -0.189235, 0.050875, 9.968322, 0.410966, -1.213298, 29.702603, -95.840487, 0.013000, 37.906000, 0.112230, 0.247035, -0.465905
19.0000, -0.207226, -0.024317, 9.882213, 0.008625, -0.023522, -0.006611, 0.135970, -1.419967, 63.173665, 333.020801, -39.557786, -81.681325, -2.583989, -4.168462, -8.446813, 0.460883, -0.203597, -0.088555, 9.776232, -0.140955, -1.201289, 29.702603, -95.840487, 0.013000, 37.906000, 0.115670, 0.250905, -0.475365
19.1000, -0.201458, -0.065373, 9.722041, -0.000079, -0.014359, -0.004779, 0.056258, -1.373662, 63.289595, 334.726389, -39.976558, -82.532333, -2.539336, -4.181298, -8.488990, 0.451318, -0.197613, -0.092744, 9.615260, -0.385180, -1.187074, 29.702603, -95.840487, 0.013000, 37.906000, 0.109220, 0.256065, -0.466335
