Time, AccX(g), AccY(g), AccZ(g), GyrX(rad/s), GyrY(rad/s), GyrZ(rad/s), Roll(deg), Pitch(deg), Yaw(deg), Heading, X, Y, Z, Vx, Vy, Vz, AccX, AccY, AccZ, RollAcc, PitchAcc
0.000000, 0.023261, 0.018717, 5.872427, -0.007051, 0.002756, 0.004128, 0.182560, 0.226956, 0.226956, 95.141303, 0.000000, 0.000000, 0.000000, 0.000000, 0.000000, 0.000000, 0.038769, 0.031196, 9.787378, 0.182620, 0.226954
0.050000, 0.030412, 0.026923, 8.220680, -0.005829, -0.001367, 0.005960, 0.177172, 0.217286, 0.217286, 93.332447, 0.000000, 0.000000, 0.000000, 0.000000, 0.000000, 0.000000, 0.035179, 0.032393, 9.786181, 0.187641, 0.211959
0.100000, 0.034708, 0.030205, 9.164289, -0.005066, 0.000160, 0.008862, 0.173746, 0.217180, 0.217180, 98.170508, 0.000000, 0.000000, 0.000000, 0.000000, 0.000000, 0.000000, 0.037572, 0.032393, 9.793362, 0.188839, 0.216995
0.150000, 0.033554, 0.033672, 9.537424, -0.009189, 0.004588, 0.004128, 0.169961, 0.219087, 0.219087, 96.174214, 0.000000, 0.000000, 0.000000, 0.000000, 0.000000, 0.000000, 0.032785, 0.035983, 9.786181, 0.202280, 0.201574
0.200000, 0.035247, 0.031468, 9.685960, -0.004608, 0.002603, 0.006877, 0.172404, 0.217864, 0.217864, 98.642803, 0.000000, 0.000000, 0.000000, 0.000000, 0.000000, 0.000000, 0.036375, 0.029999, 9.784985, 0.186143, 0.208496
0.250000, 0.038078, 0.030587, 9.745375, -0.007204, -0.002131, 0.007335, 0.168087, 0.213654, 0.213654, 100.189923, 0.000000, 0.000000, 0.000000, 0.000000, 0.000000, 0.000000, 0.039966, 0.029999, 9.784985, 0.179825, 0.223871
0.300000, 0.037775, 0.032388, 9.770577, -0.008273, 0.003367, 0.005808, 0.167928, 0.220800, 0.220800, 97.064042, 0.000000, 0.000000, 0.000000, 0.000000, 0.000000, 0.000000, 0.037572, 0.033589, 9.787378, 0.189927, 0.221513
0.350000, 0.039089, 0.035263, 9.779221, -0.006593, -0.000146, 0.005044, 0.177938, 0.221580, 0.221580, 99.191014, 0.000000, 0.000000, 0.000000, 0.000000, 0.000000, 0.000000, 0.039966, 0.037180, 9.784985, 0.206602, 0.229020
0.400000, 0.037461, 0.034977, 9.784834, -0.005219, 0.002145, 0.004586, 0.187743, 0.223546, 0.223546, 98.130102, 0.000000, 0.000000, 0.000000, 0.000000, 0.000000, 0.000000, 0.036375, 0.034786, 9.788575, 0.204808, 0.219353
0.450000, 0.037528, 0.035581, 9.788515, -0.006440, 0.000618, 0.007793, 0.193643, 0.221870, 0.221870, 98.615648, 0.000000, 0.000000, 0.000000, 0.000000, 0.000000, 0.000000, 0.037572, 0.035983, 9.790969, 0.208264, 0.219662
0.500000, 0.036836, 0.032232, 9.791423, -0.007662, 0.000160, 0.003670, 0.189847, 0.218501, 0.218501, 93.930176, 0.000000, 0.000000, 0.000000, 0.000000, 0.000000, 0.000000, 0.036375, 0.029999, 9.793362, 0.188606, 0.215551
0.550000, 0.032969, 0.033046, 9.794741, -0.000179, 0.002603, 0.005808, 0.203865, 0.214753, 0.214753, 99.436148, 0.000000, 0.000000, 0.000000, 0.000000, 0.000000, 0.000000, 0.030391, 0.033589, 9.796953, 0.193308, 0.192857
0.600000, 0.033577, 0.034090, 9.797504, -0.004150, -0.004269, 0.005960, 0.207252, 0.198075, 0.198075, 96.065887, 0.000000, 0.000000, 0.000000, 0.000000, 0.000000, 0.000000, 0.033982, 0.034786, 9.799346, 0.199358, 0.196355
0.650000, 0.035256, 0.035226, 9.797173, -0.009953, -0.001367, 0.006724, 0.198849, 0.194197, 0.194197, 97.729750, 0.000000, 0.000000, 0.000000, 0.000000, 0.000000, 0.000000, 0.036375, 0.035983, 9.796953, 0.206006, 0.206182
0.700000, 0.035210, 0.035680, 9.797041, -0.007509, -0.000298, 0.005502, 0.198471, 0.193631, 0.193631, 97.893344, 0.000000, 0.000000, 0.000000, 0.000000, 0.000000, 0.000000, 0.035179, 0.035983, 9.796953, 0.208666, 0.205913
0.750000, 0.038781, 0.036580, 9.799860, -0.003539, -0.001062, 0.006418, 0.208267, 0.196227, 0.196227, 99.688787, 0.000000, 0.000000, 0.000000, 0.000000, 0.000000, 0.000000, 0.041163, 0.037180, 9.801740, 0.213866, 0.226737
0.800000, 0.035902, 0.036222, 9.803861, -0.002622, 0.000160, 0.002295, 0.217642, 0.197686, 0.197686, 95.610551, 0.000000, 0.000000, 0.000000, 0.000000, 0.000000, 0.000000, 0.033982, 0.035983, 9.806527, 0.211686, 0.209815
0.850000, 0.036904, 0.036797, 9.803306, -0.004608, -0.002895, 0.006266, 0.221226, 0.193127, 0.193127, 94.775646, 0.000000, 0.000000, 0.000000, 0.000000, 0.000000, 0.000000, 0.037572, 0.037180, 9.802937, 0.215057, 0.215685
0.900000, 0.035151, 0.034872, 9.803803, -0.007204, 0.000618, 0.008098, 0.215913, 0.195734, 0.195734, 96.889233, 0.000000, 0.000000, 0.000000, 0.000000, 0.000000, 0.000000, 0.033982, 0.033589, 9.804134, 0.203800, 0.205427
0.950000, 0.035167, 0.031230, 9.804001, -0.007509, 0.000312, 0.003670, 0.206884, 0.197217, 0.197217, 98.300245, 0.000000, 0.000000, 0.000000, 0.000000, 0.000000, 0.000000, 0.035179, 0.028802, 9.804134, 0.182511, 0.205521
1.000000, 0.033020, 0.035518, 9.806235, -0.006746, -0.000451, 0.005044, 0.205534, 0.194459, 0.194459, 98.294156, 0.000000, 0.000000, 0.000000, 0.000000, 0.000000, 0.000000, 0.031588, 0.038377, 9.807724, 0.207523, 0.192926
1.050000, 0.036469, 0.037233, 9.804974, -0.008426, 0.001229, 0.004739, 0.202119, 0.199571, 0.199571, 96.374460, 0.000000, 0.000000, 0.000000, 0.000000, 0.000000, 0.000000, 0.038769, 0.038377, 9.804134, 0.217572, 0.213108
1.100000, 0.037131, 0.034329, 9.808778, -0.008426, -0.000909, 0.008556, 0.196554, 0.199392, 0.199392, 93.090089, 0.000000, 0.000000, 0.000000, 0.000000, 0.000000, 0.000000, 0.037572, 0.032393, 9.811315, 0.200522, 0.216891
1.150000, 0.034523, 0.033885, 9.807428, -0.007662, 0.002450, 0.005349, 0.193318, 0.205049, 0.205049, 101.309932, 0.000000, 0.000000, 0.000000, 0.000000, 0.000000, 0.000000, 0.032785, 0.033589, 9.806527, 0.197958, 0.201687
1.200000, 0.035635, 0.031553, 9.809760, -0.001095, 0.001229, 0.005044, 0.204500, 0.207841, 0.207841, 102.343821, 0.000000, 0.000000, 0.000000, 0.000000, 0.000000, 0.000000, 0.036375, 0.029999, 9.811315, 0.184292, 0.208129
1.250000, 0.035361, 0.032775, 9.809256, -0.008731, 0.001992, 0.005044, 0.196338, 0.211865, 0.211865, 92.208255, 0.000000, 0.000000, 0.000000, 0.000000, 0.000000, 0.000000, 0.035179, 0.033589, 9.808921, 0.191437, 0.206542
1.300000, 0.038124, 0.031828, 9.809773, -0.005371, 0.001840, 0.007182, 0.196798, 0.217200, 0.217200, 96.889233, 0.000000, 0.000000, 0.000000, 0.000000, 0.000000, 0.000000, 0.039966, 0.031196, 9.810118, 0.185892, 0.222668
1.350000, 0.036357, 0.034321, 9.814288, -0.011022, 0.004130, 0.004128, 0.185155, 0.226071, 0.226071, 97.541778, 0.000000, 0.000000, 0.000000, 0.000000, 0.000000, 0.000000, 0.035179, 0.035983, 9.817299, 0.200363, 0.212249
1.400000, 0.034932, 0.033164, 9.815376, -0.008273, 0.000007, 0.005808, 0.181034, 0.222376, 0.222376, 97.545898, 0.000000, 0.000000, 0.000000, 0.000000, 0.000000, 0.000000, 0.033982, 0.032393, 9.816102, 0.193587, 0.203907
1.450000, 0.035798, 0.033419, 9.817248, -0.004913, 0.001687, 0.007487, 0.186053, 0.223943, 0.223943, 96.142052, 0.000000, 0.000000, 0.000000, 0.000000, 0.000000, 0.000000, 0.036375, 0.033589, 9.818495, 0.195040, 0.208924
1.500000, 0.036144, 0.030649, 9.818715, -0.004913, 0.000312, 0.007946, 0.188451, 0.222076, 0.222076, 99.132894, 0.000000, 0.000000, 0.000000, 0.000000, 0.000000, 0.000000, 0.036375, 0.028802, 9.819692, 0.178846, 0.210914
1.550000, 0.037001, 0.032413, 9.815711, -0.009647, 0.000923, 0.005044, 0.179871, 0.222559, 0.222559, 97.785729, 0.000000, 0.000000, 0.000000, 0.000000, 0.000000, 0.000000, 0.037572, 0.033589, 9.813708, 0.189199, 0.215979
1.600000, 0.040934, 0.033837, 9.815945, -0.001401, 0.000618, 0.007029, 0.194144, 0.224908, 0.224908, 102.128388, 0.000000, 0.000000, 0.000000, 0.000000, 0.000000, 0.000000, 0.043556, 0.034786, 9.816102, 0.197505, 0.238931
1.650000, 0.038199, 0.035125, 9.816039, -0.003844, 0.000923, 0.004128, 0.201452, 0.225956, 0.225956, 98.130102, 0.000000, 0.000000, 0.000000, 0.000000, 0.000000, 0.000000, 0.036375, 0.035983, 9.816102, 0.205019, 0.222963
1.700000, 0.038541, 0.035640, 9.811050, -0.012549, -0.000298, 0.008709, 0.186162, 0.224010, 0.224010, 98.037615, 0.000000, 0.000000, 0.000000, 0.000000, 0.000000, 0.000000, 0.038769, 0.035983, 9.807724, 0.208131, 0.225074
1.750000, 0.036524, 0.033691, 9.808336, -0.003539, 0.001534, 0.005960, 0.194338, 0.225667, 0.225667, 99.132894, 0.000000, 0.000000, 0.000000, 0.000000, 0.000000, 0.000000, 0.035179, 0.032393, 9.806527, 0.196808, 0.213352
1.800000, 0.038589, 0.034348, 9.805815, -0.003844, 0.005199, 0.003059, 0.201279, 0.237792, 0.237792, 95.969023, 0.000000, 0.000000, 0.000000, 0.000000, 0.000000, 0.000000, 0.039966, 0.034786, 9.804134, 0.200696, 0.225475
1.850000, 0.040133, 0.031021, 9.805524, -0.010564, 0.000007, 0.006571, 0.188220, 0.236251, 0.236251, 95.432540, 0.000000, 0.000000, 0.000000, 0.000000, 0.000000, 0.000000, 0.041163, 0.028802, 9.805330, 0.181258, 0.234505
1.900000, 0.037879, 0.033998, 9.805408, -0.008273, 0.001992, 0.008098, 0.184165, 0.238613, 0.238613, 94.908096, 0.000000, 0.000000, 0.000000, 0.000000, 0.000000, 0.000000, 0.036375, 0.035983, 9.805330, 0.198658, 0.221333
1.950000, 0.037695, 0.034471, 9.804643, -0.003081, 0.001840, 0.009473, 0.194207, 0.240198, 0.240198, 96.952957, 0.000000, 0.000000, 0.000000, 0.000000, 0.000000, 0.000000, 0.037572, 0.034786, 9.804134, 0.201437, 0.220276
2.000000, 0.039776, 0.033942, 9.802901, -0.006593, 0.001381, 0.007487, 0.193902, 0.241606, 0.241606, 96.132222, 0.000000, 0.000000, 0.000000, 0.000000, 0.000000, 0.000000, 0.041163, 0.033589, 9.801740, 0.198381, 0.232477
2.050000, 0.038454, 0.035167, 9.804359, -0.003691, -0.000604, 0.007487, 0.201835, 0.236969, 0.236969, 95.844566, 0.000000, 0.000000, 0.000000, 0.000000, 0.000000, 0.000000, 0.037572, 0.035983, 9.805330, 0.205508, 0.224717
2.100000, 0.037207, 0.034938, 9.805660, -0.004913, 0.000007, 0.005808, 0.205722, 0.233632, 0.233632, 96.378186, 0.000000, 0.000000, 0.000000, 0.000000, 0.000000, 0.000000, 0.036375, 0.034786, 9.806527, 0.204148, 0.217401
2.150000, 0.037426, 0.035565, 9.806180, -0.009342, 0.002756, 0.005808, 0.198087, 0.237827, 0.237827, 97.104575, 0.000000, 0.000000, 0.000000, 0.000000, 0.000000, 0.000000, 0.037572, 0.035983, 9.806527, 0.207799, 0.218671
2.200000, 0.037514, 0.035816, 9.806388, -0.007051, 0.002909, 0.006571, 0.197270, 0.242036, 0.242036, 99.872939, 0.000000, 0.000000, 0.000000, 0.000000, 0.000000, 0.000000, 0.037572, 0.035983, 9.806527, 0.209259, 0.219179
2.250000, 0.038267, 0.035916, 9.806472, -0.004455, -0.002284, 0.004128, 0.203368, 0.232691, 0.232691, 98.684114, 0.000000, 0.000000, 0.000000, 0.000000, 0.000000, 0.000000, 0.038769, 0.035983, 9.806527, 0.209843, 0.223578
2.300000, 0.038568, 0.035956, 9.805069, -0.005524, 0.002298, 0.008098, 0.206169, 0.236272, 0.236272, 99.287868, 0.000000, 0.000000, 0.000000, 0.000000, 0.000000, 0.000000, 0.038769, 0.035983, 9.804134, 0.210108, 0.225370
2.350000, 0.036535, 0.034536, 9.807380, -0.003386, 0.001687, 0.007946, 0.213575, 0.236860, 0.236860, 95.138119, 0.000000, 0.000000, 0.000000, 0.000000, 0.000000, 0.000000, 0.035179, 0.033589, 9.808921, 0.201762, 0.213436
2.400000, 0.036439, 0.033968, 9.809023, -0.006135, 0.002603, 0.007793, 0.212826, 0.239687, 0.239687, 98.990191, 0.000000, 0.000000, 0.000000, 0.000000, 0.000000, 0.000000, 0.036375, 0.033589, 9.810118, 0.198410, 0.212843
2.450000, 0.038555, 0.034459, 9.809680, -0.004455, -0.000146, 0.005960, 0.216753, 0.236080, 0.236080, 96.611252, 0.000000, 0.000000, 0.000000, 0.000000, 0.000000, 0.000000, 0.039966, 0.034786, 9.810118, 0.201264, 0.225188
2.500000, 0.037965, 0.031783, 9.808506, -0.007051, 0.000465, 0.007182, 0.212174, 0.234065, 0.234065, 97.444471, 0.000000, 0.000000, 0.000000, 0.000000, 0.000000, 0.000000, 0.037572, 0.029999, 9.807724, 0.185656, 0.221771
2.550000, 0.037011, 0.032867, 9.806601, -0.011480, 0.001381, 0.007029, 0.196843, 0.234128, 0.234128, 94.277316, 0.000000, 0.000000, 0.000000, 0.000000, 0.000000, 0.000000, 0.036375, 0.033589, 9.805330, 0.192025, 0.216240
2.600000, 0.035194, 0.032582, 9.807993, -0.008273, 0.003214, 0.007182, 0.191060, 0.238064, 0.238064, 94.307651, 0.000000, 0.000000, 0.000000, 0.000000, 0.000000, 0.000000, 0.033982, 0.032393, 9.808921, 0.190336, 0.205591
2.650000, 0.037339, 0.033905, 9.808550, -0.013923, 0.000771, 0.005502, 0.171547, 0.236215, 0.236215, 99.182087, 0.000000, 0.000000, 0.000000, 0.000000, 0.000000, 0.000000, 0.038769, 0.034786, 9.808921, 0.198049, 0.218110
2.700000, 0.036761, 0.032997, 9.807336, -0.004455, -0.001062, 0.008404, 0.178164, 0.229380, 0.229380, 92.475222, 0.000000, 0.000000, 0.000000, 0.000000, 0.000000, 0.000000, 0.036375, 0.032393, 9.806527, 0.192773, 0.214760
2.750000, 0.035812, 0.032635, 9.805415, -0.006440, 0.001992, 0.003822, 0.178883, 0.230656, 0.230656, 90.161396, 0.000000, 0.000000, 0.000000, 0.000000, 0.000000, 0.000000, 0.035179, 0.032393, 9.804134, 0.190691, 0.209255
2.800000, 0.035432, 0.035362, 9.809673, -0.005829, 0.003672, 0.004891, 0.182462, 0.236015, 0.236015, 95.605242, 0.000000, 0.000000, 0.000000, 0.000000, 0.000000, 0.000000, 0.035179, 0.037180, 9.812511, 0.206537, 0.206946
2.850000, 0.036716, 0.036453, 9.809222, -0.001248, -0.002131, 0.004891, 0.198396, 0.226183, 0.226183, 95.844566, 0.000000, 0.000000, 0.000000, 0.000000, 0.000000, 0.000000, 0.037572, 0.037180, 9.808921, 0.212918, 0.214457
2.900000, 0.036512, 0.034735, 9.810477, -0.003997, 0.002145, 0.007487, 0.205048, 0.228282, 0.228282, 97.187047, 0.000000, 0.000000, 0.000000, 0.000000, 0.000000, 0.000000, 0.036375, 0.033589, 9.811315, 0.202858, 0.213236
2.950000, 0.035712, 0.034048, 9.809543, -0.008273, 0.003061, 0.006113, 0.199572, 0.232227, 0.232227, 96.682661, 0.000000, 0.000000, 0.000000, 0.000000, 0.000000, 0.000000, 0.035179, 0.033589, 9.808921, 0.198864, 0.208585
3.000000, 0.036110, 0.035927, 9.809888, -0.004150, -0.001673, 0.009320, 0.206271, 0.223489, 0.223489, 93.586054, 0.000000, 0.000000, 0.000000, 0.000000, 0.000000, 0.000000, 0.036375, 0.037180, 9.810118, 0.209833, 0.210902
3.050000, 0.039142, 0.035243, 9.810026, -0.008120, -0.000146, 0.007182, 0.201657, 0.220821, 0.220821, 95.194429, 0.000000, 0.000000, 0.000000, 0.000000, 0.000000, 0.000000, 0.041163, 0.034786, 9.810118, 0.205833, 0.228606
3.100000, 0.040354, 0.034251, 9.808645, -0.003233, -0.001215, 0.003517, 0.209873, 0.216112, 0.216112, 97.869076, 0.000000, 0.000000, 0.000000, 0.000000, 0.000000, 0.000000, 0.041163, 0.033589, 9.807724, 0.200068, 0.235721
3.150000, 0.040121, 0.035290, 9.810965, -0.005219, -0.001215, 0.006266, 0.212648, 0.211708, 0.211708, 96.952957, 0.000000, 0.000000, 0.000000, 0.000000, 0.000000, 0.000000, 0.039966, 0.035983, 9.812511, 0.206091, 0.234304
3.200000, 0.039310, 0.037860, 9.812611, -0.004608, 0.001381, 0.007946, 0.217962, 0.214198, 0.214198, 95.055900, 0.000000, 0.000000, 0.000000, 0.000000, 0.000000, 0.000000, 0.038769, 0.039574, 9.813708, 0.221062, 0.229528
3.250000, 0.041140, 0.035298, 9.812551, -0.007815, 0.001687, 0.007946, 0.213244, 0.218166, 0.218166, 94.253836, 0.000000, 0.000000, 0.000000, 0.000000, 0.000000, 0.000000, 0.042360, 0.033589, 9.812511, 0.206102, 0.240213
3.300000, 0.040435, 0.033555, 9.811091, -0.006746, -0.000909, 0.003975, 0.210918, 0.214708, 0.214708, 90.776318, 0.000000, 0.000000, 0.000000, 0.000000, 0.000000, 0.000000, 0.039966, 0.032393, 9.810118, 0.195953, 0.236136
3.350000, 0.039436, 0.033576, 9.809071, -0.003233, 0.002603, 0.006724, 0.218037, 0.220422, 0.220422, 95.819966, 0.000000, 0.000000, 0.000000, 0.000000, 0.000000, 0.000000, 0.038769, 0.033589, 9.807724, 0.196116, 0.230345
3.400000, 0.039754, 0.038611, 9.807545, -0.006593, 0.006268, 0.007487, 0.217906, 0.235572, 0.235572, 97.105481, 0.000000, 0.000000, 0.000000, 0.000000, 0.000000, 0.000000, 0.039966, 0.041967, 9.806527, 0.225560, 0.232239
3.450000, 0.038445, 0.037034, 9.804780, -0.008731, -0.001215, 0.005960, 0.211451, 0.229177, 0.229177, 94.990634, 0.000000, 0.000000, 0.000000, 0.000000, 0.000000, 0.000000, 0.037572, 0.035983, 9.802937, 0.216412, 0.224656
3.500000, 0.037921, 0.035685, 9.806546, -0.007051, 0.001534, 0.004586, 0.209346, 0.230297, 0.230297, 91.689198, 0.000000, 0.000000, 0.000000, 0.000000, 0.000000, 0.000000, 0.037572, 0.034786, 9.807724, 0.208493, 0.221557
3.550000, 0.037712, 0.033710, 9.805099, -0.001095, 0.002909, 0.006113, 0.222298, 0.234858, 0.234858, 96.906407, 0.000000, 0.000000, 0.000000, 0.000000, 0.000000, 0.000000, 0.037572, 0.032393, 9.804134, 0.196979, 0.220366
3.600000, 0.039782, 0.033638, 9.804520, -0.000484, 0.001992, 0.003822, 0.235790, 0.237523, 0.237523, 98.220976, 0.000000, 0.000000, 0.000000, 0.000000, 0.000000, 0.000000, 0.041163, 0.033589, 9.804134, 0.196569, 0.232478
3.650000, 0.039893, 0.035045, 9.804288, -0.008120, 0.001534, 0.008098, 0.228550, 0.238809, 0.238809, 92.568274, 0.000000, 0.000000, 0.000000, 0.000000, 0.000000, 0.000000, 0.039966, 0.035983, 9.804134, 0.204798, 0.233127
3.700000, 0.039218, 0.033454, 9.803477, -0.006440, -0.001978, 0.006724, 0.225541, 0.230382, 0.230382, 94.313412, 0.000000, 0.000000, 0.000000, 0.000000, 0.000000, 0.000000, 0.038769, 0.032393, 9.802937, 0.195515, 0.229207
3.750000, 0.036795, 0.033535, 9.806025, -0.002622, 0.002298, 0.004433, 0.232822, 0.232844, 0.232844, 94.962815, 0.000000, 0.000000, 0.000000, 0.000000, 0.000000, 0.000000, 0.035179, 0.033589, 9.807724, 0.195940, 0.214985
3.800000, 0.035107, 0.034286, 9.808481, -0.010105, 0.003061, 0.007793, 0.219951, 0.236351, 0.236351, 96.646766, 0.000000, 0.000000, 0.000000, 0.000000, 0.000000, 0.000000, 0.033982, 0.034786, 9.810118, 0.200277, 0.205073
3.850000, 0.034432, 0.033868, 9.808027, -0.005066, 0.000465, 0.006266, 0.221163, 0.232332, 0.232332, 96.576114, 0.000000, 0.000000, 0.000000, 0.000000, 0.000000, 0.000000, 0.033982, 0.033589, 9.807724, 0.197845, 0.201139
3.900000, 0.035598, 0.037291, 9.806409, -0.007967, 0.005047, 0.006418, 0.216030, 0.241181, 0.241181, 94.567648, 0.000000, 0.000000, 0.000000, 0.000000, 0.000000, 0.000000, 0.036375, 0.039574, 9.805330, 0.217879, 0.207986
3.950000, 0.033910, 0.035070, 9.808634, -0.003233, 0.000465, 0.005502, 0.222859, 0.236389, 0.236389, 95.281241, 0.000000, 0.000000, 0.000000, 0.000000, 0.000000, 0.000000, 0.032785, 0.033589, 9.810118, 0.204856, 0.198080
4.000000, 0.033953, 0.035618, 9.807370, -0.003844, -0.002131, 0.006418, 0.227747, 0.224988, 0.224988, 97.523820, 0.000000, 0.000000, 0.000000, 0.000000, 0.000000, 0.000000, 0.033982, 0.035983, 9.806527, 0.208082, 0.198356
4.050000, 0.037561, 0.037273, 9.807582, -0.009342, -0.000146, 0.006571, 0.218366, 0.221202, 0.221202, 95.055900, 0.000000, 0.000000, 0.000000, 0.000000, 0.000000, 0.000000, 0.039966, 0.038377, 9.807724, 0.217747, 0.219427
4.100000, 0.039004, 0.035063, 9.809104, -0.004455, -0.000146, 0.004280, 0.221669, 0.218322, 0.218322, 98.130102, 0.000000, 0.000000, 0.000000, 0.000000, 0.000000, 0.000000, 0.039966, 0.033589, 9.810118, 0.204803, 0.227822
4.150000, 0.038145, 0.034179, 9.808276, -0.004302, 0.000465, 0.005960, 0.224698, 0.216931, 0.216931, 94.096417, 0.000000, 0.000000, 0.000000, 0.000000, 0.000000, 0.000000, 0.037572, 0.033589, 9.807724, 0.199656, 0.222824
4.200000, 0.036365, 0.033107, 9.809381, -0.001553, 0.001840, 0.007640, 0.234245, 0.218524, 0.218524, 97.394009, 0.000000, 0.000000, 0.000000, 0.000000, 0.000000, 0.000000, 0.035179, 0.032393, 9.810118, 0.193374, 0.212404
4.250000, 0.035653, 0.034115, 9.808387, -0.007204, -0.001826, 0.008556, 0.228425, 0.209957, 0.209957, 94.220284, 0.000000, 0.000000, 0.000000, 0.000000, 0.000000, 0.000000, 0.035179, 0.034786, 9.807724, 0.199279, 0.208267
4.300000, 0.036087, 0.036672, 9.810143, -0.002011, 0.001381, 0.003517, 0.237834, 0.210712, 0.210712, 97.377419, 0.000000, 0.000000, 0.000000, 0.000000, 0.000000, 0.000000, 0.036375, 0.038377, 9.811315, 0.214178, 0.210760
4.350000, 0.036978, 0.032668, 9.808692, -0.004302, 0.003978, 0.005960, 0.238655, 0.218684, 0.218684, 98.130102, 0.000000, 0.000000, 0.000000, 0.000000, 0.000000, 0.000000, 0.037572, 0.029999, 9.807724, 0.190823, 0.215998
4.400000, 0.036616, 0.033939, 9.810265, -0.004302, 0.005505, 0.006113, 0.239829, 0.229941, 0.229941, 96.269325, 0.000000, 0.000000, 0.000000, 0.000000, 0.000000, 0.000000, 0.036375, 0.034786, 9.811315, 0.198215, 0.213852
4.450000, 0.037190, 0.033729, 9.813767, -0.004608, 0.003367, 0.004891, 0.239890, 0.234888, 0.234888, 93.814075, 0.000000, 0.000000, 0.000000, 0.000000, 0.000000, 0.000000, 0.037572, 0.033589, 9.816102, 0.196920, 0.217124
4.500000, 0.036701, 0.032927, 9.808705, -0.007967, 0.000160, 0.003822, 0.230573, 0.230709, 0.230709, 97.143820, 0.000000, 0.000000, 0.000000, 0.000000, 0.000000, 0.000000, 0.036375, 0.032393, 9.805330, 0.192337, 0.214382
4.550000, 0.037224, 0.031888, 9.810989, -0.000026, -0.000757, 0.003670, 0.242438, 0.224589, 0.224589, 95.138119, 0.000000, 0.000000, 0.000000, 0.000000, 0.000000, 0.000000, 0.037572, 0.031196, 9.812511, 0.186225, 0.217384
4.600000, 0.034561, 0.033627, 9.813339, -0.003997, 0.001687, 0.005349, 0.243483, 0.224218, 0.224218, 93.012788, 0.000000, 0.000000, 0.000000, 0.000000, 0.000000, 0.000000, 0.032785, 0.034786, 9.814905, 0.196332, 0.201782
4.650000, 0.034931, 0.035041, 9.812842, -0.002928, 0.000618, 0.007640, 0.247765, 0.221139, 0.221139, 93.814075, 0.000000, 0.000000, 0.000000, 0.000000, 0.000000, 0.000000, 0.035179, 0.035983, 9.812511, 0.204595, 0.203957
4.700000, 0.035798, 0.033452, 9.814798, -0.006288, 0.003672, 0.006877, 0.242001, 0.226711, 0.226711, 93.961527, 0.000000, 0.000000, 0.000000, 0.000000, 0.000000, 0.000000, 0.036375, 0.032393, 9.816102, 0.195280, 0.208975
4.750000, 0.034708, 0.035689, 9.811272, -0.008884, 0.001534, 0.003670, 0.230629, 0.225679, 0.225679, 94.935304, 0.000000, 0.000000, 0.000000, 0.000000, 0.000000, 0.000000, 0.033982, 0.037180, 9.808921, 0.208412, 0.202687
4.800000, 0.037145, 0.035147, 9.813452, -0.003233, 0.001840, 0.004433, 0.234783, 0.226525, 0.226525, 95.664963, 0.000000, 0.000000, 0.000000, 0.000000, 0.000000, 0.000000, 0.038769, 0.034786, 9.814905, 0.205205, 0.216867
4.850000, 0.040274, 0.034931, 9.810733, -0.009495, 0.002145, 0.005502, 0.221851, 0.229459, 0.229459, 92.931724, 0.000000, 0.000000, 0.000000, 0.000000, 0.000000, 0.000000, 0.042360, 0.034786, 9.808921, 0.203996, 0.235200
4.900000, 0.037935, 0.033408, 9.807492, -0.007662, 0.002145, 0.003211, 0.214033, 0.231176, 0.231176, 93.625465, 0.000000, 0.000000, 0.000000, 0.000000, 0.000000, 0.000000, 0.036375, 0.032393, 9.805330, 0.195168, 0.221614
4.950000, 0.037717, 0.033517, 9.808349, -0.005219, -0.002436, 0.006113, 0.213267, 0.220495, 0.220495, 95.310824, 0.000000, 0.000000, 0.000000, 0.000000, 0.000000, 0.000000, 0.037572, 0.033589, 9.808921, 0.195787, 0.220324
5.000000, 0.037630, 0.032842, 9.807974, -0.007967, 0.002756, 0.005960, 0.204927, 0.224339, 0.224339, 97.507347, 0.000000, 0.000000, 0.000000, 0.000000, 0.000000, 0.000000, 0.037572, 0.032393, 9.807724, 0.191854, 0.219825
5.050000, 0.037595, 0.034009, 9.809260, -0.006746, 0.001840, 0.005808, 0.200917, 0.225437, 0.225437, 97.604869, 0.000024, -0.000340, -0.000004, -0.000288, 0.004152, 0.000049, 0.037572, 0.034786, 9.810118, 0.198642, 0.219592
5.100000, 0.036145, 0.033039, 9.806184, -0.004913, 0.002756, 0.005349, 0.201640, 0.228237, 0.228237, 96.515301, 0.000059, -0.000917, -0.000025, -0.000525, 0.008319, 0.000270, 0.035179, 0.032393, 9.804134, 0.193039, 0.211189
5.150000, 0.037002, 0.031215, 9.807108, -0.006593, -0.000146, 0.006418, 0.197034, 0.223459, 0.223459, 95.370995, 0.000104, -0.001726, -0.000054, -0.000708, 0.012492, 0.000440, 0.037572, 0.029999, 9.807724, 0.182365, 0.216171
5.200000, 0.038780, 0.031203, 9.808196, -0.001095, 0.003367, 0.005044, 0.207297, 0.229102, 0.229102, 95.884360, 0.000151, -0.002778, -0.000088, -0.000808, 0.016819, 0.000550, 0.039966, 0.031196, 9.808921, 0.182277, 0.226537
5.250000, 0.035901, 0.036226, 9.809349, -0.006288, 0.004894, 0.004433, 0.205145, 0.237108, 0.237108, 97.444471, 0.000229, -0.004062, -0.000122, -0.001208, 0.021044, 0.000596, 0.033982, 0.039574, 9.810118, 0.211589, 0.209694
5.300000, 0.035468, 0.035362, 9.806938, -0.007967, -0.001215, 0.003822, 0.198346, 0.228057, 0.228057, 95.906141, 0.000331, -0.005572, -0.000170, -0.001621, 0.025157, 0.000774, 0.035179, 0.034786, 9.805330, 0.206595, 0.207213
5.350000, 0.034576, 0.035735, 9.807410, -0.006440, 0.002298, 0.008556, 0.196288, 0.228545, 0.228545, 91.382204, 0.000457, -0.007303, -0.000226, -0.002059, 0.029218, 0.000926, 0.033982, 0.035983, 9.807724, 0.208763, 0.201995
5.400000, 0.035656, 0.032293, 9.809034, -0.004760, -0.002284, 0.006266, 0.197371, 0.217241, 0.217241, 94.277316, 0.000590, -0.009261, -0.000282, -0.002286, 0.033255, 0.000988, 0.036375, 0.029999, 9.810118, 0.188627, 0.208268
5.450000, 0.034651, 0.032353, 9.812557, -0.000484, 0.003519, 0.007182, 0.209704, 0.221697, 0.221697, 94.542725, 0.000726, -0.011437, -0.000326, -0.002393, 0.037281, 0.000855, 0.033982, 0.032393, 9.814905, 0.188907, 0.202329
5.500000, 0.036404, 0.032377, 9.812530, -0.011174, 0.001381, 0.007182, 0.192728, 0.220859, 0.220859, 94.352703, 0.000881, -0.013856, -0.000362, -0.002665, 0.041402, 0.000723, 0.037572, 0.032393, 9.812511, 0.189047, 0.212562
5.550000, 0.037823, 0.033822, 9.810364, -0.011480, -0.001520, 0.008862, 0.176831, 0.212990, 0.212990, 95.310824, 0.001071, -0.016497, -0.000402, -0.003167, 0.045503, 0.000711, 0.038769, 0.034786, 9.808921, 0.197532, 0.220897
5.600000, 0.036236, 0.033683, 9.810934, -0.004608, -0.000604, 0.002601, 0.180337, 0.207468, 0.207468, 96.132222, 0.001285, -0.019359, -0.000437, -0.003620, 0.049472, 0.000667, 0.035179, 0.033589, 9.811315, 0.196704, 0.211618
5.650000, 0.034884, 0.033627, 9.808290, -0.007662, 0.004130, 0.008862, 0.175511, 0.214335, 0.214335, 93.605652, 0.001527, -0.022439, -0.000483, -0.004112, 0.053425, 0.000770, 0.033982, 0.033589, 9.806527, 0.196431, 0.203773
5.700000, 0.035061, 0.031450, 9.810823, -0.009495, -0.001520, 0.004586, 0.165296, 0.205753, 0.205753, 91.346128, 0.001793, -0.025726, -0.000523, -0.004561, 0.057303, 0.000732, 0.035179, 0.029999, 9.812511, 0.183668, 0.204754
5.750000, 0.037286, 0.032734, 9.810400, -0.005982, 0.003061, 0.005044, 0.165767, 0.210924, 0.210924, 95.251984, 0.002089, -0.029239, -0.000562, -0.005082, 0.061346, 0.000718, 0.038769, 0.033589, 9.810118, 0.191173, 0.217758
5.800000, 0.037458, 0.034683, 9.810231, -0.004455, 0.000618, 0.004128, 0.171174, 0.209326, 0.209326, 96.449535, 0.002419, -0.032972, -0.000601, -0.005662, 0.065376, 0.000713, 0.037572, 0.035983, 9.810118, 0.202563, 0.218766
5.850000, 0.038245, 0.032591, 9.808727, -0.001706, 0.001381, 0.005349, 0.182647, 0.210244, 0.210244, 97.347170, 0.002764, -0.036949, -0.000648, -0.006031, 0.069486, 0.000793, 0.038769, 0.031196, 9.807724, 0.190371, 0.223396
5.900000, 0.037123, 0.033908, 9.808125, -0.009647, -0.000451, 0.006113, 0.172808, 0.205786, 0.205786, 95.634945, 0.003143, -0.041130, -0.000701, -0.006562, 0.073467, 0.000904, 0.036375, 0.034786, 9.807724, 0.198077, 0.216858
5.950000, 0.039547, 0.032281, 9.809321, -0.005371, -0.001673, 0.007182, 0.174401, 0.199508, 0.199508, 99.003193, 0.003544, -0.045544, -0.000755, -0.007009, 0.077534, 0.000950, 0.041163, 0.031196, 9.810118, 0.188548, 0.230989
6.000000, 0.038362, 0.033784, 9.809799, -0.007815, 0.000312, 0.007487, 0.170093, 0.198536, 0.198536, 97.417837, 0.003981, -0.050177, -0.000809, -0.007587, 0.081515, 0.000968, 0.037572, 0.034786, 9.810118, 0.197319, 0.224058
6.050000, 0.039324, 0.035103, 9.808554, -0.008578, 0.003214, 0.007335, 0.164737, 0.205823, 0.205823, 96.275851, 0.004463, -0.055049, -0.000870, -0.008309, 0.085613, 0.001057, 0.039966, 0.035983, 9.807724, 0.205051, 0.229707
6.100000, 0.039709, 0.035631, 9.805184, -0.009189, 0.001076, 0.005044, 0.158514, 0.207141, 0.207141, 96.200019, 0.004996, -0.060179, -0.000953, -0.009131, 0.089758, 0.001334, 0.039966, 0.035983, 9.802937, 0.208206, 0.232035
6.150000, 0.039145, 0.034406, 9.804554, -0.003844, 0.001687, 0.004891, 0.166535, 0.209807, 0.209807, 95.463843, 0.005560, -0.065514, -0.001053, -0.009808, 0.093888, 0.001645, 0.038769, 0.033589, 9.804134, 0.201060, 0.228754
6.200000, 0.038201, 0.031762, 9.805738, -0.010716, 0.001381, 0.009473, 0.154684, 0.211106, 0.211106, 90.150382, 0.006156, -0.071060, -0.001164, -0.010429, 0.097974, 0.001890, 0.037572, 0.029999, 9.806527, 0.185585, 0.223212
6.250000, 0.038542, 0.031422, 9.804057, -0.007967, 0.002145, 0.006113, 0.150948, 0.214519, 0.214519, 92.062392, 0.006785, -0.076833, -0.001297, -0.011054, 0.102108, 0.002229, 0.038769, 0.031196, 9.802937, 0.183632, 0.225241
6.300000, 0.039396, 0.034877, 9.807694, -0.006746, 0.001229, 0.007487, 0.152324, 0.215645, 0.215645, 90.744059, 0.007464, -0.082847, -0.001432, -0.011840, 0.106297, 0.002366, 0.039966, 0.037180, 9.810118, 0.203745, 0.230148
6.350000, 0.038302, 0.034822, 9.807712, -0.002011, -0.000298, 0.005349, 0.166273, 0.212203, 0.212203, 95.950189, 0.008173, -0.089077, -0.001575, -0.012478, 0.110397, 0.002501, 0.037572, 0.034786, 9.807724, 0.203427, 0.223754
6.400000, 0.037146, 0.031928, 9.808437, -0.004760, -0.002436, 0.005808, 0.170739, 0.202878, 0.202878, 94.162435, 0.008901, -0.095541, -0.001721, -0.012900, 0.114371, 0.002595, 0.036375, 0.029999, 9.808921, 0.186507, 0.216986
6.450000, 0.036684, 0.032925, 9.807291, 0.001501, -0.002895, 0.006724, 0.191953, 0.192875, 0.192875, 95.018765, 0.009639, -0.102202, -0.001878, -0.013166, 0.118225, 0.002752, 0.036375, 0.033589, 9.806527, 0.192351, 0.214310
6.500000, 0.035781, 0.034760, 9.807551, -0.007051, 0.002450, 0.005808, 0.189713, 0.197457, 0.197457, 94.950272, 0.010403, -0.109094, -0.002043, -0.013554, 0.122075, 0.002895, 0.035179, 0.035983, 9.807724, 0.203065, 0.209029
6.550000, 0.035419, 0.033340, 9.808373, -0.003691, 0.000007, 0.005960, 0.195965, 0.195094, 0.195094, 92.039809, 0.011176, -0.116194, -0.002212, -0.013794, 0.125891, 0.002992, 0.035179, 0.032393, 9.808921, 0.194751, 0.206901
6.600000, 0.035275, 0.032053, 9.809420, -0.007051, 0.000923, 0.007793, 0.192278, 0.195305, 0.195305, 94.301056, 0.011958, -0.123498, -0.002381, -0.013991, 0.129700, 0.003031, 0.035179, 0.031196, 9.810118, 0.187218, 0.206035
6.650000, 0.034499, 0.032975, 9.809120, -0.005066, 0.000618, 0.008251, 0.194517, 0.194385, 0.194385, 92.963621, 0.012752, -0.131002, -0.002554, -0.014209, 0.133452, 0.003087, 0.033982, 0.033589, 9.808921, 0.192607, 0.201510
6.700000, 0.033471, 0.034780, 9.812591, -0.005982, -0.000146, 0.007946, 0.194935, 0.191076, 0.191076, 93.814075, 0.013564, -0.138701, -0.002714, -0.014512, 0.137108, 0.002949, 0.032785, 0.035983, 9.814905, 0.203078, 0.195433
6.750000, 0.033777, 0.037656, 9.811107, -0.004760, -0.001367, 0.007946, 0.199839, 0.184924, 0.184924, 93.793900, 0.014406, -0.146635, -0.002873, -0.014923, 0.140732, 0.002892, 0.033982, 0.039574, 9.810118, 0.219905, 0.197254
6.800000, 0.033900, 0.033780, 9.812668, -0.008884, 0.000618, 0.008098, 0.191813, 0.184580, 0.184580, 96.830186, 0.015257, -0.154738, -0.003022, -0.015200, 0.144354, 0.002750, 0.033982, 0.031196, 9.813708, 0.197238, 0.197939
6.850000, 0.035385, 0.035820, 9.814728, -0.006898, -0.001215, 0.005044, 0.190550, 0.180085, 0.180085, 95.568342, 0.016135, -0.163057, -0.003153, -0.015608, 0.148013, 0.002493, 0.036375, 0.037180, 9.816102, 0.209105, 0.206568
6.900000, 0.035979, 0.033045, 9.816270, -0.003691, 0.002603, 0.005502, 0.196727, 0.186381, 0.186381, 94.097284, 0.017016, -0.171573, -0.003263, -0.015809, 0.151771, 0.002152, 0.036375, 0.031196, 9.817299, 0.192878, 0.210003
6.950000, 0.035499, 0.033372, 9.814733, -0.009342, 0.003519, 0.005808, 0.187596, 0.194497, 0.194497, 94.873896, 0.017919, -0.180306, -0.003361, -0.016120, 0.155576, 0.001896, 0.035179, 0.033589, 9.813708, 0.194814, 0.207231
7.000000, 0.033871, 0.036375, 9.810528, -0.002775, 0.000160, 0.006877, 0.197891, 0.192435, 0.192435, 92.753877, 0.018843, -0.189237, -0.003464, -0.016488, 0.159264, 0.001872, 0.032785, 0.038377, 9.807724, 0.212435, 0.197810
7.050000, 0.038246, 0.035422, 9.808846, -0.003233, -0.001673, 0.007182, 0.205833, 0.187592, 0.187592, 93.918249, 0.019781, -0.198418, -0.003574, -0.016738, 0.163168, 0.001943, 0.041163, 0.034786, 9.807724, 0.206904, 0.223401
7.100000, 0.037124, 0.035040, 9.810327, -0.005982, -0.000909, 0.005655, 0.205729, 0.184747, 0.184747, 94.939216, 0.020729, -0.207799, -0.003681, -0.016961, 0.166981, 0.001930, 0.036375, 0.034786, 9.811315, 0.204646, 0.216813
7.150000, 0.035957, 0.036324, 9.811638, -0.004150, -0.001826, 0.005655, 0.211046, 0.179267, 0.179267, 94.828237, 0.021690, -0.217371, -0.003781, -0.017198, 0.170672, 0.001845, 0.035179, 0.037180, 9.812511, 0.212115, 0.209969
7.200000, 0.035490, 0.033965, 9.810726, -0.007204, -0.000298, 0.004739, 0.206846, 0.178131, 0.178131, 94.824272, 0.022655, -0.227133, -0.003880, -0.017343, 0.174327, 0.001810, 0.035179, 0.032393, 9.810118, 0.198359, 0.207263
7.250000, 0.036021, 0.035176, 9.811079, -0.006898, -0.001978, 0.004739, 0.204271, 0.172941, 0.172941, 87.535627, 0.023634, -0.237094, -0.003976, -0.017559, 0.177957, 0.001755, 0.036375, 0.035983, 9.811315, 0.205422, 0.210358
7.300000, 0.035516, 0.034224, 9.811220, -0.003691, 0.002909, 0.006418, 0.209979, 0.180981, 0.180981, 93.896962, 0.024618, -0.247294, -0.004068, -0.017662, 0.181654, 0.001693, 0.035179, 0.033589, 9.811315, 0.199860, 0.207403
7.350000, 0.037468, 0.035279, 9.809841, -0.005371, -0.001215, 0.003822, 0.211240, 0.178419, 0.178419, 89.529086, 0.025609, -0.257676, -0.004163, -0.017798, 0.185421, 0.001708, 0.038769, 0.035983, 9.808921, 0.206052, 0.218833
7.400000, 0.036812, 0.036420, 9.810007, -0.002928, 0.002450, 0.006266, 0.219366, 0.185596, 0.185596, 95.477369, 0.026606, -0.268278, -0.004258, -0.017919, 0.189225, 0.001713, 0.036375, 0.037180, 9.810118, 0.212709, 0.215002
7.450000, 0.037268, 0.036158, 9.809355, -0.009495, 0.001840, 0.006724, 0.209345, 0.190903, 0.190903, 96.506943, 0.027619, -0.279112, -0.004357, -0.018131, 0.193105, 0.001755, 0.037572, 0.035983, 9.808921, 0.211192, 0.217679
7.500000, 0.036733, 0.035335, 9.809813, -0.006593, -0.000298, 0.005960, 0.207410, 0.189989, 0.189989, 94.618322, 0.028644, -0.290188, -0.004456, -0.018318, 0.196957, 0.001772, 0.036375, 0.034786, 9.810118, 0.206377, 0.214540
7.550000, 0.038673, 0.034288, 9.811432, -0.007051, 0.000007, 0.006266, 0.203943, 0.190866, 0.190866, 96.515301, 0.029677, -0.301458, -0.004549, -0.018495, 0.200917, 0.001699, 0.039966, 0.033589, 9.812511, 0.200227, 0.225834
7.600000, 0.035858, 0.033869, 9.811361, -0.008578, 0.001840, 0.007487, 0.196493, 0.195412, 0.195412, 94.676053, 0.030722, -0.312933, -0.004637, -0.018718, 0.204759, 0.001630, 0.033982, 0.033589, 9.811315, 0.197782, 0.209400
7.650000, 0.034014, 0.034419, 9.812051, -0.008273, 0.000618, 0.006724, 0.190650, 0.195616, 0.195616, 96.340192, 0.031791, -0.324650, -0.004719, -0.019031, 0.208508, 0.001522, 0.032785, 0.034786, 9.812511, 0.200983, 0.198618
7.700000, 0.036149, 0.034639, 9.810173, -0.002470, -0.000451, 0.005502, 0.200757, 0.193911, 0.193911, 95.047215, 0.032866, -0.336531, -0.004803, -0.019271, 0.212346, 0.001519, 0.037572, 0.034786, 9.808921, 0.202308, 0.211125
7.750000, 0.038439, 0.035446, 9.809422, -0.007357, 0.004741, 0.003364, 0.197511, 0.207148, 0.207148, 97.954214, 0.033964, -0.348651, -0.004891, -0.019615, 0.216432, 0.001559, 0.039966, 0.035983, 9.808921, 0.207032, 0.224517
7.800000, 0.037919, 0.035768, 9.809839, -0.005066, 0.001381, 0.004891, 0.200748, 0.210314, 0.210314, 93.974889, 0.035079, -0.360987, -0.004978, -0.019950, 0.220517, 0.001575, 0.037572, 0.035983, 9.810118, 0.208906, 0.221469
7.850000, 0.038429, 0.035179, 9.808570, -0.002928, -0.000604, 0.006571, 0.209180, 0.208236, 0.208236, 93.012788, 0.036205, -0.373579, -0.005073, -0.020171, 0.224626, 0.001663, 0.038769, 0.034786, 9.807724, 0.205492, 0.224477
7.900000, 0.036479, 0.035661, 9.810935, -0.010258, 0.000465, 0.005502, 0.197745, 0.208342, 0.208342, 91.735705, 0.037352, -0.386362, -0.005162, -0.020510, 0.228612, 0.001618, 0.035179, 0.035983, 9.812511, 0.208260, 0.213034
7.950000, 0.035699, 0.035136, 9.807572, -0.009953, 0.003214, 0.006418, 0.187780, 0.215406, 0.215406, 96.372858, 0.038525, -0.399390, -0.005263, -0.020921, 0.232624, 0.001761, 0.035179, 0.034786, 9.805330, 0.205264, 0.208550
8.000000, 0.036823, 0.035644, 9.807663, -0.010258, 0.001687, 0.006113, 0.178019, 0.218364, 0.218364, 96.718944, 0.039730, -0.412629, -0.005372, -0.021466, 0.236713, 0.001899, 0.037572, 0.035983, 9.807724, 0.208230, 0.215115
8.050000, 0.036554, 0.032975, 9.812008, -0.002928, 0.003672, 0.006266, 0.187339, 0.226232, 0.226232, 96.228866, 0.040949, -0.426121, -0.005469, -0.021788, 0.240882, 0.001796, 0.036375, 0.031196, 9.814905, 0.192552, 0.213452
8.100000, 0.039319, 0.033344, 9.814464, -0.003691, -0.001062, 0.007793, 0.194111, 0.222125, 0.222125, 95.695302, 0.042182, -0.439842, -0.005549, -0.022081, 0.245165, 0.001558, 0.041163, 0.033589, 9.816102, 0.194655, 0.229540
8.150000, 0.035399, 0.036364, 9.811856, -0.011938, 0.000160, 0.007487, 0.179835, 0.219882, 0.219882, 91.175995, 0.043456, -0.453788, -0.005628, -0.022654, 0.249191, 0.001463, 0.032785, 0.038377, 9.810118, 0.212340, 0.206707
8.200000, 0.037421, 0.034699, 9.813686, -0.005371, 0.001687, 0.005655, 0.183400, 0.222694, 0.222694, 91.653749, 0.044752, -0.467989, -0.005693, -0.023099, 0.253372, 0.001267, 0.038769, 0.033589, 9.814905, 0.202583, 0.218475
8.250000, 0.036076, 0.035469, 9.814417, -0.003844, 0.000160, 0.006724, 0.191137, 0.220649, 0.220649, 92.208255, 0.046066, -0.482382, -0.005743, -0.023494, 0.257453, 0.001030, 0.035179, 0.035983, 9.814905, 0.207066, 0.210604
8.300000, 0.034819, 0.032905, 9.811838, -0.007509, 0.000007, 0.005197, 0.187514, 0.217780, 0.217780, 97.366769, 0.047394, -0.497002, -0.005793, -0.023782, 0.261445, 0.000936, 0.033982, 0.031196, 9.810118, 0.192147, 0.203324
8.350000, 0.037189, 0.034752, 9.812242, -0.007815, -0.000604, 0.005808, 0.184168, 0.214494, 0.214494, 93.814075, 0.048747, -0.511829, -0.005835, -0.024210, 0.265523, 0.000820, 0.038769, 0.035983, 9.812511, 0.202922, 0.217153
8.400000, 0.039573, 0.032618, 9.811685, -0.005829, 0.002909, 0.003211, 0.185460, 0.221813, 0.221813, 92.327815, 0.050117, -0.526929, -0.005873, -0.024513, 0.269819, 0.000736, 0.041163, 0.031196, 9.811315, 0.190474, 0.231088
8.450000, 0.039809, 0.030329, 9.811463, -0.007815, 0.001381, 0.005197, 0.180411, 0.224666, 0.224666, 91.098688, 0.051493, -0.542244, -0.005908, -0.024726, 0.274152, 0.000665, 0.039966, 0.028802, 9.811315, 0.177107, 0.232469
8.500000, 0.037749, 0.032285, 9.811374, -0.011480, 0.000160, 0.008862, 0.166864, 0.223194, 0.223194, 94.144624, 0.052901, -0.557803, -0.005940, -0.025164, 0.278349, 0.000599, 0.036375, 0.033589, 9.811315, 0.188534, 0.220441
8.550000, 0.036207, 0.032350, 9.811338, -0.005677, 0.001076, 0.006724, 0.169803, 0.223581, 0.223581, 93.029541, 0.054338, -0.573662, -0.005968, -0.025569, 0.282485, 0.000533, 0.035179, 0.032393, 9.811315, 0.188912, 0.211436
8.600000, 0.035590, 0.033812, 9.810606, -0.004455, 0.002450, 0.006266, 0.176454, 0.227281, 0.227281, 94.527171, 0.055793, -0.589699, -0.005995, -0.025990, 0.286608, 0.000508, 0.035179, 0.034786, 9.810118, 0.197464, 0.207849
8.650000, 0.036779, 0.033678, 9.810313, -0.009800, 0.000618, 0.006724, 0.168442, 0.226308, 0.226308, 92.097218, 0.057275, -0.605935, -0.006023, -0.026476, 0.290775, 0.000500, 0.037572, 0.033589, 9.810118, 0.196691, 0.214802
8.700000, 0.033665, 0.033625, 9.812350, -0.008731, -0.000451, 0.004891, 0.163917, 0.221182, 0.221182, 93.665750, 0.058788, -0.622420, -0.006040, -0.026987, 0.294729, 0.000378, 0.031588, 0.033589, 9.813708, 0.196339, 0.196571
8.750000, 0.036009, 0.035040, 9.813165, -0.002164, 0.000007, 0.006877, 0.177848, 0.218600, 0.218600, 98.175288, 0.060327, -0.639129, -0.006047, -0.027461, 0.298789, 0.000210, 0.037572, 0.035983, 9.813708, 0.204584, 0.210244
8.800000, 0.036229, 0.029861, 9.812055, -0.006746, 0.002298, 0.005960, 0.176417, 0.222358, 0.222358, 90.172059, 0.061865, -0.656030, -0.006050, -0.027657, 0.302903, 0.000106, 0.036375, 0.026409, 9.811315, 0.174367, 0.211551
8.850000, 0.037753, 0.033534, 9.808738, -0.004302, 0.000160, 0.005655, 0.183169, 0.220805, 0.220805, 92.315280, 0.063428, -0.673198, -0.006063, -0.027988, 0.307087, 0.000185, 0.038769, 0.035983, 9.806527, 0.195881, 0.220525
8.900000, 0.037645, 0.032849, 9.808848, -0.010716, -0.001062, 0.007487, 0.172151, 0.216081, 0.216081, 92.315280, 0.065011, -0.690550, -0.006079, -0.028374, 0.311207, 0.000257, 0.037572, 0.032393, 9.808921, 0.191878, 0.219889
8.950000, 0.039037, 0.035448, 9.809610, -0.006898, 0.003367, 0.005655, 0.173264, 0.224067, 0.224067, 89.857118, 0.066627, -0.708167, -0.006096, -0.028884, 0.315482, 0.000288, 0.039966, 0.037180, 9.810118, 0.207039, 0.228006
9.000000, 0.038876, 0.033615, 9.812069, -0.009342, 0.001687, 0.006418, 0.167112, 0.226941, 0.226941, 93.292839, 0.068267, -0.726016, -0.006103, -0.029343, 0.319777, 0.000183, 0.038769, 0.032393, 9.813708, 0.196284, 0.227009
9.050000, 0.037376, 0.034318, 9.812334, -0.007967, 0.001534, 0.005502, 0.165452, 0.228542, 0.228542, 93.205216, 0.069939, -0.744130, -0.006103, -0.029850, 0.324009, 0.000063, 0.036375, 0.034786, 9.812511, 0.200384, 0.218241
9.100000, 0.035339, 0.035317, 9.811722, -0.003844, 0.002145, 0.005197, 0.175385, 0.230727, 0.230727, 93.939769, 0.071635, -0.762466, -0.006099, -0.030314, 0.328150, -0.000024, 0.033982, 0.035983, 9.811315, 0.206232, 0.206363
9.150000, 0.033807, 0.032844, 9.812914, -0.005982, -0.001673, 0.006113, 0.177919, 0.221889, 0.221889, 95.969023, 0.073341, -0.780997, -0.006085, -0.030616, 0.332124, -0.000177, 0.032785, 0.031196, 9.813708, 0.191770, 0.197390
9.200000, 0.036784, 0.033291, 9.809800, -0.009342, 0.002603, 0.004128, 0.171596, 0.226276, 0.226276, 94.005770, 0.075073, -0.799765, -0.006077, -0.031017, 0.336299, -0.000157, 0.038769, 0.033589, 9.807724, 0.194442, 0.214842
9.250000, 0.037257, 0.032034, 9.810709, -0.003539, 0.002756, 0.006571, 0.180647, 0.230913, 0.230913, 96.374460, 0.076814, -0.818772, -0.006066, -0.031276, 0.340551, -0.000187, 0.037572, 0.031196, 9.811315, 0.187081, 0.217584
9.300000, 0.037446, 0.034403, 9.807482, -0.013312, 0.003672, 0.007029, 0.164166, 0.237682, 0.237682, 96.304560, 0.078601, -0.838074, -0.006068, -0.031842, 0.344874, -0.000036, 0.037572, 0.035983, 9.805330, 0.200984, 0.218760
9.350000, 0.037522, 0.035351, 9.807627, -0.006746, 0.002450, 0.004891, 0.166843, 0.240686, 0.240686, 89.215175, 0.080420, -0.857611, -0.006078, -0.032426, 0.349228, 0.000106, 0.037572, 0.035983, 9.807724, 0.206518, 0.219199
9.400000, 0.036834, 0.032858, 9.806967, -0.006135, -0.001215, 0.005808, 0.169969, 0.233388, 0.233388, 96.506943, 0.082261, -0.877420, -0.006099, -0.032843, 0.353490, 0.000284, 0.036375, 0.031196, 9.806527, 0.191966, 0.215195
9.450000, 0.037995, 0.031861, 9.805985, -0.005982, 0.002756, 0.008556, 0.172897, 0.237616, 0.237616, 97.258751, 0.084117, -0.897439, -0.006134, -0.033196, 0.357851, 0.000518, 0.038769, 0.031196, 9.805330, 0.186158, 0.222001
9.500000, 0.039178, 0.032898, 9.807029, -0.007815, -0.001062, 0.007793, 0.171237, 0.231876, 0.231876, 94.725706, 0.085995, -0.917658, -0.006177, -0.033631, 0.362210, 0.000693, 0.039966, 0.033589, 9.807724, 0.192198, 0.228885
9.550000, 0.036060, 0.031877, 9.807446, -0.001095, 0.003214, 0.005044, 0.187131, 0.236532, 0.236532, 94.567648, 0.087881, -0.938125, -0.006229, -0.033857, 0.366455, 0.000845, 0.033982, 0.031196, 9.807724, 0.186224, 0.210664
9.600000, 0.039840, 0.032904, 9.808331, -0.002928, 0.005047, 0.004433, 0.197424, 0.247270, 0.247270, 96.340192, 0.089777, -0.958832, -0.006284, -0.034070, 0.371008, 0.000949, 0.042360, 0.033589, 9.808921, 0.192210, 0.232723
9.650000, 0.037043, 0.032597, 9.808685, -0.002470, -0.000146, 0.002448, 0.208015, 0.242181, 0.242181, 92.340487, 0.091673, -0.979759, -0.006344, -0.034152, 0.375362, 0.001033, 0.035179, 0.032393, 9.808921, 0.190410, 0.216379
9.700000, 0.038797, 0.035347, 9.811699, 0.000279, 0.002450, 0.005960, 0.226247, 0.245038, 0.245038, 96.439205, 0.093572, -1.000938, -0.006394, -0.034228, 0.379842, 0.000949, 0.039966, 0.037180, 9.813708, 0.206407, 0.226553
9.750000, 0.036626, 0.032856, 9.809314, -0.009953, 0.000771, 0.009625, 0.214854, 0.242234, 0.242234, 93.625465, 0.095475, -1.022385, -0.006451, -0.034268, 0.384182, 0.000998, 0.035179, 0.031196, 9.807724, 0.191910, 0.213928
9.800000, 0.036476, 0.035450, 9.811232, -0.009953, 0.003061, 0.007640, 0.205371, 0.245562, 0.245562, 95.726847, 0.097399, -1.044049, -0.006501, -0.034550, 0.388527, 0.000940, 0.036375, 0.037180, 9.812511, 0.207022, 0.213009
9.850000, 0.039288, 0.035770, 9.812000, -0.008731, 0.003519, 0.007335, 0.199977, 0.250986, 0.250986, 96.755622, 0.099347, -1.065980, -0.006545, -0.034925, 0.393076, 0.000840, 0.041163, 0.035983, 9.812511, 0.208871, 0.229413
9.900000, 0.038977, 0.036616, 9.810871, -0.002317, 0.001992, 0.004280, 0.212385, 0.251761, 0.251761, 98.130102, 0.101309, -1.088140, -0.006588, -0.035247, 0.397614, 0.000803, 0.038769, 0.037180, 9.810118, 0.213836, 0.227622
9.950000, 0.039570, 0.031928, 9.812573, -0.003844, 0.000923, 0.005808, 0.217780, 0.249829, 0.249829, 96.132222, 0.103265, -1.110569, -0.006622, -0.035273, 0.402190, 0.000672, 0.039966, 0.028802, 9.813708, 0.186424, 0.231049
10.000000, 0.040526, 0.032207, 9.811818, -0.007051, 0.000771, 0.006266, 0.214302, 0.248000, 0.248000, 93.834465, 0.105232, -1.133301, -0.006652, -0.035352, 0.406808, 0.000583, 0.041163, 0.032393, 9.811315, 0.188067, 0.236646
10.050000, 0.041626, 0.035909, 9.812234, -0.003081, 0.001687, 0.006113, 0.223146, 0.249182, 0.249182, 96.132222, 0.107213, -1.156281, -0.006675, -0.035565, 0.411486, 0.000470, 0.042360, 0.038377, 9.812511, 0.209676, 0.243060
10.100000, 0.037758, 0.037390, 9.809528, -0.007509, -0.001520, 0.006418, 0.220200, 0.240076, 0.240076, 94.854567, 0.109212, -1.179482, -0.006704, -0.035870, 0.415852, 0.000506, 0.035179, 0.038377, 9.807724, 0.218383, 0.220533
10.150000, 0.037646, 0.036546, 9.804855, -0.005677, -0.000451, 0.005655, 0.221966, 0.234387, 0.234387, 94.725706, 0.111221, -1.202895, -0.006757, -0.036110, 0.420157, 0.000801, 0.037572, 0.035983, 9.801740, 0.213556, 0.219989
10.200000, 0.039038, 0.034772, 9.805140, -0.010716, 0.003978, 0.009931, 0.209443, 0.241427, 0.241427, 99.071498, 0.113249, -1.226589, -0.006824, -0.036398, 0.424609, 0.001081, 0.039966, 0.033589, 9.805330, 0.203185, 0.228114
10.250000, 0.042467, 0.036935, 9.805972, -0.006135, -0.000298, 0.006113, 0.210922, 0.238060, 0.238060, 93.310942, 0.115302, -1.250519, -0.006904, -0.036805, 0.429205, 0.001315, 0.044753, 0.038377, 9.806527, 0.215805, 0.248130
10.300000, 0.042403, 0.035646, 9.803433, -0.003997, 0.002603, 0.007029, 0.217416, 0.242642, 0.242642, 90.159598, 0.117365, -1.274715, -0.007008, -0.037066, 0.433854, 0.001691, 0.042360, 0.034786, 9.801740, 0.208327, 0.247817
10.350000, 0.041659, 0.035130, 9.805290, -0.005219, 0.001534, 0.005808, 0.219932, 0.243736, 0.243736, 94.618322, 0.119445, -1.299253, -0.007125, -0.037265, 0.438493, 0.001964, 0.041163, 0.034786, 9.806527, 0.205274, 0.243424
10.400000, 0.039207, 0.034206, 9.807468, -0.008578, 0.002756, 0.009625, 0.212906, 0.246914, 0.246914, 94.750055, 0.121531, -1.323979, -0.007247, -0.037470, 0.443014, 0.002116, 0.037572, 0.033589, 9.808921, 0.199829, 0.229046
10.450000, 0.037508, 0.033836, 9.807622, -0.007509, -0.001978, 0.006266, 0.209038, 0.236512, 0.236512, 95.568342, 0.123625, -1.348891, -0.007376, -0.037678, 0.447333, 0.002258, 0.036375, 0.033589, 9.807724, 0.197666, 0.219118
10.500000, 0.038265, 0.033688, 9.808401, -0.004455, 0.001534, 0.003364, 0.213458, 0.236477, 0.236477, 96.269325, 0.125728, -1.374058, -0.007509, -0.037846, 0.451699, 0.002356, 0.038769, 0.033589, 9.808921, 0.196786, 0.223521
10.550000, 0.038567, 0.035065, 9.809431, -0.008273, 0.001229, 0.008709, 0.207977, 0.235726, 0.235726, 98.408912, 0.127856, -1.399500, -0.007643, -0.038158, 0.456070, 0.002398, 0.038769, 0.035983, 9.810118, 0.204809, 0.225265
10.600000, 0.038688, 0.035616, 9.810561, 0.002112, -0.001215, 0.009778, 0.230665, 0.228575, 0.228575, 96.304560, 0.129982, -1.425146, -0.007775, -0.038291, 0.460388, 0.002376, 0.038769, 0.035983, 9.811315, 0.208002, 0.225946
10.650000, 0.037301, 0.035836, 9.812449, -0.005982, 0.000312, 0.004128, 0.230230, 0.225390, 0.225390, 96.033253, 0.132122, -1.451074, -0.007896, -0.038440, 0.464607, 0.002249, 0.036375, 0.035983, 9.813708, 0.209248, 0.217799
10.700000, 0.040336, 0.031616, 9.813923, -0.005677, 0.001992, 0.006571, 0.228737, 0.228193, 0.228193, 94.802190, 0.134254, -1.477267, -0.008004, -0.038387, 0.469041, 0.002041, 0.042360, 0.028802, 9.814905, 0.184577, 0.235488
10.750000, 0.038678, 0.034236, 9.810922, -0.000026, 0.004894, 0.006113, 0.243354, 0.237785, 0.237785, 93.043240, 0.136382, -1.503684, -0.008114, -0.038335, 0.473469, 0.002001, 0.037572, 0.035983, 9.808921, 0.199937, 0.225876
10.800000, 0.038014, 0.033848, 9.814748, -0.009189, 0.001076, 0.006266, 0.232288, 0.236209, 0.236209, 95.248661, 0.138512, -1.530339, -0.008204, -0.038360, 0.477839, 0.001747, 0.037572, 0.033589, 9.817299, 0.197594, 0.221916
10.850000, 0.039185, 0.038720, 9.813406, 0.000279, 0.004588, 0.005197, 0.249172, 0.244534, 0.244534, 95.378406, 0.140653, -1.557229, -0.008286, -0.038507, 0.482341, 0.001568, 0.039966, 0.041967, 9.812511, 0.226062, 0.228782
10.900000, 0.037499, 0.036360, 9.809279, -0.007051, 0.003519, 0.006724, 0.244276, 0.248631, 0.248631, 99.973661, 0.142799, -1.584400, -0.008377, -0.038584, 0.486799, 0.001619, 0.036375, 0.034786, 9.806527, 0.212373, 0.219031
10.950000, 0.036825, 0.036852, 9.810500, -0.006288, 0.003367, 0.007335, 0.241890, 0.251637, 0.251637, 96.541346, 0.144951, -1.611780, -0.008465, -0.038723, 0.491238, 0.001602, 0.036375, 0.037180, 9.811315, 0.215221, 0.215065
11.000000, 0.036555, 0.037049, 9.808116, -0.003844, -0.001062, 0.005044, 0.246172, 0.242459, 0.242459, 95.063617, 0.147108, -1.639387, -0.008564, -0.038827, 0.495575, 0.001716, 0.036375, 0.037180, 9.806527, 0.216423, 0.213542
11.050000, 0.037884, 0.034255, 9.811471, -0.005066, 0.004436, 0.006724, 0.245588, 0.249029, 0.249029, 95.194429, 0.149262, -1.667291, -0.008653, -0.038794, 0.500070, 0.001645, 0.038769, 0.032393, 9.813708, 0.200036, 0.221225
11.100000, 0.037697, 0.037446, 9.809941, -0.005371, 0.003978, 0.008251, 0.245499, 0.253736, 0.253736, 106.744418, 0.152280, -1.706524, -0.008782, -0.039058, 0.506323, 0.001664, 0.037572, 0.039574, 9.808921, 0.218705, 0.220169
11.150000, 0.038340, 0.036568, 9.810047, -0.003081, -0.000451, 0.005197, 0.251029, 0.246534, 0.246534, 99.084221, 0.154491, -1.735442, -0.008877, -0.039172, 0.510875, 0.001672, 0.038769, 0.035983, 9.810118, 0.213575, 0.223924
11.200000, 0.037161, 0.035499, 9.809371, 0.002112, -0.003811, 0.004739, 0.269341, 0.230384, 0.230384, 101.549913, 0.156687, -1.764579, -0.008975, -0.039058, 0.515228, 0.001717, 0.036375, 0.034786, 9.808921, 0.207345, 0.217054
11.250000, 0.038844, 0.033635, 9.809819, -0.010869, 0.000771, 0.008098, 0.250881, 0.228278, 0.228278, 100.401513, 0.159152, -1.797573, -0.009085, -0.039051, 0.520183, 0.001740, 0.039966, 0.032393, 9.810118, 0.196449, 0.226873
11.300000, 0.040235, 0.033608, 9.809280, -0.005219, -0.002284, 0.003364, 0.248609, 0.218835, 0.218835, 101.183591, 0.161527, -1.829591, -0.009196, -0.039093, 0.524932, 0.001794, 0.041163, 0.033589, 9.808921, 0.196300, 0.235011
11.350000, 0.037919, 0.035751, 9.806192, -0.001859, 0.002909, 0.005349, 0.256202, 0.222905, 0.222905, 97.729750, 0.163723, -1.859331, -0.009315, -0.039183, 0.529213, 0.002016, 0.036375, 0.037180, 9.804134, 0.208884, 0.221554
11.400000, 0.038429, 0.035172, 9.804957, -0.005982, 0.001687, 0.007335, 0.251910, 0.223652, 0.223652, 97.798197, 0.165910, -1.889112, -0.009451, -0.039294, 0.533499, 0.002306, 0.038769, 0.034786, 9.804134, 0.205528, 0.224561
11.450000, 0.037197, 0.033504, 9.805181, -0.009036, 0.000465, 0.007793, 0.238980, 0.220571, 0.220571, 97.642144, 0.168102, -1.919058, -0.009602, -0.039429, 0.537674, 0.002582, 0.036375, 0.032393, 9.805330, 0.195778, 0.217355
11.500000, 0.037422, 0.032119, 9.806707, -0.002928, -0.000604, 0.006113, 0.242478, 0.214971, 0.214971, 100.318149, 0.170297, -1.949308, -0.009762, -0.039464, 0.541835, 0.002774, 0.037572, 0.031196, 9.807724, 0.187655, 0.218637
11.550000, 0.041103, 0.033719, 9.808035, -0.005219, -0.000451, 0.004739, 0.240180, 0.211805, 0.211805, 98.733682, 0.172540, -1.980263, -0.009928, -0.039645, 0.546217, 0.002895, 0.043556, 0.034786, 9.808921, 0.196977, 0.240108
11.600000, 0.041139, 0.033641, 9.807130, -0.008731, -0.001367, 0.006724, 0.228583, 0.206545, 0.206545, 98.085410, 0.174768, -2.010986, -0.010103, -0.039929, 0.550472, 0.003063, 0.041163, 0.033589, 9.806527, 0.196539, 0.240340
11.650000, 0.042589, 0.033610, 9.805332, -0.003233, -0.001215, 0.005197, 0.232323, 0.202815, 0.202815, 98.642803, 0.177005, -2.041887, -0.010296, -0.040188, 0.554766, 0.003330, 0.043556, 0.033589, 9.804134, 0.196393, 0.248860
11.700000, 0.041015, 0.035034, 9.803895, -0.006288, 0.001992, 0.008556, 0.228206, 0.207315, 0.207315, 97.646048, 0.179263, -2.072979, -0.010509, -0.040563, 0.558994, 0.003677, 0.039966, 0.035983, 9.802937, 0.204742, 0.239698
11.750000, 0.039668, 0.034167, 9.808347, -0.003539, -0.004116, 0.003822, 0.231231, 0.194783, 0.194783, 94.542725, 0.181537, -2.104348, -0.010721, -0.040825, 0.563050, 0.003776, 0.038769, 0.033589, 9.811315, 0.199587, 0.231717
11.800000, 0.036256, 0.032384, 9.812282, -0.006440, 0.001076, 0.003059, 0.225465, 0.195566, 0.195566, 94.375584, 0.183814, -2.135869, -0.010921, -0.041004, 0.566926, 0.003657, 0.033982, 0.031196, 9.814905, 0.189097, 0.211704
11.850000, 0.037046, 0.035262, 9.810265, -0.004455, 0.002298, 0.006418, 0.226543, 0.199922, 0.199922, 94.277316, 0.186112, -2.167595, -0.011123, -0.041329, 0.570865, 0.003649, 0.037572, 0.037180, 9.808921, 0.205940, 0.216360
11.900000, 0.037362, 0.032822, 9.808022, -0.004760, 0.001992, 0.004891, 0.225612, 0.203333, 0.203333, 94.924550, 0.188417, -2.199548, -0.011334, -0.041522, 0.574871, 0.003767, 0.037572, 0.031196, 9.806527, 0.191736, 0.218255
11.950000, 0.036052, 0.032564, 9.810716, -0.003691, 0.000923, 0.005808, 0.227371, 0.203124, 0.203124, 98.710180, 0.190733, -2.231759, -0.011541, -0.041674, 0.578812, 0.003735, 0.035179, 0.032393, 9.812511, 0.190178, 0.210545
12.000000, 0.034810, 0.034616, 9.809639, -0.004150, -0.001673, 0.004128, 0.228571, 0.195530, 0.195530, 93.503532, 0.193061, -2.264155, -0.011750, -0.041898, 0.582598, 0.003761, 0.033982, 0.035983, 9.808921, 0.202180, 0.203314
12.050000, 0.039340, 0.035436, 9.809926, -0.004913, 0.000312, 0.006724, 0.227939, 0.195760, 0.195760, 94.725706, 0.195583, -2.299221, -0.011975, -0.042215, 0.586929, 0.003773, 0.042360, 0.035983, 9.810118, 0.206965, 0.229764
12.100000, 0.039715, 0.034328, 9.810759, -0.009189, 0.002450, 0.004433, 0.215473, 0.201901, 0.201901, 94.330060, 0.197959, -2.332199, -0.012182, -0.042562, 0.591047, 0.003739, 0.039966, 0.033589, 9.811315, 0.200477, 0.231939
12.150000, 0.037711, 0.032449, 9.811092, -0.002164, -0.000146, 0.006266, 0.221698, 0.199915, 0.199915, 94.253836, 0.200336, -2.365356, -0.012385, -0.042716, 0.595051, 0.003686, 0.036375, 0.031196, 9.811315, 0.189495, 0.220229
12.200000, 0.039782, 0.036006, 9.812662, -0.011480, 0.002756, 0.005960, 0.204215, 0.206728, 0.206728, 97.704119, 0.202751, -2.398723, -0.012578, -0.043249, 0.599190, 0.003546, 0.041163, 0.038377, 9.813708, 0.210232, 0.232284
12.250000, 0.038456, 0.035992, 9.811853, -0.005371, -0.000604, 0.005808, 0.204244, 0.203623, 0.203623, 97.815294, 0.205194, -2.432303, -0.012767, -0.043771, 0.603225, 0.003450, 0.037572, 0.035983, 9.811315, 0.210171, 0.224561
12.300000, 0.040080, 0.035269, 9.812966, -0.007357, 0.000923, 0.009167, 0.198707, 0.205564, 0.205564, 95.754565, 0.207667, -2.466108, -0.012945, -0.044314, 0.607367, 0.003294, 0.041163, 0.034786, 9.813708, 0.205923, 0.234017
12.350000, 0.037857, 0.035697, 9.811257, -0.006440, 0.003214, 0.007640, 0.196223, 0.212550, 0.212550, 94.618322, 0.210171, -2.500117, -0.013122, -0.044889, 0.611444, 0.003232, 0.036375, 0.035983, 9.810118, 0.208463, 0.221077
12.400000, 0.039123, 0.036587, 9.812010, -0.003233, 0.006268, 0.004128, 0.202848, 0.227687, 0.227687, 96.830186, 0.212709, -2.534389, -0.013293, -0.045470, 0.615739, 0.003130, 0.039966, 0.037180, 9.812511, 0.213641, 0.228447
12.450000, 0.037474, 0.031916, 9.809438, -0.006746, 0.001229, 0.005044, 0.197668, 0.227624, 0.227624, 96.915839, 0.215261, -2.568879, -0.013470, -0.045830, 0.619963, 0.003171, 0.036375, 0.028802, 9.807724, 0.186416, 0.218881
12.500000, 0.038251, 0.031484, 9.809128, -0.011174, 0.004894, 0.004128, 0.180912, 0.237596, 0.237596, 97.028396, 0.217847, -2.603651, -0.013651, -0.046341, 0.624314, 0.003230, 0.038769, 0.031196, 9.808921, 0.183898, 0.223425
12.550000, 0.037844, 0.031311, 9.807568, -0.006593, -0.003505, 0.007640, 0.177488, 0.224340, 0.224340, 95.517978, 0.220465, -2.638705, -0.013843, -0.046854, 0.628522, 0.003375, 0.037572, 0.031196, 9.806527, 0.182917, 0.221081
12.600000, 0.039835, 0.032678, 9.811252, -0.005829, 0.003672, 0.006418, 0.176949, 0.231953, 0.231953, 99.487776, 0.223117, -2.673946, -0.014025, -0.047474, 0.632894, 0.003315, 0.041163, 0.033589, 9.813708, 0.190831, 0.232627
12.650000, 0.040632, 0.032507, 9.809853, -0.002928, 0.000618, 0.005349, 0.184110, 0.231253, 0.231253, 96.306289, 0.225802, -2.709501, -0.014211, -0.048022, 0.637321, 0.003334, 0.041163, 0.032393, 9.808921, 0.189858, 0.237313
12.700000, 0.038796, 0.033156, 9.811448, -0.003844, 0.000465, 0.007182, 0.188606, 0.229415, 0.229415, 94.696472, 0.228506, -2.745171, -0.014390, -0.048541, 0.641616, 0.003264, 0.037572, 0.033589, 9.812511, 0.193621, 0.226554
12.750000, 0.038062, 0.033416, 9.808496, -0.004760, 0.000923, 0.004891, 0.190468, 0.228606, 0.228606, 96.472897, 0.231242, -2.781129, -0.014579, -0.049049, 0.645870, 0.003357, 0.037572, 0.033589, 9.806527, 0.195197, 0.222334
12.800000, 0.038486, 0.033520, 9.808751, -0.013312, -0.001826, 0.005808, 0.169578, 0.220736, 0.220736, 91.628124, 0.234019, -2.817294, -0.014771, -0.049734, 0.650052, 0.003435, 0.038769, 0.033589, 9.808921, 0.195799, 0.224807
12.850000, 0.037938, 0.032126, 9.808853, -0.009036, 0.002145, 0.006877, 0.161050, 0.223752, 0.223752, 95.138119, 0.236830, -2.853655, -0.014968, -0.050410, 0.654229, 0.003508, 0.037572, 0.031196, 9.808921, 0.187651, 0.221602
12.900000, 0.035564, 0.030850, 9.808176, -0.006898, 0.000923, 0.005502, 0.158348, 0.222265, 0.222265, 98.387996, 0.239675, -2.890241, -0.015171, -0.051027, 0.658266, 0.003619, 0.033982, 0.029999, 9.807724, 0.180210, 0.207751
12.950000, 0.039641, 0.033212, 9.807905, -0.009953, 0.000618, 0.005349, 0.148842, 0.221814, 0.221814, 95.925936, 0.242573, -2.927065, -0.015382, -0.051885, 0.662501, 0.003744, 0.042360, 0.034786, 9.807724, 0.194013, 0.231575
13.000000, 0.039836, 0.032720, 9.807796, -0.003997, 0.004130, 0.008251, 0.155752, 0.230822, 0.230822, 91.662471, 0.245548, -2.964592, -0.015603, -0.052652, 0.666898, 0.003878, 0.039966, 0.032393, 9.807724, 0.191145, 0.232715
13.050000, 0.037760, 0.033242, 9.809189, -0.004150, 0.000465, 0.003364, 0.162069, 0.228540, 0.228540, 94.307651, 0.248535, -3.002040, -0.015824, -0.053354, 0.671128, 0.003933, 0.036375, 0.033589, 9.810118, 0.194164, 0.220553
13.100000, 0.036211, 0.032014, 9.807592, -0.004760, 0.005199, 0.004891, 0.165855, 0.238284, 0.238284, 94.241792, 0.251549, -3.039695, -0.016054, -0.053940, 0.675372, 0.004077, 0.035179, 0.031196, 9.806527, 0.187024, 0.211542
13.150000, 0.037028, 0.032959, 9.804799, -0.006898, 0.003367, 0.005197, 0.164168, 0.242726, 0.242726, 92.290610, 0.254593, -3.077490, -0.016305, -0.054583, 0.679688, 0.004376, 0.037572, 0.033589, 9.802937, 0.192601, 0.216375
13.200000, 0.038073, 0.035492, 9.804400, -0.005524, 0.001534, 0.006266, 0.167437, 0.242359, 0.242359, 94.976264, 0.257683, -3.115556, -0.016575, -0.055328, 0.684053, 0.004697, 0.038769, 0.037180, 9.804134, 0.207407, 0.222489
13.250000, 0.037772, 0.033632, 9.804240, -0.006135, 0.002298, 0.010695, 0.168148, 0.243855, 0.243855, 93.310942, 0.260800, -3.153822, -0.016862, -0.055951, 0.688422, 0.005027, 0.037572, 0.032393, 9.804134, 0.196544, 0.220739
13.300000, 0.039807, 0.033607, 9.806330, -0.003386, 0.004588, 0.005349, 0.176161, 0.252129, 0.252129, 98.491300, 0.263956, -3.192457, -0.017160, -0.056516, 0.693001, 0.005243, 0.041163, 0.033589, 9.807724, 0.196352, 0.232577
