Time, AccX(g), AccY(g), AccZ(g), GyrX(rad/s), GyrY(rad/s), GyrZ(rad/s), Roll(deg), Pitch(deg), Yaw(deg), Heading, X, Y, Z, Vx, Vy, Vz, AccX, AccY, AccZ, RollAcc, PitchAcc
0.000000, 0.001648, -0.002507, 5.889014, 0.004555, 0.000923, 0.007335, -0.024293, 0.016015, 0.016015, 239.483783, 0.000000, 0.000000, 0.000000, 0.000000, 0.000000, 0.000000, 0.002747, -0.004179, 9.815023, -0.024396, 0.016035
0.050000, 0.000153, -0.001356, 8.246773, 0.000432, 0.006726, 0.008556, -0.015981, 0.017517, 0.017517, 238.953619, 0.000000, 0.000000, 0.000000, 0.000000, 0.000000, 0.000000, -0.000844, -0.000589, 9.818613, -0.009422, 0.001063
0.100000, -0.001881, -0.001614, 9.189877, 0.003334, 0.004588, 0.007029, -0.007580, 0.012741, 0.012741, 238.092765, 0.000000, 0.000000, 0.000000, 0.000000, 0.000000, 0.000000, -0.003237, -0.001785, 9.818613, -0.010061, -0.011728
0.150000, -0.000541, 0.000438, 9.567119, 0.007151, 0.005199, 0.006571, 0.009136, 0.013245, 0.013245, 236.738076, 0.000000, 0.000000, 0.000000, 0.000000, 0.000000, 0.000000, 0.000353, 0.001805, 9.818613, 0.002620, -0.003237
0.200000, -0.002877, 0.000540, 9.715143, 0.002723, 0.006879, 0.007029, 0.011283, 0.009894, 0.009894, 238.153087, 0.000000, 0.000000, 0.000000, 0.000000, 0.000000, 0.000000, -0.004434, 0.000608, 9.813826, 0.003184, -0.016966
0.250000, -0.001657, 0.001299, 9.778661, 0.003944, 0.008101, 0.008862, 0.015777, 0.010426, 0.010426, 238.562735, 0.000000, 0.000000, 0.000000, 0.000000, 0.000000, 0.000000, -0.000844, 0.001805, 9.821007, 0.007611, -0.009708
0.300000, -0.000451, -0.001270, 9.801196, 0.007457, 0.008559, 0.004891, 0.018917, 0.012800, 0.012800, 240.227111, 0.000000, 0.000000, 0.000000, 0.000000, 0.000000, 0.000000, 0.000353, -0.002982, 9.816220, -0.007423, -0.002636
0.350000, -0.004277, -0.000143, 9.811646, 0.008679, 0.008406, 0.008404, 0.024178, 0.005417, 0.005417, 237.919197, 0.000000, 0.000000, 0.000000, 0.000000, 0.000000, 0.000000, -0.006828, 0.000608, 9.818613, -0.000835, -0.024976
0.400000, -0.005089, 0.000308, 9.815826, 0.008068, 0.003825, 0.008251, 0.026441, -0.011002, -0.011002, 237.844973, 0.000000, 0.000000, 0.000000, 0.000000, 0.000000, 0.000000, -0.005631, 0.000608, 9.818613, 0.001796, -0.029707
0.450000, -0.001824, -0.001666, 9.817498, 0.004250, -0.000757, 0.008251, 0.016166, -0.025826, -0.025826, 238.385290, 0.000000, 0.000000, 0.000000, 0.000000, 0.000000, 0.000000, 0.000353, -0.002982, 9.818613, -0.009724, -0.010644
0.500000, -0.001236, -0.000302, 9.818167, 0.000585, 0.005505, 0.006113, 0.003312, -0.022282, -0.022282, 238.233834, 0.000000, 0.000000, 0.000000, 0.000000, 0.000000, 0.000000, -0.000844, 0.000608, 9.818613, -0.001760, -0.007211
0.550000, -0.004591, -0.000474, 9.819871, 0.003792, 0.006116, 0.008404, 0.000299, -0.023647, -0.023647, 237.207766, 0.000000, 0.000000, 0.000000, 0.000000, 0.000000, 0.000000, -0.006828, -0.000589, 9.821007, -0.002764, -0.026787
0.600000, -0.002343, -0.003415, 9.819116, 0.004097, 0.005199, 0.005197, -0.005827, -0.023191, -0.023191, 239.352898, 0.000000, 0.000000, 0.000000, 0.000000, 0.000000, 0.000000, -0.000844, -0.005376, 9.818613, -0.019927, -0.013669
0.650000, -0.001443, -0.001001, 9.819533, 0.007304, 0.007643, 0.003059, -0.000198, -0.016171, -0.016171, 237.321200, 0.000000, 0.000000, 0.000000, 0.000000, 0.000000, 0.000000, -0.000844, 0.000608, 9.819810, -0.005841, -0.008421
0.700000, -0.002520, -0.000754, 9.819699, 0.003486, 0.005963, 0.011305, -0.003980, -0.015877, -0.015877, 238.751972, 0.000000, 0.000000, 0.000000, 0.000000, 0.000000, 0.000000, -0.003237, -0.000589, 9.819810, -0.004397, -0.014702
0.750000, -0.003668, -0.000655, 9.820484, 0.003334, 0.002603, 0.005960, -0.007135, -0.024612, -0.024612, 238.156030, 0.000000, 0.000000, 0.000000, 0.000000, 0.000000, 0.000000, -0.004434, -0.000589, 9.821007, -0.003819, -0.021402
0.800000, -0.004128, 0.002975, 9.820798, 0.003486, 0.000618, 0.007946, -0.004776, -0.036528, -0.036528, 237.988785, 0.000000, 0.000000, 0.000000, 0.000000, 0.000000, 0.000000, -0.004434, 0.005396, 9.821007, 0.017359, -0.024082
0.850000, -0.004312, 0.004427, 9.822359, 0.008526, 0.002298, 0.008098, 0.010491, -0.042333, -0.042333, 239.163633, 0.000000, 0.000000, 0.000000, 0.000000, 0.000000, 0.000000, -0.004434, 0.005396, 9.823400, 0.025826, -0.025150
0.900000, -0.003667, 0.004290, 9.823702, -0.000484, 0.004130, 0.010542, 0.001909, -0.041956, -0.041956, 236.655557, 0.000000, 0.000000, 0.000000, 0.000000, 0.000000, 0.000000, -0.003237, 0.004199, 9.824597, 0.025022, -0.021388
0.950000, -0.001255, -0.002228, 9.822803, 0.006388, 0.003367, 0.007029, 0.004109, -0.040737, -0.040737, 237.644678, 0.000000, 0.000000, 0.000000, 0.000000, 0.000000, 0.000000, 0.000353, -0.006573, 9.822204, -0.012993, -0.007320
1.000000, -0.003162, -0.002680, 9.824598, 0.009290, 0.005657, 0.010542, 0.012223, -0.036123, -0.036123, 237.679416, 0.000000, 0.000000, 0.000000, 0.000000, 0.000000, 0.000000, -0.004434, -0.002982, 9.825794, -0.015632, -0.018443
1.050000, -0.006080, -0.004298, 9.823879, 0.009442, 0.006726, 0.008556, 0.017610, -0.032540, -0.032540, 237.976922, 0.000000, 0.000000, 0.000000, 0.000000, 0.000000, 0.000000, -0.008025, -0.005376, 9.823400, -0.025065, -0.035459
1.100000, -0.000784, -0.002790, 9.825028, 0.003639, 0.006726, 0.008251, 0.009451, -0.024533, -0.024533, 238.630433, 0.000000, 0.000000, 0.000000, 0.000000, 0.000000, 0.000000, 0.002747, -0.001785, 9.825794, -0.016272, -0.004571
1.150000, 0.001335, -0.000751, 9.826924, 0.003486, 0.005810, 0.007335, 0.003961, -0.017984, -0.017984, 238.950827, 0.000000, 0.000000, 0.000000, 0.000000, 0.000000, 0.000000, 0.002747, 0.000608, 9.828188, -0.004380, 0.007781
1.200000, -0.001409, -0.002090, 9.826964, 0.004861, 0.003061, 0.005349, 0.001436, -0.021431, -0.021431, 237.675666, 0.000000, 0.000000, 0.000000, 0.000000, 0.000000, 0.000000, -0.003237, -0.002982, 9.826991, -0.012185, -0.008213
1.250000, 0.001085, -0.000471, 9.826262, 0.005166, 0.000007, 0.007029, 0.001355, -0.029689, -0.029689, 237.809561, 0.000000, 0.000000, 0.000000, 0.000000, 0.000000, 0.000000, 0.002747, 0.000608, 9.825794, -0.002746, 0.006325
1.300000, -0.005099, -0.002696, 9.828854, 0.000585, 0.003672, 0.006571, -0.011831, -0.032727, -0.032727, 236.874250, 0.000000, 0.000000, 0.000000, 0.000000, 0.000000, 0.000000, -0.009221, -0.004179, 9.830581, -0.015715, -0.029724
1.350000, -0.003264, -0.001431, 9.825582, 0.012802, 0.006421, 0.007029, 0.008002, -0.027081, -0.027081, 236.769883, 0.000000, 0.000000, 0.000000, 0.000000, 0.000000, 0.000000, -0.002040, -0.000589, 9.823400, -0.008347, -0.019033
1.400000, -0.001812, -0.000926, 9.827863, 0.002723, 0.004894, 0.008709, 0.000498, -0.024836, -0.024836, 237.816180, 0.000000, 0.000000, 0.000000, 0.000000, 0.000000, 0.000000, -0.000844, -0.000589, 9.829385, -0.005397, -0.010562
1.450000, -0.001949, -0.002878, 9.828776, 0.005930, 0.004130, 0.005808, 0.000489, -0.024849, -0.024849, 236.092963, 0.000000, 0.000000, 0.000000, 0.000000, 0.000000, 0.000000, -0.002040, -0.004179, 9.829385, -0.016775, -0.011361
1.500000, -0.006312, 0.001368, 9.826269, 0.007610, 0.009170, 0.007182, 0.007734, -0.015360, -0.015360, 237.869465, 0.000000, 0.000000, 0.000000, 0.000000, 0.000000, 0.000000, -0.009221, 0.004199, 9.824597, 0.007977, -0.036807
1.550000, -0.001595, -0.002678, 9.823830, 0.011580, 0.005657, 0.004433, 0.021234, -0.012583, -0.012583, 239.007495, 0.000000, 0.000000, 0.000000, 0.000000, 0.000000, 0.000000, 0.001550, -0.005376, 9.822204, -0.015621, -0.009302
1.600000, -0.001862, -0.002143, 9.823572, 0.002265, 0.004741, 0.010236, 0.009882, -0.012624, -0.012624, 238.646612, 0.000000, 0.000000, 0.000000, 0.000000, 0.000000, 0.000000, -0.002040, -0.001785, 9.823400, -0.012496, -0.010862
1.650000, -0.001251, -0.003364, 9.824187, 0.008984, 0.004588, 0.007487, 0.015995, -0.012634, -0.012634, 239.392233, 0.000000, 0.000000, 0.000000, 0.000000, 0.000000, 0.000000, -0.000844, -0.004179, 9.824597, -0.019622, -0.007297
1.700000, 0.001148, -0.002417, 9.822997, 0.006693, -0.000146, 0.008709, 0.016133, -0.023096, -0.023096, 236.903003, 0.000000, 0.000000, 0.000000, 0.000000, 0.000000, 0.000000, 0.002747, -0.001785, 9.822204, -0.014098, 0.006694
1.750000, 0.002107, -0.001320, 9.822521, 0.005013, 0.008865, 0.007946, 0.012602, -0.008747, -0.008747, 237.654143, 0.000000, 0.000000, 0.000000, 0.000000, 0.000000, 0.000000, 0.002747, -0.000589, 9.822204, -0.007700, 0.012291
1.800000, -0.001818, -0.003035, 9.822331, 0.002875, 0.003519, 0.006266, 0.002862, -0.012015, -0.012015, 238.429299, 0.000000, 0.000000, 0.000000, 0.000000, 0.000000, 0.000000, -0.004434, -0.004179, 9.822204, -0.017706, -0.010603
1.850000, -0.001233, -0.001567, 9.820818, 0.009595, 0.005352, 0.005960, 0.012226, -0.009880, -0.009880, 238.525118, 0.000000, 0.000000, 0.000000, 0.000000, 0.000000, 0.000000, -0.000844, -0.000589, 9.819810, -0.009144, -0.007195
1.900000, -0.000281, 0.000456, 9.819495, 0.005319, 0.007185, 0.010542, 0.010803, -0.002677, -0.002677, 238.242832, 0.000000, 0.000000, 0.000000, 0.000000, 0.000000, 0.000000, 0.000353, 0.001805, 9.818613, 0.002661, -0.001642
1.950000, 0.000099, -0.002325, 9.818248, 0.004861, 0.004588, 0.009015, 0.006689, -0.002662, -0.002662, 238.215443, 0.000000, 0.000000, 0.000000, 0.000000, 0.000000, 0.000000, 0.000353, -0.004179, 9.817416, -0.013568, 0.000580
2.000000, 0.001688, -0.002001, 9.819185, 0.002570, 0.003061, 0.004891, -0.002789, -0.005667, -0.005667, 236.983070, 0.000000, 0.000000, 0.000000, 0.000000, 0.000000, 0.000000, 0.002747, -0.001785, 9.819810, -0.011677, 0.009849
2.050000, 0.001605, -0.004026, 9.822432, 0.006999, 0.007185, 0.009015, -0.001058, 0.002273, 0.002273, 238.302851, 0.000000, 0.000000, 0.000000, 0.000000, 0.000000, 0.000000, 0.001550, -0.005376, 9.824597, -0.023484, 0.009363
2.100000, 0.000136, -0.002682, 9.820859, 0.006082, 0.002145, 0.005349, -0.001168, -0.004407, -0.004407, 237.679416, 0.000000, 0.000000, 0.000000, 0.000000, 0.000000, 0.000000, -0.000844, -0.001785, 9.819810, -0.015645, 0.000793
2.150000, -0.000452, 0.002165, 9.819511, 0.001196, 0.006268, 0.007946, -0.011330, -0.000068, -0.000068, 237.159163, 0.000000, 0.000000, 0.000000, 0.000000, 0.000000, 0.000000, -0.000844, 0.005396, 9.818613, 0.012630, -0.002637
2.200000, -0.002841, 0.002667, 9.820409, 0.004708, 0.005963, 0.007946, -0.011096, 0.001783, 0.001783, 238.535127, 0.000000, 0.000000, 0.000000, 0.000000, 0.000000, 0.000000, -0.004434, 0.003002, 9.821007, 0.015560, -0.016577
2.250000, -0.003797, 0.002150, 9.818613, 0.006999, 0.002756, 0.006571, -0.005134, -0.005435, -0.005435, 237.694734, 0.000000, 0.000000, 0.000000, 0.000000, 0.000000, 0.000000, -0.004434, 0.001805, 9.817416, 0.012545, -0.022157
2.300000, -0.004897, 0.001943, 9.818613, 0.005624, 0.003978, 0.008251, -0.003360, -0.009433, -0.009433, 239.396345, 0.000000, 0.000000, 0.000000, 0.000000, 0.000000, 0.000000, -0.005631, 0.001805, 9.818613, 0.011338, -0.028578
2.350000, -0.003183, -0.001012, 9.820049, 0.006693, 0.004588, 0.007946, -0.000447, -0.010639, -0.010639, 237.091972, 0.000000, 0.000000, 0.000000, 0.000000, 0.000000, 0.000000, -0.002040, -0.002982, 9.821007, -0.005906, -0.018573
2.400000, -0.004652, 0.000678, 9.819188, 0.006541, 0.005505, 0.007946, 0.002663, -0.010111, -0.010111, 238.082189, 0.000000, 0.000000, 0.000000, 0.000000, 0.000000, 0.000000, -0.005631, 0.001805, 9.818613, 0.003957, -0.027144
2.450000, -0.001649, -0.000800, 9.819561, 0.006235, 0.004283, 0.007640, 0.003963, -0.011351, -0.011351, 239.045744, 0.000000, 0.000000, 0.000000, 0.000000, 0.000000, 0.000000, 0.000353, -0.001785, 9.819810, -0.004668, -0.009621
2.500000, 0.000270, 0.000763, 9.818274, 0.004708, 0.008712, 0.009778, 0.001910, 0.000079, 0.000079, 238.283273, 0.000000, 0.000000, 0.000000, 0.000000, 0.000000, 0.000000, 0.001550, 0.001805, 9.817416, 0.004453, 0.001578
2.550000, -0.000398, -0.000766, 9.817760, 0.009137, 0.005352, 0.006266, 0.010897, 0.001405, 0.001405, 238.588852, 0.000000, 0.000000, 0.000000, 0.000000, 0.000000, 0.000000, -0.000844, -0.001785, 9.817416, -0.004471, -0.002323
2.600000, -0.000665, -0.000660, 9.817554, 0.008373, 0.003367, 0.006877, 0.017145, -0.002731, -0.002731, 238.546548, 0.000000, 0.000000, 0.000000, 0.000000, 0.000000, 0.000000, -0.000844, -0.000589, 9.817416, -0.003849, -0.003883
2.650000, 0.002100, 0.001537, 9.814599, 0.003792, 0.005505, 0.006113, 0.011850, 0.000428, 0.000428, 238.341610, 0.000000, 0.000000, 0.000000, 0.000000, 0.000000, 0.000000, 0.003944, 0.003002, 9.812629, 0.008974, 0.012259
2.700000, -0.003257, 0.001698, 9.814853, 0.003639, 0.005810, 0.005197, 0.006658, 0.001592, 0.001592, 240.633026, 0.000000, 0.000000, 0.000000, 0.000000, 0.000000, 0.000000, -0.006828, 0.001805, 9.815023, 0.009912, -0.019011
2.750000, -0.001091, 0.001044, 9.814955, 0.005777, 0.004130, 0.004280, 0.007213, -0.000780, -0.000780, 239.454028, 0.000000, 0.000000, 0.000000, 0.000000, 0.000000, 0.000000, 0.000353, 0.000608, 9.815023, 0.006095, -0.006367
2.800000, -0.003097, 0.000783, 9.814278, 0.006541, 0.002756, 0.005349, 0.009607, -0.007539, -0.007539, 239.877488, 0.000000, 0.000000, 0.000000, 0.000000, 0.000000, 0.000000, -0.004434, 0.000608, 9.813826, 0.004569, -0.018079
2.850000, -0.003899, 0.002114, 9.811134, 0.007304, 0.004436, 0.009015, 0.014433, -0.009732, -0.009732, 236.706437, 0.000000, 0.000000, 0.000000, 0.000000, 0.000000, 0.000000, -0.004434, 0.003002, 9.809039, 0.012346, -0.022771
2.900000, -0.002066, 0.001211, 9.812031, 0.008221, 0.004588, 0.008556, 0.020865, -0.010527, -0.010527, 239.454028, 0.000000, 0.000000, 0.000000, 0.000000, 0.000000, 0.000000, -0.000844, 0.000608, 9.812629, 0.007069, -0.012063
2.950000, -0.002051, 0.002285, 9.811672, 0.009748, 0.007032, 0.009320, 0.031279, -0.004810, -0.004810, 237.414293, 0.000000, 0.000000, 0.000000, 0.000000, 0.000000, 0.000000, -0.002040, 0.003002, 9.811432, 0.013345, -0.011975
3.000000, -0.003481, 0.004151, 9.812964, 0.003944, 0.005810, 0.008251, 0.026368, -0.003442, -0.003442, 238.950827, 0.000000, 0.000000, 0.000000, 0.000000, 0.000000, 0.000000, -0.004434, 0.005396, 9.813826, 0.024239, -0.020323
3.050000, -0.000462, -0.000847, 9.814199, 0.006693, 0.003978, 0.008709, 0.026811, -0.005683, -0.005683, 238.713647, 0.000000, 0.000000, 0.000000, 0.000000, 0.000000, 0.000000, 0.001550, -0.004179, 9.815023, -0.004944, -0.002699
3.100000, 0.002899, -0.002128, 9.812539, 0.008373, 0.008101, 0.010389, 0.030994, 0.004679, 0.004679, 238.893646, 0.000000, 0.000000, 0.000000, 0.000000, 0.000000, 0.000000, 0.005140, -0.002982, 9.811432, -0.012426, 0.016929
3.150000, 0.002808, -0.002641, 9.809721, 0.007151, 0.005810, 0.006877, 0.031278, 0.008174, 0.008174, 237.162531, 0.000000, 0.000000, 0.000000, 0.000000, 0.000000, 0.000000, 0.002747, -0.002982, 9.807842, -0.015423, 0.016400
3.200000, 0.002771, -0.003564, 9.810030, 0.004097, 0.000771, 0.006266, 0.022929, -0.001918, -0.001918, 238.153087, 0.000000, 0.000000, 0.000000, 0.000000, 0.000000, 0.000000, 0.002747, -0.004179, 9.810235, -0.020814, 0.016185
3.250000, 0.002757, -0.001779, 9.811589, 0.003792, 0.001229, 0.003975, 0.015101, -0.009982, -0.009982, 238.488021, 0.000000, 0.000000, 0.000000, 0.000000, 0.000000, 0.000000, 0.002747, -0.000589, 9.812629, -0.010386, 0.016097
3.300000, -0.000840, 0.000372, 9.813649, 0.005624, 0.002756, 0.006113, 0.013617, -0.014929, -0.014929, 237.654143, 0.000000, 0.000000, 0.000000, 0.000000, 0.000000, 0.000000, -0.003237, 0.001805, 9.815023, 0.002169, -0.004903
3.350000, -0.002996, -0.000205, 9.813755, 0.009137, 0.000160, 0.009320, 0.021251, -0.027303, -0.027303, 237.778341, 0.000000, 0.000000, 0.000000, 0.000000, 0.000000, 0.000000, -0.004434, -0.000589, 9.813826, -0.001194, -0.017494
3.400000, -0.003141, 0.001719, 9.813798, 0.000890, 0.006116, 0.010084, 0.007275, -0.023009, -0.023009, 238.036605, 0.000000, 0.000000, 0.000000, 0.000000, 0.000000, 0.000000, -0.003237, 0.003002, 9.813826, 0.010038, -0.018338
3.450000, -0.003917, 0.001771, 9.811660, 0.013260, 0.005810, 0.005349, 0.027136, -0.020182, -0.020182, 239.396345, 0.000000, 0.000000, 0.000000, 0.000000, 0.000000, 0.000000, -0.004434, 0.001805, 9.810235, 0.010340, -0.022873
3.500000, -0.004227, 0.001791, 9.812242, 0.007457, 0.005810, 0.007640, 0.030090, -0.017714, -0.017714, 238.341610, 0.000000, 0.000000, 0.000000, 0.000000, 0.000000, 0.000000, -0.004434, 0.001805, 9.812629, 0.010460, -0.024684
3.550000, -0.002915, -0.001073, 9.813192, 0.004097, 0.006574, 0.005960, 0.022604, -0.012850, -0.012850, 237.714342, 0.000000, 0.000000, 0.000000, 0.000000, 0.000000, 0.000000, -0.002040, -0.002982, 9.813826, -0.006264, -0.017021
3.600000, 0.001918, -0.000782, 9.811418, 0.008526, 0.008559, 0.007335, 0.027462, -0.000976, -0.000976, 238.452924, 0.000000, 0.000000, 0.000000, 0.000000, 0.000000, 0.000000, 0.005140, -0.000589, 9.810235, -0.004568, 0.011202
3.650000, -0.000457, 0.000052, 9.812145, 0.001654, 0.006574, 0.007335, 0.014030, 0.003733, 0.003733, 237.456005, 0.000000, 0.000000, 0.000000, 0.000000, 0.000000, 0.000000, -0.002040, 0.000608, 9.812629, 0.000304, -0.002669
3.700000, 0.001465, -0.001769, 9.809563, 0.011886, 0.002909, 0.007029, 0.027875, -0.000795, -0.000795, 238.156030, 0.000000, 0.000000, 0.000000, 0.000000, 0.000000, 0.000000, 0.002747, -0.002982, 9.807842, -0.010330, 0.008558
3.750000, 0.002234, -0.001061, 9.810685, 0.006846, 0.006421, 0.009167, 0.027533, 0.004687, 0.004687, 237.247842, 0.000000, 0.000000, 0.000000, 0.000000, 0.000000, 0.000000, 0.002747, -0.000589, 9.811432, -0.006194, 0.013048
3.800000, 0.002542, 0.000659, 9.811133, 0.003792, 0.003825, 0.009473, 0.019783, 0.003036, 0.003036, 237.315846, 0.000000, 0.000000, 0.000000, 0.000000, 0.000000, 0.000000, 0.002747, 0.001805, 9.811432, 0.003847, 0.014844
3.850000, 0.000511, -0.000090, 9.809158, -0.000332, 0.001992, 0.007335, 0.001316, -0.004203, -0.004203, 238.140333, 0.000000, 0.000000, 0.000000, 0.000000, 0.000000, 0.000000, -0.000844, -0.000589, 9.807842, -0.000524, 0.002982
3.900000, -0.003892, 0.001047, 9.809087, 0.008984, 0.004741, 0.007793, 0.009413, -0.005524, -0.005524, 238.519200, 0.000000, 0.000000, 0.000000, 0.000000, 0.000000, 0.000000, -0.006828, 0.001805, 9.809039, 0.006117, -0.022736
3.950000, -0.003499, 0.002938, 9.811212, 0.007762, 0.004283, 0.005960, 0.014483, -0.007835, -0.007835, 239.918542, 0.000000, 0.000000, 0.000000, 0.000000, 0.000000, 0.000000, -0.003237, 0.004199, 9.812629, 0.017158, -0.020436
4.000000, -0.003342, 0.000822, 9.812062, 0.004250, 0.007948, 0.006877, 0.008947, -0.000227, -0.000227, 238.813755, 0.000000, 0.000000, 0.000000, 0.000000, 0.000000, 0.000000, -0.003237, -0.000589, 9.812629, 0.004800, -0.019516
4.050000, -0.003997, 0.002130, 9.809530, 0.008526, 0.005047, 0.009015, 0.015719, -0.001219, -0.001219, 238.497305, 0.000000, 0.000000, 0.000000, 0.000000, 0.000000, 0.000000, -0.004434, 0.003002, 9.807842, 0.012441, -0.023348
4.100000, -0.004977, 0.002653, 9.808517, 0.008831, 0.006726, 0.007335, 0.023013, 0.001823, 0.001823, 238.466299, 0.000000, 0.000000, 0.000000, 0.000000, 0.000000, 0.000000, -0.005631, 0.003002, 9.807842, 0.015498, -0.029076
4.150000, -0.001779, 0.003580, 9.809548, 0.008526, 0.007643, 0.009778, 0.029335, 0.008376, 0.008376, 238.024396, 0.000000, 0.000000, 0.000000, 0.000000, 0.000000, 0.000000, 0.000353, 0.004199, 9.810235, 0.020913, -0.010391
4.200000, -0.000500, -0.000357, 9.810679, 0.004250, 0.004283, 0.007487, 0.022108, 0.006038, 0.006038, 239.335008, 0.000000, 0.000000, 0.000000, 0.000000, 0.000000, 0.000000, 0.000353, -0.002982, 9.811432, -0.002086, -0.002919
4.250000, 0.001448, 0.002376, 9.808977, 0.006541, 0.007643, 0.008098, 0.022616, 0.013605, 0.013605, 239.506106, 0.000000, 0.000000, 0.000000, 0.000000, 0.000000, 0.000000, 0.002747, 0.004199, 9.807842, 0.013881, 0.008459
4.300000, 0.001509, -0.000121, 9.810450, 0.007304, 0.003519, 0.008709, 0.023996, 0.009688, 0.009688, 240.449836, 0.000000, 0.000000, 0.000000, 0.000000, 0.000000, 0.000000, 0.001550, -0.001785, 9.811432, -0.000705, 0.008815
4.350000, 0.000816, -0.002556, 9.810321, 0.005777, 0.004894, 0.006418, 0.020092, 0.009402, 0.009402, 239.026481, 0.000000, 0.000000, 0.000000, 0.000000, 0.000000, 0.000000, 0.000353, -0.004179, 9.810235, -0.014926, 0.004763
4.400000, -0.000180, 0.000061, 9.813142, 0.006846, 0.004436, 0.006266, 0.020354, 0.007476, 0.007476, 238.156030, 0.000000, 0.000000, 0.000000, 0.000000, 0.000000, 0.000000, -0.000844, 0.001805, 9.815023, 0.000355, -0.001051
4.450000, -0.002014, -0.000329, 9.815707, 0.008068, 0.004894, 0.006877, 0.023607, 0.006084, 0.006084, 238.930194, 0.000000, 0.000000, 0.000000, 0.000000, 0.000000, 0.000000, -0.003237, -0.000589, 9.817416, -0.001920, -0.011758
4.500000, -0.005620, -0.000485, 9.815296, 0.002417, 0.004894, 0.006571, 0.011497, 0.003173, 0.003173, 238.892019, 0.000000, 0.000000, 0.000000, 0.000000, 0.000000, 0.000000, -0.008025, -0.000589, 9.815023, -0.002829, -0.032809
4.550000, -0.002036, 0.000889, 9.816568, 0.006541, 0.003825, 0.007487, 0.011779, -0.000896, -0.000896, 237.193034, 0.000000, 0.000000, 0.000000, 0.000000, 0.000000, 0.000000, 0.000353, 0.001805, 9.817416, 0.005190, -0.011885
4.600000, -0.005629, 0.000721, 9.819231, 0.003639, 0.004436, 0.005808, 0.004255, -0.004638, -0.004638, 238.519200, 0.000000, 0.000000, 0.000000, 0.000000, 0.000000, 0.000000, -0.008025, 0.000608, 9.821007, 0.004205, -0.032847
4.650000, -0.004912, 0.003526, 9.821015, 0.008373, 0.004588, 0.008709, 0.011064, -0.007465, -0.007465, 238.542085, 0.000000, 0.000000, 0.000000, 0.000000, 0.000000, 0.000000, -0.004434, 0.005396, 9.822204, 0.020568, -0.028658
4.700000, -0.004625, -0.000379, 9.819574, 0.009137, 0.006574, 0.007182, 0.017717, -0.004755, -0.004755, 236.808822, 0.000000, 0.000000, 0.000000, 0.000000, 0.000000, 0.000000, -0.004434, -0.002982, 9.818613, -0.002212, -0.026988
4.750000, -0.005229, 0.001649, 9.819716, 0.004403, 0.004741, 0.007946, 0.012148, -0.007432, -0.007432, 237.380757, 0.000000, 0.000000, 0.000000, 0.000000, 0.000000, 0.000000, -0.005631, 0.003002, 9.819810, 0.009624, -0.030508
4.800000, -0.005470, -0.001848, 9.817618, 0.011580, 0.005047, 0.007946, 0.024493, -0.009271, -0.009271, 238.744640, 0.000000, 0.000000, 0.000000, 0.000000, 0.000000, 0.000000, -0.005631, -0.004179, 9.816220, -0.010783, -0.031923
4.850000, -0.001976, -0.003965, 9.819651, 0.002570, 0.004436, 0.008098, 0.011007, -0.011137, -0.011137, 237.823462, 0.000000, 0.000000, 0.000000, 0.000000, 0.000000, 0.000000, 0.000353, -0.005376, 9.821007, -0.023133, -0.011530
4.900000, -0.000579, -0.003375, 9.817592, 0.009137, 0.006116, 0.005960, 0.016094, -0.007802, -0.007802, 238.242724, 0.000000, 0.000000, 0.000000, 0.000000, 0.000000, 0.000000, 0.000353, -0.002982, 9.816220, -0.019698, -0.003376
4.950000, -0.002174, -0.001703, 9.816769, 0.005624, 0.005963, 0.006571, 0.012114, -0.005804, -0.005804, 238.552065, 0.000000, 0.000000, 0.000000, 0.000000, 0.000000, 0.000000, -0.003237, -0.000589, 9.816220, -0.009941, -0.012687
5.000000, -0.001376, -0.000316, 9.817875, 0.003486, 0.005505, 0.005502, 0.003303, -0.004841, -0.004841, 238.132722, 0.000000, 0.000000, 0.000000, 0.000000, 0.000000, 0.000000, -0.000844, 0.000608, 9.818613, -0.001846, -0.008028
5.050000, -0.003211, 0.000956, 9.816164, 0.003334, 0.002603, 0.010084, -0.004715, -0.012451, -0.012451, 238.494208, 0.000016, -0.000019, 0.000028, -0.000198, 0.000235, -0.000337, -0.004434, 0.001805, 9.815023, 0.005583, -0.018741
5.100000, -0.004663, 0.001466, 9.815479, -0.000026, 0.003978, 0.005197, -0.020791, -0.016500, -0.016500, 236.826781, 0.000045, -0.000071, 0.000072, -0.000406, 0.000693, -0.000642, -0.005631, 0.001805, 9.815023, 0.008555, -0.027218
5.150000, -0.003089, 0.003105, 9.818078, -0.000942, 0.001534, 0.010084, -0.037297, -0.026070, -0.026070, 237.784765, 0.000074, -0.000165, 0.000145, -0.000486, 0.001362, -0.001090, -0.002040, 0.004199, 9.819810, 0.018123, -0.018029
5.200000, -0.002460, -0.000547, 9.818399, 0.007610, 0.000618, 0.007182, -0.031330, -0.037057, -0.037057, 238.162928, 0.000124, -0.000281, 0.000244, -0.000760, 0.001846, -0.001556, -0.002040, -0.002982, 9.818613, -0.003193, -0.014356
5.250000, -0.002208, 0.000146, 9.817809, 0.007151, 0.003061, 0.008862, -0.026639, -0.040572, -0.040572, 237.002295, 0.000190, -0.000424, 0.000366, -0.001054, 0.002336, -0.001988, -0.002040, 0.000608, 9.817416, 0.000852, -0.012887
5.300000, -0.004262, 0.000423, 9.816137, 0.004097, 0.001992, 0.007946, -0.030196, -0.047473, -0.047473, 237.724356, 0.000284, -0.000605, 0.000505, -0.001474, 0.002963, -0.002328, -0.005631, 0.000608, 9.815023, 0.002471, -0.024876
5.350000, -0.002929, -0.000902, 9.814750, 0.004097, 0.002909, 0.009015, -0.033970, -0.050784, -0.050784, 238.637620, 0.000399, -0.000817, 0.000656, -0.001877, 0.003535, -0.002591, -0.002040, -0.001785, 9.813826, -0.005265, -0.017099
5.400000, -0.004550, 0.001440, 9.814914, 0.005624, 0.002298, 0.007335, -0.032310, -0.056077, -0.056077, 238.836276, 0.000541, -0.001075, 0.000822, -0.002339, 0.004278, -0.002863, -0.005631, 0.003002, 9.815023, 0.008408, -0.026562
5.450000, -0.005917, 0.002377, 9.817133, 0.007762, 0.003672, 0.008709, -0.024581, -0.057840, -0.057840, 237.612246, 0.000717, -0.001376, 0.001013, -0.002891, 0.005051, -0.003257, -0.006828, 0.003002, 9.818613, 0.013874, -0.034532
5.500000, -0.002155, 0.002034, 9.816585, 0.005930, 0.003367, 0.007029, -0.022325, -0.058576, -0.058576, 237.663744, 0.000911, -0.001710, 0.001225, -0.003294, 0.005686, -0.003623, 0.000353, 0.001805, 9.816220, 0.011871, -0.012577
5.550000, -0.004240, 0.003333, 9.816366, 0.006846, 0.005810, 0.009167, -0.017144, -0.053555, -0.053555, 237.823462, 0.001132, -0.002084, 0.001456, -0.003743, 0.006377, -0.003977, -0.005631, 0.004199, 9.816220, 0.019453, -0.024751
5.600000, -0.002920, 0.000262, 9.816278, 0.004708, 0.004283, 0.009625, -0.019250, -0.052298, -0.052298, 239.471540, 0.001378, -0.002481, 0.001706, -0.004199, 0.006893, -0.004325, -0.002040, -0.001785, 9.816220, 0.001528, -0.017046
5.650000, -0.002392, 0.000470, 9.817679, 0.008068, 0.001381, 0.005808, -0.012141, -0.058496, -0.058496, 237.782199, 0.001653, -0.002904, 0.001981, -0.004708, 0.007377, -0.004751, -0.002040, 0.000608, 9.818613, 0.002741, -0.013962
5.700000, -0.004336, 0.002707, 9.820394, 0.002112, 0.000465, 0.009473, -0.020335, -0.067378, -0.067378, 238.503500, 0.001961, -0.003376, 0.002293, -0.005275, 0.008135, -0.005326, -0.005631, 0.004199, 9.822204, 0.015794, -0.025295
5.750000, -0.002240, -0.000707, 9.820044, 0.006541, 0.002603, 0.007946, -0.017558, -0.068896, -0.068896, 239.104955, 0.002304, -0.003871, 0.002635, -0.005870, 0.008655, -0.005883, -0.000844, -0.002982, 9.819810, -0.004122, -0.013072
5.800000, -0.002120, -0.001354, 9.819185, 0.004097, 0.000923, 0.005349, -0.021709, -0.074540, -0.074540, 238.761559, 0.002682, -0.004396, 0.003003, -0.006503, 0.009202, -0.006392, -0.002040, -0.001785, 9.818613, -0.007900, -0.012373
5.850000, -0.004227, 0.000541, 9.818124, 0.007457, 0.004436, 0.007640, -0.015779, -0.071189, -0.071189, 238.256054, 0.003099, -0.004959, 0.003395, -0.007182, 0.009834, -0.006842, -0.005631, 0.001805, 9.817416, 0.003160, -0.024666
5.900000, -0.004351, 0.002736, 9.819854, -0.000790, 0.003061, 0.005808, -0.031144, -0.071652, -0.071652, 239.619216, 0.003542, -0.005576, 0.003819, -0.007730, 0.010699, -0.007386, -0.004434, 0.004199, 9.821007, 0.015963, -0.025388
5.950000, -0.004401, 0.002177, 9.819827, 0.008679, 0.002450, 0.006724, -0.020368, -0.073587, -0.073587, 238.625836, 0.004023, -0.006232, 0.004274, -0.008367, 0.011462, -0.007930, -0.004434, 0.001805, 9.819810, 0.012704, -0.025678
6.000000, -0.004421, -0.000200, 9.820535, 0.014024, 0.005047, 0.005349, 0.002835, -0.068366, -0.068366, 238.145809, 0.004554, -0.006905, 0.004763, -0.009150, 0.011901, -0.008515, -0.004434, -0.001785, 9.821007, -0.001169, -0.025792
6.050000, -0.005865, -0.002588, 9.820100, 0.003486, 0.003519, 0.008556, -0.004680, -0.068089, -0.068089, 238.892019, 0.005136, -0.007602, 0.005283, -0.010031, 0.012328, -0.009076, -0.006828, -0.004179, 9.819810, -0.015097, -0.034220
6.100000, -0.004288, 0.000048, 9.821362, 0.007304, 0.004130, 0.007182, -0.000395, -0.065428, -0.065428, 239.026481, 0.005754, -0.008325, 0.005840, -0.010761, 0.012785, -0.009706, -0.003237, 0.001805, 9.822204, 0.000280, -0.025018
6.150000, -0.005812, 0.003256, 9.823303, 0.003944, 0.003367, 0.005808, -0.003939, -0.065537, -0.065537, 239.007495, 0.006408, -0.009091, 0.006439, -0.011452, 0.013466, -0.010443, -0.006828, 0.005396, 9.824597, 0.018994, -0.033899
6.200000, -0.005703, -0.000487, 9.822643, 0.005013, 0.003367, 0.006266, -0.005947, -0.065499, -0.065499, 238.851951, 0.007108, -0.009881, 0.007077, -0.012237, 0.013983, -0.011144, -0.005631, -0.002982, 9.822204, -0.002839, -0.033268
6.250000, -0.003506, 0.001606, 9.822380, 0.000279, 0.004741, 0.005960, -0.019436, -0.060771, -0.060771, 239.026481, 0.007830, -0.010709, 0.007752, -0.012752, 0.014620, -0.011830, -0.002040, 0.003002, 9.822204, 0.009371, -0.020449
6.300000, -0.000472, 0.000289, 9.823710, 0.004097, 0.001229, 0.007182, -0.022288, -0.064271, -0.064271, 236.779688, 0.008574, -0.011566, 0.008473, -0.013177, 0.015149, -0.012591, 0.001550, -0.000589, 9.824597, 0.001688, -0.002754
6.350000, -0.001413, 0.001199, 9.822088, 0.001959, 0.005352, 0.007487, -0.030130, -0.056810, -0.056810, 238.048989, 0.009333, -0.012458, 0.009227, -0.013518, 0.015774, -0.013261, -0.002040, 0.001805, 9.821007, 0.006993, -0.008244
6.400000, -0.003944, 0.001563, 9.822876, 0.002265, 0.003825, 0.004433, -0.036312, -0.054916, -0.054916, 238.488021, 0.010116, -0.013395, 0.010021, -0.013922, 0.016529, -0.013974, -0.005631, 0.001805, 9.823400, 0.009114, -0.023004
6.450000, -0.007828, 0.000990, 9.823909, -0.003233, 0.005199, 0.007182, -0.056726, -0.051117, -0.051117, 238.274658, 0.010935, -0.014404, 0.010868, -0.014398, 0.017527, -0.014751, -0.010418, 0.000608, 9.824597, 0.005774, -0.045658
6.500000, -0.006510, 0.000761, 9.821449, -0.000637, 0.003825, 0.007029, -0.068654, -0.050656, -0.050656, 237.654143, 0.011764, -0.015463, 0.011740, -0.014751, 0.018562, -0.015386, -0.005631, 0.000608, 9.819810, 0.004439, -0.037977
6.550000, -0.003828, 0.001387, 9.821902, 0.005930, 0.001687, 0.005960, -0.061799, -0.054695, -0.054695, 239.007164, 0.012607, -0.016575, 0.012651, -0.015026, 0.019515, -0.016047, -0.002040, 0.001805, 9.822204, 0.008093, -0.022332
6.600000, -0.005628, 0.001638, 9.822083, 0.005013, 0.006116, 0.007335, -0.057574, -0.047380, -0.047380, 237.799008, 0.013467, -0.017736, 0.013597, -0.015340, 0.020459, -0.016717, -0.006828, 0.001805, 9.822204, 0.009555, -0.032830
6.650000, -0.004912, -0.001134, 9.822873, 0.004555, 0.006421, 0.007793, -0.055892, -0.039448, -0.039448, 238.567792, 0.014345, -0.018935, 0.014585, -0.015645, 0.021199, -0.017431, -0.004434, -0.002982, 9.823400, -0.006615, -0.028649
6.700000, -0.005343, -0.000089, 9.822472, -0.000026, 0.002450, 0.005808, -0.065884, -0.042790, -0.042790, 236.878293, 0.015234, -0.020184, 0.015609, -0.015916, 0.022097, -0.018122, -0.005631, 0.000608, 9.822204, -0.000518, -0.031168
6.750000, -0.004080, 0.001766, 9.823747, 0.005166, 0.000312, 0.008862, -0.060370, -0.050968, -0.050968, 239.083871, 0.016139, -0.021490, 0.016679, -0.016167, 0.023044, -0.018885, -0.003237, 0.003002, 9.824597, 0.010298, -0.023794
6.800000, -0.003574, 0.001789, 9.826411, -0.001859, 0.003519, 0.006724, -0.073677, -0.049735, -0.049735, 237.103232, 0.017048, -0.022854, 0.017801, -0.016316, 0.024077, -0.019793, -0.003237, 0.001805, 9.828188, 0.010433, -0.020841
6.850000, -0.004808, 0.003953, 9.826759, 0.001654, 0.002909, 0.008098, -0.075496, -0.050667, -0.050667, 238.024396, 0.017964, -0.024287, 0.018975, -0.016458, 0.025267, -0.020721, -0.005631, 0.005396, 9.826991, 0.023048, -0.028035
6.900000, -0.006020, 0.002664, 9.826180, 0.003334, 0.003978, 0.008251, -0.073002, -0.049157, -0.049157, 237.871740, 0.018898, -0.025786, 0.020201, -0.016694, 0.026408, -0.021619, -0.006828, 0.001805, 9.825794, 0.015535, -0.035102
6.950000, -0.005068, 0.001431, 9.823076, 0.002417, 0.002145, 0.007029, -0.073404, -0.052164, -0.052164, 238.188819, 0.019844, -0.027338, 0.021460, -0.016944, 0.027477, -0.022342, -0.004434, 0.000608, 9.821007, 0.008344, -0.029563
7.000000, -0.006124, 0.004528, 9.823989, 0.005624, 0.003061, 0.007640, -0.063691, -0.052911, -0.052911, 238.437491, 0.020806, -0.028960, 0.022764, -0.017207, 0.028650, -0.023117, -0.006828, 0.006592, 9.824597, 0.026406, -0.035717
7.050000, -0.003674, 0.002894, 9.823636, 0.008068, 0.003825, 0.007029, -0.048675, -0.050464, -0.050464, 238.319486, 0.021782, -0.030626, 0.024111, -0.017459, 0.029542, -0.023874, -0.002040, 0.001805, 9.823400, 0.016880, -0.021428
7.100000, -0.004848, 0.003677, 9.824931, 0.003334, 0.000771, 0.005502, -0.046800, -0.056722, -0.056722, 237.654143, 0.022781, -0.032348, 0.025506, -0.017802, 0.030522, -0.024702, -0.005631, 0.004199, 9.825794, 0.021442, -0.028273
7.150000, -0.006036, 0.000399, 9.824731, 0.011428, 0.003978, 0.006418, -0.024835, -0.054447, -0.054447, 237.411336, 0.023817, -0.034097, 0.026944, -0.018389, 0.031192, -0.025519, -0.006828, -0.001785, 9.824597, 0.002330, -0.035200
7.200000, -0.006511, 0.001243, 9.823214, 0.007304, 0.003367, 0.005655, -0.014995, -0.054112, -0.054112, 237.454107, 0.024890, -0.035883, 0.028422, -0.019020, 0.031836, -0.026252, -0.006828, 0.001805, 9.822204, 0.007249, -0.037977
7.250000, -0.008855, 0.000144, 9.821172, 0.007915, -0.000298, 0.008862, -0.004682, -0.064493, -0.064493, 236.805317, 0.026020, -0.037700, 0.029929, -0.019927, 0.032467, -0.026870, -0.010418, -0.000589, 9.819810, 0.000840, -0.051661
7.300000, -0.007639, 0.001859, 9.823227, 0.004403, 0.007185, 0.006724, -0.003689, -0.053694, -0.053694, 235.731668, 0.027188, -0.039556, 0.031484, -0.020646, 0.033084, -0.027605, -0.006828, 0.003002, 9.824597, 0.010841, -0.044555
7.350000, -0.004998, 0.001827, 9.823331, 0.011275, 0.006268, 0.004586, 0.015477, -0.044954, -0.044954, 237.498536, 0.028388, -0.041424, 0.033080, -0.021267, 0.033422, -0.028346, -0.003237, 0.001805, 9.823400, 0.010653, -0.029151
7.400000, -0.006096, 0.001814, 9.820500, 0.006235, 0.001840, 0.005960, 0.019834, -0.049040, -0.049040, 238.717346, 0.029628, -0.043308, 0.034702, -0.021994, 0.033778, -0.028928, -0.006828, 0.001805, 9.818613, 0.010581, -0.035565
7.450000, -0.005817, 0.000372, 9.820086, 0.008526, 0.004283, 0.004891, 0.029285, -0.046184, -0.046184, 237.788602, 0.030912, -0.045196, 0.036351, -0.022775, 0.033968, -0.029486, -0.005631, -0.000589, 9.819810, 0.002172, -0.033939
7.500000, -0.005705, 0.001950, 9.821357, 0.009442, 0.005199, 0.006724, 0.041069, -0.041027, -0.041027, 237.869465, 0.032239, -0.047093, 0.038040, -0.023524, 0.034107, -0.030116, -0.005631, 0.003002, 9.822204, 0.011376, -0.033284
7.550000, -0.004943, -0.000291, 9.820429, 0.009900, 0.003061, 0.006571, 0.052128, -0.041568, -0.041568, 236.064359, 0.033617, -0.048983, 0.039763, -0.024365, 0.034034, -0.030696, -0.004434, -0.001785, 9.819810, -0.001699, -0.028837
7.600000, -0.005356, 0.002403, 9.824366, 0.005624, 0.002756, 0.007487, 0.052042, -0.043022, -0.043022, 237.694734, 0.035033, -0.050877, 0.041531, -0.025155, 0.034108, -0.031492, -0.005631, 0.004199, 9.826991, 0.014013, -0.031234
7.650000, -0.005521, 0.002762, 9.824505, 0.007151, 0.002603, 0.004433, 0.056058, -0.044809, -0.044809, 237.788602, 0.036502, -0.052780, 0.043351, -0.025979, 0.034181, -0.032298, -0.005631, 0.003002, 9.824597, 0.016109, -0.032197
7.700000, -0.004869, 0.002188, 9.822406, 0.005624, 0.006879, 0.006418, 0.055360, -0.034807, -0.034807, 237.391707, 0.038006, -0.054678, 0.045203, -0.026705, 0.034163, -0.032987, -0.004434, 0.001805, 9.821007, 0.012762, -0.028401
7.750000, -0.005326, 0.001240, 9.823003, 0.005472, 0.003519, 0.007640, 0.053775, -0.034639, -0.034639, 237.739311, 0.039551, -0.056571, 0.047093, -0.027470, 0.034126, -0.033708, -0.005631, 0.000608, 9.823400, 0.007233, -0.031066
7.800000, -0.003355, 0.002297, 9.823241, 0.000737, 0.007337, 0.006113, 0.040082, -0.023493, -0.023493, 237.669814, 0.041118, -0.058468, 0.049028, -0.027953, 0.034133, -0.034444, -0.002040, 0.003002, 9.823400, 0.013399, -0.019567
7.850000, -0.006875, 0.002720, 9.823337, 0.002265, 0.006268, 0.007182, 0.031566, -0.017533, -0.017533, 237.254542, 0.042714, -0.060376, 0.051001, -0.028495, 0.034302, -0.035184, -0.009221, 0.003002, 9.823400, 0.015865, -0.040098
7.900000, -0.004692, 0.002171, 9.825529, 0.003639, 0.006574, 0.009167, 0.027045, -0.010322, -0.010322, 236.499915, 0.044327, -0.062286, 0.053025, -0.028871, 0.034380, -0.036046, -0.003237, 0.001805, 9.826991, 0.012660, -0.027362
7.950000, -0.005974, 0.001951, 9.822816, 0.001043, 0.006116, 0.005655, 0.015841, -0.005471, -0.005471, 237.823462, 0.045956, -0.064206, 0.055082, -0.029216, 0.034551, -0.036756, -0.006828, 0.001805, 9.821007, 0.011383, -0.034843
8.000000, -0.006486, 0.004018, 9.823885, 0.007151, 0.005810, 0.008404, 0.022553, -0.002099, -0.002099, 237.559029, 0.047604, -0.066142, 0.057187, -0.029532, 0.034764, -0.037527, -0.006828, 0.005396, 9.824597, 0.023433, -0.037829
8.050000, -0.009563, 0.001972, 9.824312, 0.006388, 0.005199, 0.007182, 0.025853, -0.002039, -0.002039, 237.882665, 0.049290, -0.068088, 0.059338, -0.030069, 0.034946, -0.038322, -0.011615, 0.000608, 9.824597, 0.011501, -0.055774
8.100000, -0.007204, 0.001154, 9.825201, 0.001043, 0.005505, 0.005960, 0.014339, -0.000302, -0.000302, 238.724497, 0.050992, -0.070042, 0.061537, -0.030448, 0.035102, -0.039166, -0.005631, 0.000608, 9.825794, 0.006728, -0.042010
8.150000, -0.010569, 0.000108, 9.825557, -0.000790, 0.004741, 0.008098, -0.001651, -0.002303, -0.002303, 237.575761, 0.052721, -0.072017, 0.063780, -0.030948, 0.035448, -0.040029, -0.012812, -0.000589, 9.825794, 0.000632, -0.061629
8.200000, -0.009760, -0.001028, 9.827854, 0.005777, 0.003519, 0.008556, 0.000473, -0.007212, -0.007212, 238.096417, 0.054483, -0.074006, 0.066082, -0.031495, 0.035725, -0.041019, -0.009221, -0.001785, 9.829385, -0.005993, -0.056902
8.250000, -0.006565, 0.002108, 9.827336, 0.007762, 0.003825, 0.007335, 0.009047, -0.009700, -0.009700, 237.048200, 0.056260, -0.076010, 0.068438, -0.031863, 0.035997, -0.041980, -0.004434, 0.004199, 9.826991, 0.012290, -0.038273
8.300000, -0.005286, 0.001208, 9.824975, 0.001806, 0.007796, 0.009320, 0.000810, -0.001002, -0.001002, 237.619322, 0.058045, -0.078023, 0.070834, -0.032086, 0.036210, -0.042810, -0.004434, 0.000608, 9.823400, 0.007045, -0.030828
8.350000, -0.005493, 0.004439, 9.822594, 0.012955, 0.003978, 0.007487, 0.024166, -0.003252, -0.003252, 238.811172, 0.059845, -0.080045, 0.073263, -0.032359, 0.036404, -0.043508, -0.005631, 0.006592, 9.821007, 0.025891, -0.032042
8.400000, -0.006294, 0.003577, 9.825232, 0.006235, 0.007337, 0.006571, 0.027596, 0.003143, 0.003143, 238.406851, 0.061667, -0.082076, 0.075748, -0.032663, 0.036521, -0.044354, -0.006828, 0.003002, 9.826991, 0.020857, -0.036703
8.450000, -0.006614, 0.003232, 9.824133, 0.005777, 0.004283, 0.005502, 0.029385, 0.000709, 0.000709, 238.399755, 0.063506, -0.084108, 0.078270, -0.033020, 0.036630, -0.045137, -0.006828, 0.003002, 9.823400, 0.018848, -0.038575
8.500000, -0.005306, 0.003094, 9.827284, 0.007610, 0.003672, 0.008404, 0.035810, -0.002707, -0.002707, 237.952372, 0.065367, -0.086141, 0.080853, -0.033381, 0.036659, -0.046095, -0.004434, 0.003002, 9.829385, 0.018038, -0.030936
8.550000, -0.007655, 0.000166, 9.824954, 0.006999, 0.007185, 0.006877, 0.038811, 0.002340, 0.002340, 238.796112, 0.067267, -0.088172, 0.083485, -0.033915, 0.036570, -0.046926, -0.009221, -0.001785, 9.823400, 0.000970, -0.044643
8.600000, -0.007159, 0.004022, 9.826894, 0.009748, 0.005657, 0.008556, 0.050444, 0.003043, 0.003043, 238.503500, 0.069186, -0.090199, 0.086166, -0.034363, 0.036550, -0.047863, -0.006828, 0.006592, 9.828188, 0.023450, -0.041739
8.650000, -0.004806, 0.004128, 9.826234, 0.007915, 0.003825, 0.003670, 0.056319, -0.000271, -0.000271, 238.047987, 0.071125, -0.092218, 0.088897, -0.034755, 0.036435, -0.048764, -0.003237, 0.004199, 9.825794, 0.024070, -0.028023
8.700000, -0.006019, 0.003452, 9.823098, 0.005624, 0.005199, 0.006113, 0.055296, -0.000303, -0.000303, 238.436160, 0.073096, -0.094234, 0.091668, -0.035219, 0.036332, -0.049492, -0.006828, 0.003002, 9.821007, 0.020136, -0.035107
8.750000, -0.007940, 0.000310, 9.823997, 0.004097, 0.005505, 0.006724, 0.048833, -0.000458, -0.000458, 238.166019, 0.075103, -0.096240, 0.094482, -0.035834, 0.036190, -0.050269, -0.009221, -0.001785, 9.824597, 0.001806, -0.046310
8.800000, -0.006555, 0.000489, 9.820767, 0.003486, 0.004588, 0.007182, 0.041174, -0.002562, -0.002562, 237.314218, 0.077133, -0.098238, 0.097318, -0.036357, 0.036089, -0.050866, -0.005631, 0.000608, 9.818613, 0.002852, -0.038241
8.850000, -0.005282, 0.002715, 9.823783, 0.005777, 0.002603, 0.008709, 0.041017, -0.009321, -0.009321, 238.731010, 0.079185, -0.100238, 0.100200, -0.036807, 0.036090, -0.051630, -0.004434, 0.004199, 9.825794, 0.015833, -0.030809
8.900000, -0.003337, 0.002169, 9.824990, 0.003334, 0.007796, 0.004586, 0.034083, -0.001026, -0.001026, 239.084415, 0.081248, -0.102232, 0.103131, -0.037080, 0.036021, -0.052461, -0.002040, 0.001805, 9.825794, 0.012648, -0.019462
8.950000, -0.005432, -0.000204, 9.824754, 0.008526, 0.001992, 0.005960, 0.040339, -0.009698, -0.009698, 238.407283, 0.083349, -0.104219, 0.106108, -0.037623, 0.035895, -0.053278, -0.006828, -0.001785, 9.824597, -0.001188, -0.031676
9.000000, -0.004833, 0.000283, 9.825378, 0.007762, 0.003825, 0.008862, 0.044196, -0.012669, -0.012669, 239.731570, 0.085528, -0.106242, 0.109201, -0.038179, 0.035755, -0.054150, -0.004434, 0.000608, 9.825794, 0.001653, -0.028184
9.050000, -0.004594, 0.001914, 9.823473, 0.006082, 0.006421, 0.008556, 0.043898, -0.008476, -0.008476, 238.634928, 0.087685, -0.108219, 0.112269, -0.038628, 0.035668, -0.054898, -0.004434, 0.003002, 9.822204, 0.011166, -0.026793
9.100000, -0.005216, 0.002567, 9.822712, 0.000737, 0.006116, 0.009015, 0.029641, -0.005730, -0.005730, 239.598626, 0.089867, -0.110211, 0.115386, -0.038996, 0.035731, -0.055605, -0.005631, 0.003002, 9.822204, 0.014973, -0.030425
9.150000, -0.004029, 0.002110, 9.824561, 0.007610, 0.001534, 0.005349, 0.034425, -0.014889, -0.014889, 237.220559, 0.092070, -0.112198, 0.118544, -0.039418, 0.035745, -0.056415, -0.003237, 0.001805, 9.825794, 0.012304, -0.023496
9.200000, -0.002836, 0.000491, 9.826019, 0.002265, 0.001381, 0.005655, 0.023914, -0.023275, -0.023275, 238.913190, 0.094293, -0.114185, 0.121750, -0.039845, 0.035774, -0.057304, -0.002040, -0.000589, 9.826991, 0.002862, -0.016536
9.250000, -0.003077, 0.003434, 9.823012, 0.003181, 0.005963, 0.006266, 0.017836, -0.018976, -0.018976, 238.000490, 0.096527, -0.116185, 0.124987, -0.040133, 0.035976, -0.058025, -0.003237, 0.005396, 9.821007, 0.020028, -0.017946
9.300000, -0.005327, 0.001738, 9.826117, 0.009442, 0.004130, 0.004739, 0.028079, -0.020831, -0.020831, 238.143020, 0.098796, -0.118191, 0.128281, -0.040643, 0.036091, -0.058919, -0.006828, 0.000608, 9.828188, 0.010136, -0.031064
9.350000, -0.006946, -0.000376, 9.825923, 0.005930, 0.003978, 0.006571, 0.027275, -0.023686, -0.023686, 237.660346, 0.101104, -0.120198, 0.131620, -0.041309, 0.036174, -0.059802, -0.008025, -0.001785, 9.825794, -0.002192, -0.040501
9.400000, -0.004721, 0.003087, 9.825128, 0.001959, 0.003672, 0.006418, 0.017425, -0.026219, -0.026219, 237.871740, 0.103429, -0.122226, 0.135005, -0.041740, 0.036448, -0.060640, -0.003237, 0.005396, 9.824597, 0.018002, -0.027529
9.450000, -0.003831, 0.002318, 9.824809, 0.008373, 0.004894, 0.005502, 0.024982, -0.024941, -0.024941, 237.632717, 0.105781, -0.124260, 0.138436, -0.042179, 0.036593, -0.061461, -0.003237, 0.001805, 9.824597, 0.013517, -0.022339
9.500000, -0.004911, 0.002010, 9.823964, 0.003486, 0.007796, 0.009473, 0.018852, -0.016528, -0.016528, 238.269569, 0.108152, -0.126302, 0.141907, -0.042580, 0.036762, -0.062235, -0.005631, 0.001805, 9.823400, 0.011724, -0.028641
9.550000, -0.006779, 0.001887, 9.823626, 0.005930, 0.004283, 0.005960, 0.019583, -0.018902, -0.018902, 238.172553, 0.110563, -0.128365, 0.145431, -0.043096, 0.036986, -0.062993, -0.008025, 0.001805, 9.823400, 0.011006, -0.039539
9.600000, -0.002500, 0.002556, 9.825645, 0.008679, 0.006421, 0.007487, 0.027814, -0.013629, -0.013629, 238.552065, 0.112982, -0.130423, 0.149004, -0.043390, 0.037023, -0.063862, 0.000353, 0.003002, 9.826991, 0.014904, -0.014577
9.650000, -0.003660, 0.003542, 9.825734, 0.006235, 0.005505, 0.007946, 0.029344, -0.011686, -0.011686, 238.472759, 0.115416, -0.132486, 0.152621, -0.043700, 0.037119, -0.064735, -0.004434, 0.004199, 9.825794, 0.020652, -0.021344
9.700000, -0.004125, 0.004654, 9.823616, 0.008068, 0.004741, 0.007029, 0.036077, -0.012142, -0.012142, 238.269569, 0.117868, -0.134553, 0.156273, -0.044038, 0.037228, -0.065490, -0.004434, 0.005396, 9.822204, 0.027144, -0.024057
9.750000, -0.005028, 0.002227, 9.822769, 0.007457, 0.007032, 0.006418, 0.039608, -0.006919, -0.006919, 237.906614, 0.120343, -0.136613, 0.159961, -0.044464, 0.037194, -0.066198, -0.005631, 0.000608, 9.822204, 0.012987, -0.029331
9.800000, -0.003236, 0.001974, 9.827456, 0.001654, 0.006421, 0.007182, 0.027303, -0.002989, -0.002989, 239.007818, 0.122827, -0.138672, 0.163708, -0.044719, 0.037176, -0.067165, -0.002040, 0.001805, 9.830581, 0.011507, -0.018864
9.850000, -0.004673, 0.001154, 9.825023, 0.005166, 0.004283, 0.007793, 0.024825, -0.005691, -0.005691, 236.248407, 0.125339, -0.140737, 0.167505, -0.045076, 0.037195, -0.067998, -0.005631, 0.000608, 9.823400, 0.006732, -0.027250
9.900000, -0.002375, 0.002263, 9.826204, 0.006541, 0.005505, 0.007182, 0.026606, -0.004016, -0.004016, 236.153001, 0.127857, -0.142798, 0.171352, -0.045288, 0.037176, -0.068897, -0.000844, 0.003002, 9.826991, 0.013195, -0.013850
9.950000, -0.000738, -0.000166, 9.823086, 0.010969, 0.004894, 0.008709, 0.038901, -0.003402, -0.003402, 236.522984, 0.130388, -0.144835, 0.175230, -0.045551, 0.036894, -0.069622, 0.000353, -0.001785, 9.821007, -0.000969, -0.004306
10.000000, -0.002238, 0.000298, 9.823993, 0.011886, 0.005505, 0.008862, 0.052796, -0.001869, -0.001869, 236.992547, 0.132953, -0.146858, 0.179166, -0.045930, 0.036557, -0.070400, -0.003237, 0.000608, 9.824597, 0.001741, -0.013051
10.050000, -0.004992, 0.001921, 9.822919, 0.004250, 0.008254, 0.005808, 0.045968, 0.005608, 0.005608, 237.965330, 0.135535, -0.148876, 0.183137, -0.046296, 0.036396, -0.071118, -0.006828, 0.003002, 9.822204, 0.011202, -0.029116
10.100000, -0.001067, 0.001133, 9.822490, 0.008068, 0.002603, 0.008404, 0.049329, -0.000847, -0.000847, 236.834012, 0.138129, -0.150872, 0.187145, -0.046570, 0.036088, -0.071811, 0.001550, 0.000608, 9.822204, 0.006610, -0.006222
10.150000, -0.003087, 0.000818, 9.820882, 0.011275, 0.004130, 0.007487, 0.060681, -0.003666, -0.003666, 238.211423, 0.140749, -0.152844, 0.191176, -0.047028, 0.035748, -0.072414, -0.004434, 0.000608, 9.819810, 0.004773, -0.018011
10.200000, -0.005332, 0.003565, 9.820239, 0.010206, 0.004588, 0.006571, 0.069386, -0.006078, -0.006078, 237.644678, 0.143408, -0.154814, 0.195247, -0.047574, 0.035546, -0.072983, -0.006828, 0.005396, 9.819810, 0.020797, -0.031107
10.250000, -0.004793, 0.002509, 9.819982, 0.007457, 0.002603, 0.007640, 0.069555, -0.013412, -0.013412, 238.811172, 0.146096, -0.156765, 0.199339, -0.048185, 0.035314, -0.073536, -0.004434, 0.001805, 9.819810, 0.014638, -0.027966
10.300000, -0.008886, 0.003523, 9.823469, -0.001248, 0.004741, 0.008098, 0.046916, -0.016352, -0.016352, 236.776374, 0.148824, -0.158734, 0.203479, -0.048867, 0.035448, -0.074283, -0.011615, 0.004199, 9.825794, 0.020547, -0.051829
10.350000, -0.005497, 0.001056, 9.824146, 0.010511, 0.003672, 0.007487, 0.055991, -0.020536, -0.020536, 236.744101, 0.151604, -0.160699, 0.207684, -0.049546, 0.035314, -0.075071, -0.003237, -0.000589, 9.824597, 0.006158, -0.032059
10.400000, -0.004859, 0.001505, 9.823699, 0.008679, 0.006421, 0.008098, 0.059582, -0.016875, -0.016875, 237.753929, 0.154420, -0.162653, 0.211935, -0.050171, 0.035135, -0.075834, -0.004434, 0.001805, 9.823400, 0.008780, -0.028341
10.450000, -0.006758, 0.002403, 9.822802, 0.009137, 0.006421, 0.005349, 0.064365, -0.014347, -0.014347, 237.114031, 0.157788, -0.164941, 0.216988, -0.050984, 0.034981, -0.076673, -0.008025, 0.003002, 9.822204, 0.014018, -0.039422
10.500000, -0.004646, 0.000608, 9.822443, 0.002570, 0.005505, 0.006571, 0.050454, -0.013590, -0.013590, 236.914455, 0.160675, -0.166875, 0.221316, -0.051553, 0.034812, -0.077366, -0.003237, -0.000589, 9.822204, 0.003547, -0.027099
10.550000, -0.005237, 0.000608, 9.822299, 0.007151, 0.002756, 0.006571, 0.049593, -0.020473, -0.020473, 237.575761, 0.163600, -0.168804, 0.225682, -0.052200, 0.034703, -0.078050, -0.005631, 0.000608, 9.822204, 0.003548, -0.030548
10.600000, -0.004037, 0.001326, 9.822242, 0.004097, 0.006268, 0.008556, 0.040877, -0.017039, -0.017039, 239.274855, 0.166549, -0.170732, 0.230085, -0.052696, 0.034644, -0.078732, -0.003237, 0.001805, 9.822204, 0.007737, -0.023550
10.650000, -0.002121, 0.003050, 9.822219, 0.008068, 0.007948, 0.006266, 0.043992, -0.008592, -0.008592, 237.592118, 0.169498, -0.172646, 0.234510, -0.052998, 0.034540, -0.079410, -0.000844, 0.004199, 9.822204, 0.017790, -0.012373
10.700000, -0.002073, 0.001585, 9.820055, 0.008373, 0.004588, 0.008404, 0.046972, -0.009672, -0.009672, 237.566957, 0.172467, -0.174545, 0.238959, -0.053365, 0.034348, -0.079967, -0.002040, 0.000608, 9.818613, 0.009247, -0.012093
10.750000, -0.005644, 0.004589, 9.822781, 0.003944, 0.004130, 0.007335, 0.039186, -0.013446, -0.013446, 236.870265, 0.175466, -0.176464, 0.243459, -0.053801, 0.034486, -0.080677, -0.008025, 0.006592, 9.824597, 0.026769, -0.032920
10.800000, -0.001328, -0.002108, 9.824589, 0.003944, 0.004283, 0.005197, 0.029032, -0.014713, -0.014713, 237.651009, 0.178484, -0.178359, 0.248003, -0.054192, 0.034269, -0.081486, 0.001550, -0.006573, 9.825794, -0.012293, -0.007742
10.850000, 0.000399, 0.001676, 9.825312, 0.007610, 0.005047, 0.006877, 0.030878, -0.013090, -0.013090, 237.847705, 0.181503, -0.180248, 0.252588, -0.054386, 0.034154, -0.082335, 0.001550, 0.004199, 9.825794, 0.009774, 0.002327
10.900000, -0.004655, 0.001035, 9.827756, 0.009442, 0.006726, 0.008709, 0.037106, -0.009287, -0.009287, 236.931506, 0.184587, -0.182156, 0.257283, -0.054842, 0.034091, -0.083329, -0.008025, 0.000608, 9.829385, 0.006036, -0.027140
10.950000, -0.002368, 0.000779, 9.827297, 0.007915, 0.000618, 0.007793, 0.038619, -0.021020, -0.021020, 236.126047, 0.187675, -0.184044, 0.261998, -0.055297, 0.033996, -0.084291, -0.000844, 0.000608, 9.826991, 0.004542, -0.013808
11.000000, -0.003608, 0.002831, 9.827831, 0.003944, 0.003978, 0.008098, 0.030286, -0.023489, -0.023489, 238.024396, 0.190781, -0.185941, 0.266760, -0.055725, 0.034114, -0.085281, -0.004434, 0.004199, 9.828188, 0.016504, -0.021033
11.050000, -0.003385, 0.001497, 9.825173, 0.009595, 0.005352, 0.006418, 0.036936, -0.022027, -0.022027, 237.515981, 0.193918, -0.187836, 0.271569, -0.056205, 0.034102, -0.086123, -0.003237, 0.000608, 9.823400, 0.008731, -0.019743
11.100000, -0.004733, 0.000964, 9.824827, 0.002417, 0.005352, 0.005349, 0.023747, -0.021253, -0.021253, 238.833990, 0.197079, -0.189738, 0.276420, -0.056690, 0.034207, -0.086947, -0.005631, 0.000608, 9.824597, 0.005621, -0.027600
11.150000, -0.003835, 0.000032, 9.823253, 0.006846, 0.006879, 0.004433, 0.022826, -0.016116, -0.016116, 237.448008, 0.200256, -0.191635, 0.281300, -0.057114, 0.034223, -0.087681, -0.003237, -0.000589, 9.822204, 0.000189, -0.022371
11.200000, -0.004195, 0.002532, 9.823342, 0.008373, 0.005657, 0.006113, 0.027045, -0.014776, -0.014776, 237.369402, 0.203451, -0.193540, 0.286219, -0.057491, 0.034325, -0.088420, -0.004434, 0.004199, 9.823400, 0.014769, -0.024466
11.250000, -0.002902, 0.002814, 9.821941, 0.010511, 0.003825, 0.007946, 0.036704, -0.017860, -0.017860, 238.059113, 0.206670, -0.195444, 0.291176, -0.057873, 0.034340, -0.089082, -0.002040, 0.003002, 9.821007, 0.016415, -0.016930
11.300000, -0.006694, 0.000772, 9.822817, 0.003639, 0.006116, 0.007029, 0.026477, -0.016287, -0.016287, 238.119821, 0.209925, -0.197357, 0.296174, -0.058429, 0.034447, -0.089792, -0.009221, -0.000589, 9.823400, 0.004506, -0.039044
11.350000, -0.005338, 0.001392, 9.819576, 0.005930, 0.007948, 0.005502, 0.023292, -0.009450, -0.009450, 238.305494, 0.213200, -0.199275, 0.301198, -0.058832, 0.034533, -0.090324, -0.004434, 0.001805, 9.817416, 0.008122, -0.031146
11.400000, -0.001923, 0.000204, 9.820435, 0.005930, 0.005199, 0.006571, 0.019783, -0.008987, -0.008987, 238.119821, 0.216489, -0.201189, 0.306263, -0.059089, 0.034487, -0.090903, 0.000353, -0.000589, 9.821007, 0.001188, -0.011221
11.450000, -0.005584, -0.000272, 9.819342, 0.007151, 0.007490, 0.006418, 0.019515, -0.004085, -0.004085, 239.102635, 0.219802, -0.203104, 0.311352, -0.059491, 0.034504, -0.091421, -0.008025, -0.000589, 9.818613, -0.001585, -0.032583
11.500000, -0.004176, 0.003129, 9.819623, 0.010359, 0.003519, 0.007640, 0.029188, -0.009545, -0.009545, 236.801862, 0.223128, -0.205025, 0.316465, -0.059819, 0.034589, -0.091955, -0.003237, 0.005396, 9.819810, 0.018255, -0.024366
11.550000, -0.005049, 0.002334, 9.818299, 0.007762, 0.006116, 0.004586, 0.030879, -0.008138, -0.008138, 238.421404, 0.226618, -0.207027, 0.321819, -0.060225, 0.034644, -0.092434, -0.005631, 0.001805, 9.817416, 0.013623, -0.029464
11.600000, -0.003962, 0.004171, 9.817769, 0.006846, 0.006116, 0.008251, 0.030765, -0.006424, -0.006424, 237.774341, 0.229993, -0.208964, 0.326999, -0.060495, 0.034743, -0.092867, -0.003237, 0.005396, 9.817416, 0.024342, -0.023122
11.650000, -0.004245, 0.002751, 9.816839, 0.003334, 0.004130, 0.008251, 0.020711, -0.010273, -0.010273, 237.635345, 0.233374, -0.210903, 0.332183, -0.060801, 0.034884, -0.093246, -0.004434, 0.001805, 9.816220, 0.016059, -0.024777
11.700000, -0.007949, 0.001466, 9.818622, 0.006388, 0.003519, 0.006877, 0.018931, -0.017108, -0.017108, 237.635345, 0.236795, -0.212858, 0.337396, -0.061363, 0.035124, -0.093724, -0.010418, 0.000608, 9.819810, 0.008552, -0.046386
11.750000, -0.006558, 0.003105, 9.820053, 0.005013, 0.002450, 0.009473, 0.014323, -0.025746, -0.025746, 237.729306, 0.240236, -0.214834, 0.342636, -0.061858, 0.035479, -0.094281, -0.005631, 0.004199, 9.821007, 0.018119, -0.038264
11.800000, -0.006002, 0.003043, 9.819189, 0.006541, 0.003978, 0.005197, 0.014092, -0.029486, -0.029486, 238.251949, 0.243707, -0.216831, 0.347906, -0.062357, 0.035837, -0.094790, -0.005631, 0.003002, 9.818613, 0.017758, -0.035021
11.850000, -0.005061, 0.003737, 9.819562, 0.005930, 0.003978, 0.006877, 0.012570, -0.032553, -0.032553, 238.119821, 0.247201, -0.218850, 0.353204, -0.062809, 0.036226, -0.095320, -0.004434, 0.004199, 9.819810, 0.021802, -0.029531
11.900000, -0.004685, 0.002578, 9.821865, 0.005930, 0.005505, 0.008862, 0.010684, -0.031170, -0.031170, 237.719217, 0.250719, -0.220885, 0.358541, -0.063256, 0.036558, -0.095978, -0.004434, 0.001805, 9.823400, 0.015037, -0.027330
11.950000, -0.005253, 0.001396, 9.820632, 0.004097, 0.003825, 0.006571, 0.003579, -0.034580, -0.034580, 236.557496, 0.254263, -0.222940, 0.363904, -0.063756, 0.036926, -0.096566, -0.005631, 0.000608, 9.819810, 0.008144, -0.030645
12.000000, -0.006916, 0.000923, 9.817266, 0.004861, 0.001534, 0.007793, -0.001164, -0.044522, -0.044522, 238.035837, 0.257882, -0.225045, 0.369337, -0.064409, 0.037414, -0.096972, -0.008025, 0.000608, 9.815023, 0.005389, -0.040362
12.050000, -0.005427, 0.003607, 9.818074, 0.008526, 0.003214, 0.005808, 0.005350, -0.048608, -0.048608, 237.809561, 0.261534, -0.227184, 0.374801, -0.064979, 0.037953, -0.097423, -0.004434, 0.005396, 9.818613, 0.021047, -0.031669
12.100000, -0.004831, 0.006834, 9.817680, 0.008679, 0.003978, 0.004739, 0.013233, -0.050058, -0.050058, 237.610127, 0.265177, -0.229339, 0.380237, -0.065471, 0.038565, -0.097849, -0.004434, 0.008986, 9.817416, 0.039884, -0.028195
12.150000, -0.008183, 0.004535, 9.819676, 0.005472, 0.005199, 0.004280, 0.011102, -0.049555, -0.049555, 238.775766, 0.268870, -0.231531, 0.385713, -0.066175, 0.039184, -0.098385, -0.010418, 0.003002, 9.821007, 0.026460, -0.047748
12.200000, -0.010960, 0.002179, 9.821911, 0.009290, 0.005505, 0.005960, 0.018270, -0.049483, -0.049483, 236.738076, 0.272614, -0.233746, 0.391218, -0.067113, 0.039716, -0.099044, -0.012812, 0.000608, 9.823400, 0.012710, -0.063938
12.250000, -0.007763, 0.003391, 9.827113, 0.003486, 0.005505, 0.006418, 0.010029, -0.048064, -0.048064, 236.978429, 0.276402, -0.235999, 0.396802, -0.067814, 0.040271, -0.099995, -0.005631, 0.004199, 9.830581, 0.019769, -0.045260
12.300000, -0.010074, 0.001721, 9.827758, 0.006693, 0.005657, 0.005808, 0.010208, -0.047343, -0.047343, 237.559029, 0.280240, -0.238281, 0.402439, -0.068668, 0.040812, -0.100980, -0.011615, 0.000608, 9.828188, 0.010035, -0.058732
12.350000, -0.009562, 0.003926, 9.825143, 0.009748, 0.004130, 0.006266, 0.019428, -0.050536, -0.050536, 237.891850, 0.284116, -0.240591, 0.408106, -0.069503, 0.041382, -0.101819, -0.009221, 0.005396, 9.823400, 0.022893, -0.055764
12.400000, -0.010794, 0.004090, 9.826970, 0.006541, 0.004894, 0.005197, 0.019540, -0.052017, -0.052017, 237.376945, 0.288042, -0.242936, 0.413826, -0.070403, 0.042003, -0.102759, -0.011615, 0.004199, 9.828188, 0.023844, -0.062934
12.450000, -0.008414, 0.002719, 9.825546, 0.005930, 0.001992, 0.008556, 0.017441, -0.060077, -0.060077, 237.465730, 0.292015, -0.245307, 0.419589, -0.071285, 0.042547, -0.103619, -0.006828, 0.001805, 9.824597, 0.015854, -0.049066
12.500000, -0.006744, 0.002889, 9.824259, 0.003181, 0.001840, 0.004433, 0.008279, -0.067183, -0.067183, 238.950827, 0.296068, -0.247737, 0.425447, -0.072102, 0.043164, -0.104415, -0.005631, 0.003002, 9.823400, 0.016847, -0.039333
12.550000, -0.005358, 0.003675, 9.825180, 0.008221, 0.003825, 0.007182, 0.013529, -0.067812, -0.067812, 238.071373, 0.300163, -0.250199, 0.431357, -0.072864, 0.043737, -0.105263, -0.004434, 0.004199, 9.825794, 0.021429, -0.031246
12.600000, -0.005522, 0.001117, 9.824112, 0.005777, 0.003367, 0.006266, 0.010819, -0.069576, -0.069576, 238.000490, 0.304278, -0.252667, 0.437265, -0.073704, 0.044221, -0.106046, -0.005631, -0.000589, 9.823400, 0.006513, -0.032204
12.650000, -0.005587, 0.005838, 9.825839, 0.010359, 0.007032, 0.006571, 0.022498, -0.061410, -0.061410, 237.358914, 0.308420, -0.255165, 0.443215, -0.074399, 0.044792, -0.106923, -0.005631, 0.008986, 9.826991, 0.034044, -0.032580
12.700000, -0.006332, 0.005573, 9.827967, 0.004555, 0.004436, 0.007335, 0.017838, -0.060977, -0.060977, 239.026913, 0.312650, -0.257727, 0.449291, -0.075119, 0.045414, -0.107929, -0.006828, 0.005396, 9.829385, 0.032488, -0.036912
12.750000, -0.008065, 0.004748, 9.827381, 0.002723, 0.003367, 0.010847, 0.008351, -0.064094, -0.064094, 236.823241, 0.316891, -0.260311, 0.455370, -0.075915, 0.046137, -0.108895, -0.009221, 0.004199, 9.826991, 0.027683, -0.047023
12.800000, -0.008759, 0.002264, 9.825711, 0.005930, 0.006574, 0.007946, 0.007051, -0.058730, -0.058730, 237.533144, 0.321174, -0.262922, 0.461484, -0.076767, 0.046745, -0.109765, -0.009221, 0.000608, 9.824597, 0.013203, -0.051076
12.850000, -0.008318, 0.000553, 9.825761, 0.010053, 0.002298, 0.007029, 0.016052, -0.064888, -0.064888, 238.333676, 0.325510, -0.265552, 0.467640, -0.077743, 0.047219, -0.110638, -0.008025, -0.000589, 9.825794, 0.003222, -0.048506
12.900000, -0.007424, 0.001304, 9.825781, 0.002112, 0.005505, 0.006877, 0.003618, -0.061649, -0.061649, 237.929170, 0.329891, -0.268219, 0.473851, -0.078566, 0.047785, -0.111513, -0.006828, 0.001805, 9.825794, 0.007604, -0.043291
12.950000, -0.007784, -0.000550, 9.827225, 0.003028, 0.002909, 0.007487, -0.006254, -0.065637, -0.065637, 237.301700, 0.334321, -0.270917, 0.480114, -0.079443, 0.048374, -0.112467, -0.008025, -0.001785, 9.828188, -0.003205, -0.045385
13.000000, -0.005056, 0.000863, 9.826366, 0.008221, 0.004741, 0.009320, -0.001001, -0.063225, -0.063225, 236.340728, 0.338818, -0.273663, 0.486472, -0.080162, 0.048898, -0.113381, -0.003237, 0.001805, 9.825794, 0.005033, -0.029481
